fsq_place_id,name,latitude,longitude,address,locality,region,postcode,admin_region,post_town,po_box,country,date_created,date_refreshed,date_closed,tel,website,email,facebook_id,instagram,twitter,fsq_category_ids,fsq_category_labels,geom,bbox,labels_str,taco_restaurant
4d6d5076183a236a22095f3a,Asadero El Norteño,32.64147586499058,-115.4775658985649,Calle Del Hospital,Mexicali,BC,,,,,MX,2011-03-01,2020-11-23,,,,,,,,['4bf58dd8d48988d151941735'],['Dining and Drinking > Restaurant > Mexican Restaurant > Taco Restaurant'],b'\x00\x00\x00\x00\x01\xc0\\\xde\x90p\x8f\x01Z@@R\x1b\xe1\x92\xa7h',"{'xmin': -115.4775658985649, 'ymin': 32.64147586499058, 'xmax': -115.4775658985649, 'ymax': 32.64147586499058}",dining and drinking > restaurant > mexican restaurant > taco restaurant,1
4ecefaa9f5b9832ad88e75ca,Tacos El Flamazo,31.891908530688994,-116.6940098066593,,El Sauzal,Baja California,,,,,MX,2011-11-25,2020-11-26,,,,,,,,['4bf58dd8d48988d151941735'],['Dining and Drinking > Restaurant > Mexican Restaurant > Taco Restaurant'],"b'\x00\x00\x00\x00\x01\xc0],j\xa8\x1b\xad\x1e@?\xe4T\x1e\x12U('","{'xmin': -116.6940098066593, 'ymin': 31.891908530688994, 'xmax': -116.6940098066593, 'ymax': 31.891908530688994}",dining and drinking > restaurant > mexican restaurant > taco restaurant,1
4f2c0f6ae4b05d297c62164b,Tortillería La Rentería,31.8640500510585,-116.62672174592377,Calle 2nda.,Ensenada,B.C.,,,,,MX,2012-02-03,2020-11-25,,,,,,,,['4bf58dd8d48988d151941735'],['Dining and Drinking > Restaurant > Mexican Restaurant > Taco Restaurant'],b'\x00\x00\x00\x00\x01\xc0](\x1c5\x86\x9b\xd1@?\xdd2bWgD',"{'xmin': -116.62672174592377, 'ymin': 31.8640500510585, 'xmax': -116.62672174592377, 'ymax': 31.8640500510585}",dining and drinking > restaurant > mexican restaurant > taco restaurant,1
587bc87ae1109525d0eb2a7f,PokéGym - Tortillería Cervantes,31.855274,-116.590387,Calle Primera,Ensenada,Baja California,,,,,MX,2017-01-15,2023-12-20,,646 120 9814,,,542272789306068.0,,,['4bf58dd8d48988d151941735'],['Dining and Drinking > Restaurant > Mexican Restaurant > Taco Restaurant'],b'\x00\x00\x00\x00\x01\xc0]%\xc8\xe6\x8e>\xf3@?\xda\xf3<\xa3\x1e~',"{'xmin': -116.590387, 'ymin': 31.855274, 'xmax': -116.590387, 'ymax': 31.855274}",dining and drinking > restaurant > mexican restaurant > taco restaurant,1
5b63d7c479187100390842e2,Punta Del Valle,32.067197,-116.63889,,Ensenada,BC,22766,,,,MX,2018-08-03,2020-11-21,,,,,,,,['4bf58dd8d48988d151941735' '4bf58dd8d48988d1ce941735'],"['Dining and Drinking > Restaurant > Mexican Restaurant > Taco Restaurant'
 'Dining and Drinking > Restaurant > Seafood Restaurant']",b'\x00\x00\x00\x00\x01\xc0](\xe3\x92\xe1\xeft@@\x08\x99\xe9J\xb1\xd5',"{'xmin': -116.63889, 'ymin': 32.067197, 'xmax': -116.63889, 'ymax': 32.067197}","dining and drinking > restaurant > mexican restaurant > taco restaurant, dining and drinking > restaurant > seafood restaurant",1
55dec8f2498eea4a64d64b09,Tacos EL Mayoral,31.882984281498885,-116.61101293560246,,,,,,,,MX,2015-08-27,2021-08-16,,,,,,,,['4bf58dd8d48988d151941735'],['Dining and Drinking > Restaurant > Mexican Restaurant > Taco Restaurant'],"b""\x00\x00\x00\x00\x01\xc0]'\x1a\xd5\xff\xf6\x1d@?\xe2\x0bB\x03\xebv""","{'xmin': -116.61101293560246, 'ymin': 31.882984281498885, 'xmax': -116.61101293560246, 'ymax': 31.882984281498885}",dining and drinking > restaurant > mexican restaurant > taco restaurant,1
57376177498e1acc8ea5e6d7,D'Marco,32.0753,-116.625529,,,,,,,,MX,2016-05-14,2020-11-30,,,,,,,,['4bf58dd8d48988d151941735'],['Dining and Drinking > Restaurant > Mexican Restaurant > Taco Restaurant'],b'\x00\x00\x00\x00\x01\xc0](\x08\xaa\xc9l\xc6@@\t\xa3n.\xb1\xc4',"{'xmin': -116.625529, 'ymin': 32.0753, 'xmax': -116.625529, 'ymax': 32.0753}",dining and drinking > restaurant > mexican restaurant > taco restaurant,1
4f7cea02e4b02e1313cb904c,Tacos El Zarpazo,31.79242710219409,-116.58697377227236,Libramiento Escritores,Ensenada,,22785,,,,MX,2011-12-20,2023-12-21,,646 137 9452,,,971960816234862.0,,,['4bf58dd8d48988d151941735'],['Dining and Drinking > Restaurant > Mexican Restaurant > Taco Restaurant'],b'\x00\x00\x00\x00\x01\xc0]%\x90\xfap\xe1@@?\xca\xdc\x80\xa8c>',"{'xmin': -116.58697377227236, 'ymin': 31.79242710219409, 'xmax': -116.58697377227236, 'ymax': 31.79242710219409}",dining and drinking > restaurant > mexican restaurant > taco restaurant,1
66f6fff7c91f8b2a723be38b,Los Dorados,32.506937,-116.999421,,Tijuana,B.C.,22020,,,,MX,2024-09-27,2024-09-27,,,,,,,,['4bf58dd8d48988d151941735'],['Dining and Drinking > Restaurant > Mexican Restaurant > Taco Restaurant'],b'\x00\x00\x00\x00\x01\xc0]?\xf6\x83\x7f{\xe1@@@\xe3O\xc6\x10\xf1',"{'xmin': -116.999421, 'ymin': 32.506937, 'xmax': -116.999421, 'ymax': 32.506937}",dining and drinking > restaurant > mexican restaurant > taco restaurant,1
51cfa3c1498ee4304869ec15,Asadero Chelo,32.472868,-114.762319,,,,,,,,MX,2013-06-30,2021-08-14,,,,,,,,['4bf58dd8d48988d151941735'],['Dining and Drinking > Restaurant > Mexican Restaurant > Taco Restaurant'],b'\x00\x00\x00\x00\x01\xc0\\\xb0\xc9\xd5\xa1\x87\xa5@@<\x86\xf0I\xa9\x97',"{'xmin': -114.762319, 'ymin': 32.472868, 'xmax': -114.762319, 'ymax': 32.472868}",dining and drinking > restaurant > mexican restaurant > taco restaurant,1
5a349d2e3149b939decb5d9c,Tacos El After,32.526919,-117.031906,,Tijuana,BC,22000,,,,MX,2017-12-16,2020-11-24,,,,,,,,['4bf58dd8d48988d151941735'],['Dining and Drinking > Restaurant > Mexican Restaurant > Taco Restaurant'],b'\x00\x00\x00\x00\x01\xc0]B\n\xbfv\xa2\xf5@@Cr\x14\xf0R\r',"{'xmin': -117.031906, 'ymin': 32.526919, 'xmax': -117.031906, 'ymax': 32.526919}",dining and drinking > restaurant > mexican restaurant > taco restaurant,1
4f2248fae4b04b552331c976,Tacos Armando's,32.662937526015824,-115.43890561284364,Av. Americas 650,Mexicali,Baja California,,,,,MX,2012-01-27,2024-10-19,,,,,,,,['4bf58dd8d48988d151941735'],['Dining and Drinking > Restaurant > Mexican Restaurant > Taco Restaurant'],b'\x00\x00\x00\x00\x01\xc0\\\xdc\x17\x07\x91Lo@@T\xdb#\x08\xc3\xba',"{'xmin': -115.43890561284364, 'ymin': 32.662937526015824, 'xmax': -115.43890561284364, 'ymax': 32.662937526015824}",dining and drinking > restaurant > mexican restaurant > taco restaurant,1
4e04cbd6483b2dc03fbfd8a6,Tacos De Birria El Reve,32.545516490935334,-116.9132423400845,blvd Bellas Artes,Tijuana,Baja California,,,,,MX,2011-06-24,2020-11-25,,,,,,,,['4bf58dd8d48988d151941735'],['Dining and Drinking > Restaurant > Mexican Restaurant > Taco Restaurant'],b'\x00\x00\x00\x00\x01\xc0]:r\x8f\xff\xff\x11@@E\xd3{\xff\xff{',"{'xmin': -116.9132423400845, 'ymin': 32.545516490935334, 'xmax': -116.9132423400845, 'ymax': 32.545516490935334}",dining and drinking > restaurant > mexican restaurant > taco restaurant,1
4d72cacb311f6ea8664ce1ea,Tacos El Chopipo,32.50852,-116.954956,Diamante 449,Tijuana,Baja California,22110,,,,MX,2011-03-05,2022-12-19,,,,,,,,['4bf58dd8d48988d151941735'],['Dining and Drinking > Restaurant > Mexican Restaurant > Taco Restaurant'],b'\x00\x00\x00\x00\x01\xc0]=\x1d\xff\xc5G\x9d@@A\x17.\xf0\xaeS',"{'xmin': -116.954956, 'ymin': 32.50852, 'xmax': -116.954956, 'ymax': 32.50852}",dining and drinking > restaurant > mexican restaurant > taco restaurant,1
65ac157706fc1911cfefd254,Tacos Del Regio,32.634575,-115.38632,,Mexicali,Baja California,21376,,,,MX,2024-01-20,2024-01-20,,,,,,,,['4bf58dd8d48988d151941735'],['Dining and Drinking > Restaurant > Mexican Restaurant > Taco Restaurant'],b'\x00\x00\x00\x00\x01\xc0\\\xd8\xb9w\x85r\x9b@@Q9\xc0\xeb\xed\xfa',"{'xmin': -115.38632, 'ymin': 32.634575, 'xmax': -115.38632, 'ymax': 32.634575}",dining and drinking > restaurant > mexican restaurant > taco restaurant,1
581d65404e1d9a192410c5c3,Taqueria Tamix,22.154045,-100.991861,,,,,,,,MX,2016-11-05,2021-08-12,,,,,,,,['4bf58dd8d48988d151941735'],['Dining and Drinking > Restaurant > Mexican Restaurant > Taco Restaurant'],"b""\x00\x00\x00\x00\x01\xc0Y?z\xa6\x8fKb@6'o~=\x1c\xc1""","{'xmin': -100.991861, 'ymin': 22.154045, 'xmax': -100.991861, 'ymax': 22.154045}",dining and drinking > restaurant > mexican restaurant > taco restaurant,1
515a60d6e4b03c0e285262c3,Tacos Don Felipe 2,20.644552871716296,-103.39942332078479,Aguamarina,Guadalajara,Jalisco,45089,,,,MX,2013-04-02,2020-11-23,,,,,,,,['4bf58dd8d48988d151941735'],['Dining and Drinking > Restaurant > Mexican Restaurant > Taco Restaurant'],b'\x00\x00\x00\x00\x01\xc0Y\xd9\x90&\xd5\x01\xf2@4\xa5\x01j\xc0\x90{',"{'xmin': -103.39942332078479, 'ymin': 20.644552871716296, 'xmax': -103.39942332078479, 'ymax': 20.644552871716296}",dining and drinking > restaurant > mexican restaurant > taco restaurant,1
56952e7a498e6c8ec55010bd,Tacos Tellin,20.620418,-103.066279,,,,,,,,MX,2016-01-12,2021-08-15,,,,,,,,['4bf58dd8d48988d151941735'],['Dining and Drinking > Restaurant > Mexican Restaurant > Taco Restaurant'],b'\x00\x00\x00\x00\x01\xc0Y\xc4=\xeaFZW@4\x9e\xd3\xb6\xcb\xd9\x88',"{'xmin': -103.066279, 'ymin': 20.620418, 'xmax': -103.066279, 'ymax': 20.620418}",dining and drinking > restaurant > mexican restaurant > taco restaurant,1
5451b5d2498e1940a6070550,"Tacos ""Los poderosos""",21.14668185865364,-101.66538645927109,Rafael Iriarte,León,,,,,,MX,2014-10-30,2020-11-22,,,,,,,,['4bf58dd8d48988d151941735'],['Dining and Drinking > Restaurant > Mexican Restaurant > Taco Restaurant'],b'\x00\x00\x00\x00\x01\xc0Yj\x95\xb1\x16qQ@5%\x8c\xf19\xd5y',"{'xmin': -101.66538645927109, 'ymin': 21.14668185865364, 'xmax': -101.66538645927109, 'ymax': 21.14668185865364}",dining and drinking > restaurant > mexican restaurant > taco restaurant,1
5b06fd3c628c83002cdaafbd,Taco Buffet Hungry's,22.14792,-100.98745,,San Luis Potosí,San Luis Potosí,78230,,,,MX,2018-05-24,2020-11-23,,,,,,,,['4bf58dd8d48988d151941735'],['Dining and Drinking > Restaurant > Mexican Restaurant > Taco Restaurant'],b'\x00\x00\x00\x00\x01\xc0Y?2a|\x1b\xda@6%\xde\x15\xcal\xa0',"{'xmin': -100.98745, 'ymin': 22.14792, 'xmax': -100.98745, 'ymax': 22.14792}",dining and drinking > restaurant > mexican restaurant > taco restaurant,1
321178b348294fdb38f11670,Menuderia Mago,20.70998,-103.31153,San Gabriel 2717,Guadalajara,Jalisco,44300,,,,MX,2014-12-06,2024-09-14,,33 3674 3274,,,,,,['4bf58dd8d48988d151941735'],['Dining and Drinking > Restaurant > Mexican Restaurant > Taco Restaurant'],b'\x00\x00\x00\x00\x01\xc0Y\xd3\xf0\x1b\x86nD@4\xb5\xc1?\xd0\xd0h',"{'xmin': -103.31153, 'ymin': 20.70998, 'xmax': -103.31153, 'ymax': 20.70998}",dining and drinking > restaurant > mexican restaurant > taco restaurant,1
50941b04e4b08c7beae29080,Huaraches Roy,20.213084902676094,-101.1294049152904,,,,,,,,MX,2012-11-02,2021-08-14,,,,,,,,['4bf58dd8d48988d151941735'],['Dining and Drinking > Restaurant > Mexican Restaurant > Taco Restaurant'],b'\x00\x00\x00\x00\x01\xc0YHH+\x8d\xc7J@46\x8c\xbbpC\xe2',"{'xmin': -101.1294049152904, 'ymin': 20.213084902676094, 'xmax': -101.1294049152904, 'ymax': 20.213084902676094}",dining and drinking > restaurant > mexican restaurant > taco restaurant,1
4f02605d775bec6b45e7207c,Taqueria Arandas,21.109788307913675,-101.66893226999011,Mariano Escobedo,León de Los Aldama,Guanajuato,,,,,MX,2012-01-03,2020-11-24,,,,,,,,['4bf58dd8d48988d151941735'],['Dining and Drinking > Restaurant > Mexican Restaurant > Taco Restaurant'],"b""\x00\x00\x00\x00\x01\xc0Yj\xcf\xc9K\xb6.@5\x1c\x1b\x16'\xf8\xf0""","{'xmin': -101.66893226999011, 'ymin': 21.109788307913675, 'xmax': -101.66893226999011, 'ymax': 21.109788307913675}",dining and drinking > restaurant > mexican restaurant > taco restaurant,1
5cd34b14d1a402002c379627,Tacos Y Micheladas El Rodeo Suc Jpani Y Nieto,21.877651,-102.30397,j Pani 101,Aguascalientes,Aguascalientes,20000,,,,MX,2019-05-08,2020-11-25,,,,,,,,['4bf58dd8d48988d151941735'],['Dining and Drinking > Restaurant > Mexican Restaurant > Taco Restaurant'],b'\x00\x00\x00\x00\x01\xc0Y\x93t>\x96=\xc5@5\xe0\xad\xbcfM<',"{'xmin': -102.30397, 'ymin': 21.877651, 'xmax': -102.30397, 'ymax': 21.877651}",dining and drinking > restaurant > mexican restaurant > taco restaurant,1
505a7a48e4b05d7960f851b7,Tacos El Tope,21.02598959373067,-101.25962754541759,,,,,,,,MX,2012-09-20,2021-08-13,,,,,,,,['4bf58dd8d48988d151941735'],['Dining and Drinking > Restaurant > Mexican Restaurant > Taco Restaurant'],b'\x00\x00\x00\x00\x01\xc0YP\x9d\xbc\xda-e@5\x06\xa7A\x07\x1c\x0c',"{'xmin': -101.25962754541759, 'ymin': 21.02598959373067, 'xmax': -101.25962754541759, 'ymax': 21.02598959373067}",dining and drinking > restaurant > mexican restaurant > taco restaurant,1
4ea6f4a26c255b8d9dcaec8c,Gradilla Tacos De Carnitas,20.623981,-105.23042,,Puerto Vallarta,Jalisco,,,,,MX,2011-10-25,2020-11-24,,,,,,,,['4bf58dd8d48988d151941735'],['Dining and Drinking > Restaurant > Mexican Restaurant > Taco Restaurant'],b'\x00\x00\x00\x00\x01\xc0ZN\xbf3\x87\x16\t@4\x9f\xbd8\x04SL',"{'xmin': -105.23042, 'ymin': 20.623981, 'xmax': -105.23042, 'ymax': 20.623981}",dining and drinking > restaurant > mexican restaurant > taco restaurant,1
563d7643cd10987f6cf36218,Tacos El Asadero,20.620785350545145,-103.41723178570534,Sierra Mazamitla #5880,Zapopan,Jalisco,45080,,,,MX,2015-11-07,2020-11-30,,,,,,,,['4bf58dd8d48988d151941735'],['Dining and Drinking > Restaurant > Mexican Restaurant > Taco Restaurant'],b'\x00\x00\x00\x00\x01\xc0Y\xda\xb3\xec\xf2\x9d1@4\x9e\xeb\xc9\xeamc',"{'xmin': -103.41723178570534, 'ymin': 20.620785350545145, 'xmax': -103.41723178570534, 'ymax': 20.620785350545145}",dining and drinking > restaurant > mexican restaurant > taco restaurant,1
4fbc27c6e4b0e5233b4516bf,Tacos el paisa,20.651709041018712,-103.38433659323955,,,,,,,,MX,2012-05-22,2021-08-14,,,,,,,,['4bf58dd8d48988d151941735'],['Dining and Drinking > Restaurant > Mexican Restaurant > Taco Restaurant'],b'\x00\x00\x00\x00\x01\xc0Y\xd8\x98\xf8\x82\xa7\xad@4\xa6\xd6gY\xae\xd2',"{'xmin': -103.38433659323955, 'ymin': 20.651709041018712, 'xmax': -103.38433659323955, 'ymax': 20.651709041018712}",dining and drinking > restaurant > mexican restaurant > taco restaurant,1
6220359b55eb2c4098c2bb09,Flautas La Queen,20.746335,-103.401178,,Zapopan,JAL,45130,,,,MX,2022-03-03,2022-03-03,,,,,,,,['4bf58dd8d48988d151941735'],['Dining and Drinking > Restaurant > Mexican Restaurant > Taco Restaurant'],b'\x00\x00\x00\x00\x01\xc0Y\xd9\xac\xe6}w\xfb@4\xbf\x0f\xcf\x80\xdc3',"{'xmin': -103.401178, 'ymin': 20.746335, 'xmax': -103.401178, 'ymax': 20.746335}",dining and drinking > restaurant > mexican restaurant > taco restaurant,1
5320b5e7498e2e6d18551317,tacos  la central,21.07408617007556,-101.68492882889834,,,,,,,,MX,2014-03-12,2021-08-13,,,,,,,,['4bf58dd8d48988d151941735'],['Dining and Drinking > Restaurant > Mexican Restaurant > Taco Restaurant'],b'\x00\x00\x00\x00\x01\xc0Yk\xd5\xdf\xba\r.@5\x12\xf7O\xad\x8fx',"{'xmin': -101.68492882889834, 'ymin': 21.07408617007556, 'xmax': -101.68492882889834, 'ymax': 21.07408617007556}",dining and drinking > restaurant > mexican restaurant > taco restaurant,1
4f43d88be4b0836e960212d3,El Ranchero Las Torres,20.629610208597526,-103.44335165668693,Av Las Torres,Zapopan,,,,,,MX,2012-02-21,2020-11-23,,,http://elranchero.mx,,,,,['4bf58dd8d48988d151941735' '4bf58dd8d48988d1c1941735'],"['Dining and Drinking > Restaurant > Mexican Restaurant > Taco Restaurant'
 'Dining and Drinking > Restaurant > Mexican Restaurant']","b'\x00\x00\x00\x00\x01\xc0Y\xdc_\xdf\xa0\x86B@4\xa1.""w\'t'","{'xmin': -103.44335165668693, 'ymin': 20.629610208597526, 'xmax': -103.44335165668693, 'ymax': 20.629610208597526}","dining and drinking > restaurant > mexican restaurant > taco restaurant, dining and drinking > restaurant > mexican restaurant",1
57c0f8a1498e4d84a451849b,Tacos Yeyo's,20.672215,-103.345749,"Avenida Héroes 107 Centro 44100 Guadalajara, JAL México",,Guadalajara,,,,,MX,2016-08-27,2021-08-13,,,,,,,,['4bf58dd8d48988d151941735'],['Dining and Drinking > Restaurant > Mexican Restaurant > Taco Restaurant'],b'\x00\x00\x00\x00\x01\xc0Y\xd6 \xc0i\xe7\xfb@4\xac\x16H@\xe1r',"{'xmin': -103.345749, 'ymin': 20.672215, 'xmax': -103.345749, 'ymax': 20.672215}",dining and drinking > restaurant > mexican restaurant > taco restaurant,1
53ce6ecf498ef4d74b8396ef,Tacos Terranova,20.69620629371677,-103.38649737270833,,,,,,,,MX,2014-07-22,2021-08-16,,,,,,,,['4bf58dd8d48988d151941735'],['Dining and Drinking > Restaurant > Mexican Restaurant > Taco Restaurant'],b'\x00\x00\x00\x00\x01\xc0Y\xd8\xbc_y\xf1l@4\xb2:\x93^\xc8l',"{'xmin': -103.38649737270833, 'ymin': 20.69620629371677, 'xmax': -103.38649737270833, 'ymax': 20.69620629371677}",dining and drinking > restaurant > mexican restaurant > taco restaurant,1
55fee2b2498efeb0530be235,Tacos de Guisado Sinaloa,20.740228198157382,-103.43108076237722,,,,,,,,MX,2015-09-20,2021-08-16,,,,,,,,['4bf58dd8d48988d151941735'],['Dining and Drinking > Restaurant > Mexican Restaurant > Taco Restaurant'],b'\x00\x00\x00\x00\x01\xc0Y\xdb\x96\xd3\xc4\x16\x13@4\xbd\x7f\x98^\xa9\xb8',"{'xmin': -103.43108076237722, 'ymin': 20.740228198157382, 'xmax': -103.43108076237722, 'ymax': 20.740228198157382}",dining and drinking > restaurant > mexican restaurant > taco restaurant,1
4eece27ce5faa560f08443ae,"Taqueria ""El Señor Misericordia""",20.871871472084653,-101.51691096766457,,Romita,Guanajuato,36200,,,,MX,2011-12-17,2020-11-24,,,,,,,,['4bf58dd8d48988d151941735'],['Dining and Drinking > Restaurant > Mexican Restaurant > Taco Restaurant'],b'\x00\x00\x00\x00\x01\xc0Ya\x15\x11\xbdD\t@4\xdf2\xf8\x02\xebA',"{'xmin': -101.51691096766457, 'ymin': 20.871871472084653, 'xmax': -101.51691096766457, 'ymax': 20.871871472084653}",dining and drinking > restaurant > mexican restaurant > taco restaurant,1
620c67595533f6059d2261aa,Tacotlán,21.170532,-101.65741,,León,Guanajuato,37200,,,,MX,2022-02-16,2022-02-16,,,,,,,,['4bf58dd8d48988d151941735'],['Dining and Drinking > Restaurant > Mexican Restaurant > Taco Restaurant'],b'\x00\x00\x00\x00\x01\xc0Yj\x13\x01d\x84\x0e@5+\xa7\xfc2\xeb\xe6',"{'xmin': -101.65741, 'ymin': 21.170532, 'xmax': -101.65741, 'ymax': 21.170532}",dining and drinking > restaurant > mexican restaurant > taco restaurant,1
595ee47cf5e9d7031d5f3604,Tacos La Barbi,21.173088,-101.65007,,León,GTO,,,,,MX,2017-07-07,2020-11-22,,,,,,,,['4bf58dd8d48988d151941735'],['Dining and Drinking > Restaurant > Mexican Restaurant > Taco Restaurant'],"b'\x00\x00\x00\x00\x01\xc0Yi\x9a\xbf3\x87\x16@5,O~\xc3T~'","{'xmin': -101.65007, 'ymin': 21.173088, 'xmax': -101.65007, 'ymax': 21.173088}",dining and drinking > restaurant > mexican restaurant > taco restaurant,1
50d29d7fe4b057df64ad5a86,Tacos La Rana,21.07761295438439,-101.63488527580866,Bulevar DELTA,Leon,GUANAJUATO,37530,,,,MX,2012-12-20,2020-11-23,2016-03-18,,,,,,,['4bf58dd8d48988d151941735'],['Dining and Drinking > Restaurant > Mexican Restaurant > Taco Restaurant'],b'\x00\x00\x00\x00\x01\xc0Yh\xa1\xf5\xda\x13\xd9@5\x13\xdeqL\xd3\xaf',"{'xmin': -101.63488527580866, 'ymin': 21.07761295438439, 'xmax': -101.63488527580866, 'ymax': 21.07761295438439}",dining and drinking > restaurant > mexican restaurant > taco restaurant,1
4e67c0cd7d8b084ac7788ff7,"Carniceria y Rosticeria ""La Ilusion""",22.161684477192992,-101.01847556000611,,San Luis Potosí,San Luis Potosí,,,,,MX,2011-09-07,2020-11-23,,,,,,,,['4bf58dd8d48988d151941735'],['Dining and Drinking > Restaurant > Mexican Restaurant > Taco Restaurant'],"b""\x00\x00\x00\x00\x01\xc0YA.\xb4\x1d\x80\x19@6)d'e\xd0\x94""","{'xmin': -101.01847556000611, 'ymin': 22.161684477192992, 'xmax': -101.01847556000611, 'ymax': 22.161684477192992}",dining and drinking > restaurant > mexican restaurant > taco restaurant,1
5136bf22e4b052e6ac7aa8bb,Tacos Rafa II,20.603138387194512,-103.4089423030038,,,,,,,,MX,2013-03-06,2021-08-12,,,,,,,,['4bf58dd8d48988d151941735'],['Dining and Drinking > Restaurant > Mexican Restaurant > Taco Restaurant'],"b'\x00\x00\x00\x00\x01\xc0Y\xda,\x1cVV\x8b@4\x9agF\xff\xf6n'","{'xmin': -103.4089423030038, 'ymin': 20.603138387194512, 'xmax': -103.4089423030038, 'ymax': 20.603138387194512}",dining and drinking > restaurant > mexican restaurant > taco restaurant,1
53eab79f498e82ed086c1899,Los Tacos Mas Hediondos.,21.106433868408203,-101.6495361328125,,,,,,,,MX,2014-08-13,2021-08-14,,,,,,,,['4bf58dd8d48988d151941735'],['Dining and Drinking > Restaurant > Mexican Restaurant > Taco Restaurant'],b'\x00\x00\x00\x00\x01\xc0Yi\x92\x00\x00\x00\x00@5\x1b?@\x00\x00\x00',"{'xmin': -101.6495361328125, 'ymin': 21.106433868408203, 'xmax': -101.6495361328125, 'ymax': 21.106433868408203}",dining and drinking > restaurant > mexican restaurant > taco restaurant,1
523ddd84498edca6430ec89b,Tacos De Barbacoa El Chato,20.695413160344007,-103.31164182705477,,,,,,,,MX,2013-09-21,2021-08-11,,,,,,,,['4bf58dd8d48988d151941735'],['Dining and Drinking > Restaurant > Mexican Restaurant > Taco Restaurant'],b'\x00\x00\x00\x00\x01\xc0Y\xd3\xf1\xf0\x8f\xd1\x05@4\xb2\x06\x98\xcc\xe2\xb1',"{'xmin': -103.31164182705477, 'ymin': 20.695413160344007, 'xmax': -103.31164182705477, 'ymax': 20.695413160344007}",dining and drinking > restaurant > mexican restaurant > taco restaurant,1
5a9c201d7269fe58b45f205b,Menuderia El Pitillal,20.651349,-105.220512,,Puerto Vallarta,JAL,48290,,,,MX,2018-03-04,2020-11-22,,,,,,,,['4bf58dd8d48988d151941735'],['Dining and Drinking > Restaurant > Mexican Restaurant > Taco Restaurant'],b'\x00\x00\x00\x00\x01\xc0ZN\x1c\xde]\x18\t@4\xa6\xbe\xce\xddHE',"{'xmin': -105.220512, 'ymin': 20.651349, 'xmax': -105.220512, 'ymax': 20.651349}",dining and drinking > restaurant > mexican restaurant > taco restaurant,1
50095a79e4b074c5b674f289,El Panda,20.690916941546902,-103.45408668158716,,,,,,,,MX,2012-07-20,2021-08-11,,,,,,,,['4bf58dd8d48988d151941735'],['Dining and Drinking > Restaurant > Mexican Restaurant > Taco Restaurant'],b'\x00\x00\x00\x00\x01\xc0Y\xdd\x0f\xc1\x95\xbd\xd3@4\xb0\xdf\xee\xc42@',"{'xmin': -103.45408668158716, 'ymin': 20.690916941546902, 'xmax': -103.45408668158716, 'ymax': 20.690916941546902}",dining and drinking > restaurant > mexican restaurant > taco restaurant,1
4e45dbfbd164155c0dde46dd,Tacos El Cuñao,20.09199677790901,-101.51658909256668,Guerrero 34,Puruándiro,MICH,,,,,MX,2011-08-13,2020-11-22,,,,,,,,['4bf58dd8d48988d151941735'],['Dining and Drinking > Restaurant > Mexican Restaurant > Taco Restaurant'],b'\x00\x00\x00\x00\x01\xc0Ya\x0f\xcb\xb2\x82\xd4@4\x17\x8d\x19\xd0t\xe2',"{'xmin': -101.51658909256668, 'ymin': 20.09199677790901, 'xmax': -101.51658909256668, 'ymax': 20.09199677790901}",dining and drinking > restaurant > mexican restaurant > taco restaurant,1
4eada35393ad7677a91a6564,Tacos San Elias,20.7076483120163,-103.33165989541455,,Guadalajara,,,,,,MX,2011-10-30,2023-12-20,,33 3636 5685,,,,,,['4bf58dd8d48988d151941735'],['Dining and Drinking > Restaurant > Mexican Restaurant > Taco Restaurant'],b'\x00\x00\x00\x00\x01\xc0Y\xd59\xeam\x0c\xd1@4\xb5(p\x95-\xfb',"{'xmin': -103.33165989541455, 'ymin': 20.7076483120163, 'xmax': -103.33165989541455, 'ymax': 20.7076483120163}",dining and drinking > restaurant > mexican restaurant > taco restaurant,1
5915d991e2ead122892a21fa,Gazpe Tacos Y Tortas,20.548597,-100.794975,Carr. a San Miguel Octopan,Emiliano Zapata,Guanajuato,,,,,MX,2017-05-12,2020-11-23,,,,,,,,['4bf58dd8d48988d151941735'],['Dining and Drinking > Restaurant > Mexican Restaurant > Taco Restaurant'],b'\x00\x00\x00\x00\x01\xc0Y2\xe0\xde\xd2\x88\xce@4\x8cp\xda]\xaf\x08',"{'xmin': -100.794975, 'ymin': 20.548597, 'xmax': -100.794975, 'ymax': 20.548597}",dining and drinking > restaurant > mexican restaurant > taco restaurant,1
55e25d0c498e273c7908845e,Taquería La Glorieta,20.694072212382817,-103.36807268378507,Manuel Cambre,,,,,,,MX,2015-08-30,2021-08-10,,,,,,,,['4bf58dd8d48988d151941735'],['Dining and Drinking > Restaurant > Mexican Restaurant > Taco Restaurant'],b'\x00\x00\x00\x00\x01\xc0Y\xd7\x8e\x80\xba\xda\x1a@4\xb1\xae\xb7m?\x1f',"{'xmin': -103.36807268378507, 'ymin': 20.694072212382817, 'xmax': -103.36807268378507, 'ymax': 20.694072212382817}",dining and drinking > restaurant > mexican restaurant > taco restaurant,1
64a1b6cc8021020fc95b9ca6,Quesadillas Azules,21.935907,-102.27303,"Av. Siglo XXI 1533, Pozo Bravo, Montebello de la Stanza, 20126 Aguascalientes, Ags.",Aguascalientes,Aguascalientes,20126,,,,MX,2023-07-02,2023-07-02,,449 348 9564,,,,quesadillasazules,,['4bf58dd8d48988d151941735'],['Dining and Drinking > Restaurant > Mexican Restaurant > Taco Restaurant'],b'\x00\x00\x00\x00\x01\xc0Y\x91yR\xd24\xec@5\xef\x97\x99\xe5\x18\xf4',"{'xmin': -102.27303, 'ymin': 21.935907, 'xmax': -102.27303, 'ymax': 21.935907}",dining and drinking > restaurant > mexican restaurant > taco restaurant,1
53767798498e3603d59440c7,Tacozaz,20.641669,-103.392169,,,,,,,,MX,2014-05-16,2021-08-15,,,,,,,,['4bf58dd8d48988d151941735'],['Dining and Drinking > Restaurant > Mexican Restaurant > Taco Restaurant'],b'\x00\x00\x00\x00\x01\xc0Y\xd9\x19L\x01`R@4\xa4Dki\xdbf',"{'xmin': -103.392169, 'ymin': 20.641669, 'xmax': -103.392169, 'ymax': 20.641669}",dining and drinking > restaurant > mexican restaurant > taco restaurant,1
52c0e723498e31be70d48b97,CENADURIA,20.214356,-101.128921,,,,,,,,MX,2013-12-30,2021-08-11,,,,,,,,['4bf58dd8d48988d151941735'],['Dining and Drinking > Restaurant > Mexican Restaurant > Taco Restaurant'],b'\x00\x00\x00\x00\x01\xc0YH@=\xdd\xb1!@46\xe0\x08\xe9\xb3\x8d',"{'xmin': -101.128921, 'ymin': 20.214356, 'xmax': -101.128921, 'ymax': 20.214356}",dining and drinking > restaurant > mexican restaurant > taco restaurant,1
5215684d11d2f96f85c180b4,"""Conde Taco""",20.67692756652832,-101.38105010986328,,,,,,,,MX,2013-08-22,2021-08-12,,,,,,,,['4bf58dd8d48988d151941735'],['Dining and Drinking > Restaurant > Mexican Restaurant > Taco Restaurant'],b'\x00\x00\x00\x00\x01\xc0YXc \x00\x00\x00@4\xadK \x00\x00\x00',"{'xmin': -101.38105010986328, 'ymin': 20.67692756652832, 'xmax': -101.38105010986328, 'ymax': 20.67692756652832}",dining and drinking > restaurant > mexican restaurant > taco restaurant,1
52c08275498efb0065d00017,El Amigo Chon,21.151379,-101.684374,,,,,,,,MX,2013-12-29,2021-08-14,,,,,,,,['4bf58dd8d48988d151941735'],['Dining and Drinking > Restaurant > Mexican Restaurant > Taco Restaurant'],b'\x00\x00\x00\x00\x01\xc0Yk\xcc\xc8\x9b\x0e\xe5@5&\xc0\xc6.M\x1a',"{'xmin': -101.684374, 'ymin': 21.151379, 'xmax': -101.684374, 'ymax': 21.151379}",dining and drinking > restaurant > mexican restaurant > taco restaurant,1
506fb92ee4b055cee098039c,Tacos Brenda,19.117709460748355,-104.35241850256652,,Manzanillo,COL,,,,,MX,2012-10-06,2020-11-24,,,,,,,,['4bf58dd8d48988d151941735'],['Dining and Drinking > Restaurant > Mexican Restaurant > Taco Restaurant'],"b'\x00\x00\x00\x00\x01\xc0Z\x16\x8e\x06U\xc1\xd3@3\x1e""5\x0cX\x0f'","{'xmin': -104.35241850256652, 'ymin': 19.117709460748355, 'xmax': -104.35241850256652, 'ymax': 19.117709460748355}",dining and drinking > restaurant > mexican restaurant > taco restaurant,1
50840982498e54db9e77593a,Birrieria San Diego,20.997732512048366,-101.9926870456479,Carretera San Diego- San Julián Km 1,,Jalisco,,,,,MX,2012-10-21,2021-08-15,,,,,,,,['4bf58dd8d48988d151941735'],['Dining and Drinking > Restaurant > Mexican Restaurant > Taco Restaurant'],b'\x00\x00\x00\x00\x01\xc0Y\x7f\x88/?\x0e\x1e@4\xffke\xddgV',"{'xmin': -101.9926870456479, 'ymin': 20.997732512048366, 'xmax': -101.9926870456479, 'ymax': 20.997732512048366}",dining and drinking > restaurant > mexican restaurant > taco restaurant,1
5ae28c5062845c0024d4953c,Taqueria Saguayo,20.633529,-103.386947,,Guadalajara,JAL,44950,,,,MX,2018-04-27,2021-08-14,,,,,,,,['4bf58dd8d48988d151941735'],['Dining and Drinking > Restaurant > Mexican Restaurant > Taco Restaurant'],b'\x00\x00\x00\x00\x01\xc0Y\xd8\xc3\xbdY\x92C@4\xa2.\xf4\xe0\x11M',"{'xmin': -103.386947, 'ymin': 20.633529, 'xmax': -103.386947, 'ymax': 20.633529}",dining and drinking > restaurant > mexican restaurant > taco restaurant,1
5cbb4c15bd4009002c6c91a9,Tacos De Birria,21.541659,-105.284812,Echeverria,San Blas,NAY,63740,,,,MX,2019-04-20,2020-11-22,,,,,,,,['4bf58dd8d48988d151941735' '4bf58dd8d48988d1c1941735'],"['Dining and Drinking > Restaurant > Mexican Restaurant > Taco Restaurant'
 'Dining and Drinking > Restaurant > Mexican Restaurant']",b'\x00\x00\x00\x00\x01\xc0ZR:\\\x1c`\x89@5\x8a\xaa*\n\x95\x85',"{'xmin': -105.284812, 'ymin': 21.541659, 'xmax': -105.284812, 'ymax': 21.541659}","dining and drinking > restaurant > mexican restaurant > taco restaurant, dining and drinking > restaurant > mexican restaurant",1
53c362d1498eab058bd53239,Tacos Panchito,20.581195865853562,-101.19831443040893,,,,,,,,MX,2014-07-14,2021-08-14,,,,,,,,['4bf58dd8d48988d151941735'],['Dining and Drinking > Restaurant > Mexican Restaurant > Taco Restaurant'],b'\x00\x00\x00\x00\x01\xc0YL\xb1/\x02;\x99@4\x94\xc9@\x94iU',"{'xmin': -101.19831443040893, 'ymin': 20.581195865853562, 'xmax': -101.19831443040893, 'ymax': 20.581195865853562}",dining and drinking > restaurant > mexican restaurant > taco restaurant,1
59f3f58c464d65170d8e65c8,Taqueria El Kiosco,20.680645,-103.435702,,Zapopan,JAL,45026,,,,MX,2017-10-28,2020-11-23,,,,,,,,['4bf58dd8d48988d151941735'],['Dining and Drinking > Restaurant > Mexican Restaurant > Taco Restaurant'],b'\x00\x00\x00\x00\x01\xc0Y\xdb\xe2\x8a\xa43Q@4\xae>\xc0//\x98',"{'xmin': -103.435702, 'ymin': 20.680645, 'xmax': -103.435702, 'ymax': 20.680645}",dining and drinking > restaurant > mexican restaurant > taco restaurant,1
4f45b1a7e4b0eedbd6007d24,Tacos Aristeo,21.14368091129719,-101.6785421377199,,,,,,,,MX,2012-02-23,2021-08-14,,,,,,,,['4bf58dd8d48988d151941735'],['Dining and Drinking > Restaurant > Mexican Restaurant > Taco Restaurant'],b'\x00\x00\x00\x00\x01\xc0Ykm<\x00\x9d\xc1@5$\xc8E\xaf\x14\xb6',"{'xmin': -101.6785421377199, 'ymin': 21.14368091129719, 'xmax': -101.6785421377199, 'ymax': 21.14368091129719}",dining and drinking > restaurant > mexican restaurant > taco restaurant,1
563c10d4498e41deb981b805,Taquería La Gloria,21.89559130574582,-102.31157213019473,Av. Fundición,Aguascalientes,Aguascalientes,,,,,MX,2015-11-06,2023-12-20,,348 111 1360,,,,,,['4bf58dd8d48988d151941735'],['Dining and Drinking > Restaurant > Mexican Restaurant > Taco Restaurant'],b'\x00\x00\x00\x00\x01\xc0Y\x93\xf0\xcc;b\x03@5\xe5Ex\xc8\xc2\x9f',"{'xmin': -102.31157213019473, 'ymin': 21.89559130574582, 'xmax': -102.31157213019473, 'ymax': 21.89559130574582}",dining and drinking > restaurant > mexican restaurant > taco restaurant,1
526d5393498e9c916b458793,"Tortas y Tacos Ahogados ""Las Pacanda""",19.67478220424681,-101.19796812126819,La Pacanda 50 Frente al No. 286,"Morelia, MICH",Michoacán,58090,,,,MX,2013-10-27,2020-11-23,,443 340 4646,,,,,,['4bf58dd8d48988d151941735'],['Dining and Drinking > Restaurant > Mexican Restaurant > Taco Restaurant'],b'\x00\x00\x00\x00\x01\xc0YL\xab\x82{\x9f\xd6@3\xac\xbe\x86\xcb)\xb0',"{'xmin': -101.19796812126819, 'ymin': 19.67478220424681, 'xmax': -101.19796812126819, 'ymax': 19.67478220424681}",dining and drinking > restaurant > mexican restaurant > taco restaurant,1
57547158498eba01722cc35f,Tortas Ahogadas D.GATO,20.649312,-103.290912,León Felipe #3358,Guadalajara,Jalisco,,,,,MX,2016-06-05,2023-12-21,,33 1386 9076,,,,,,['4bf58dd8d48988d151941735'],['Dining and Drinking > Restaurant > Mexican Restaurant > Taco Restaurant'],b'\x00\x00\x00\x00\x01\xc0Y\xd2\x9eM]\x80\xe5@4\xa69O\xac\xe6}',"{'xmin': -103.290912, 'ymin': 20.649312, 'xmax': -103.290912, 'ymax': 20.649312}",dining and drinking > restaurant > mexican restaurant > taco restaurant,1
5e3cdbbe346b7c00085ae972,Don Asado,21.106258,-101.66782,,León,Guanajuato,37480,,,,MX,2020-02-07,2020-11-25,,,,,,,,['4bf58dd8d48988d151941735'],['Dining and Drinking > Restaurant > Mexican Restaurant > Taco Restaurant'],b'\x00\x00\x00\x00\x01\xc0Yj\xbd\x90\x18\xe7X@5\x1b3\xb9j\xf09',"{'xmin': -101.66782, 'ymin': 21.106258, 'xmax': -101.66782, 'ymax': 21.106258}",dining and drinking > restaurant > mexican restaurant > taco restaurant,1
5361e355498ed59964dbed0b,"tacos ""lolo el cuñao""",21.10406464818075,-101.64824267606983,,,,,,,,MX,2014-05-01,2021-08-14,,,,,,,,['4bf58dd8d48988d151941735'],['Dining and Drinking > Restaurant > Mexican Restaurant > Taco Restaurant'],"b""\x00\x00\x00\x00\x01\xc0Yi|\xce\xd9e\xda@5\x1a\xa3\xfb\x14\x9b'""","{'xmin': -101.64824267606983, 'ymin': 21.10406464818075, 'xmax': -101.64824267606983, 'ymax': 21.10406464818075}",dining and drinking > restaurant > mexican restaurant > taco restaurant,1
4b7abbb7f964a520cf392fe3,Los Alteños,20.66160678875716,-103.4061844728363,Av. Cubilete 206,Zapopan,JAL,45050,,,,MX,2010-02-16,2021-11-23,,33 1544 3089,,,,,,['4bf58dd8d48988d151941735'],['Dining and Drinking > Restaurant > Mexican Restaurant > Taco Restaurant'],b'\x00\x00\x00\x00\x01\xc0Y\xd9\xfe\xed(\xbee@4\xa9_\x10\x00\x86\n',"{'xmin': -103.4061844728363, 'ymin': 20.66160678875716, 'xmax': -103.4061844728363, 'ymax': 20.66160678875716}",dining and drinking > restaurant > mexican restaurant > taco restaurant,1
4d5b52bafe90548118f0ffb5,Tacos America,21.091707892363385,-101.66554762985417,Calzada Tepeyac,Leon,Guanajuato,37000,,,,MX,2011-02-16,2020-11-22,,,,,,,,['4bf58dd8d48988d151941735'],['Dining and Drinking > Restaurant > Mexican Restaurant > Taco Restaurant'],b'\x00\x00\x00\x00\x01\xc0Yj\x98U\x16\t\xdb@5\x17z+\x1e|_',"{'xmin': -101.66554762985417, 'ymin': 21.091707892363385, 'xmax': -101.66554762985417, 'ymax': 21.091707892363385}",dining and drinking > restaurant > mexican restaurant > taco restaurant,1
5063ae1ae4b06c3a2c867de0,Tacos Rosy,20.654510600379023,-105.23289400473121,Cupuri,Puerto Vallarta,Jalisco,48314,,,,MX,2012-09-27,2020-11-23,,,,,,,,['4bf58dd8d48988d151941735'],['Dining and Drinking > Restaurant > Mexican Restaurant > Taco Restaurant'],b'\x00\x00\x00\x00\x01\xc0ZN\xe7\xbcApR@4\xa7\x8e\x01\xb7\x83c',"{'xmin': -105.23289400473121, 'ymin': 20.654510600379023, 'xmax': -105.23289400473121, 'ymax': 20.654510600379023}",dining and drinking > restaurant > mexican restaurant > taco restaurant,1
4ebc1ab54690a29fd6b1f3ac,Taqueria Mi Pueblito,19.324692632586967,-103.60434081478147,,,,,,,,MX,2011-11-10,2021-08-10,,,,,,,,['4bf58dd8d48988d151941735'],['Dining and Drinking > Restaurant > Mexican Restaurant > Taco Restaurant'],b'\x00\x00\x00\x00\x01\xc0Y\xe6\xad\x85\x18\xc7\xf6@3S\x1f\x0en6\x92',"{'xmin': -103.60434081478147, 'ymin': 19.324692632586967, 'xmax': -103.60434081478147, 'ymax': 19.324692632586967}",dining and drinking > restaurant > mexican restaurant > taco restaurant,1
5144b09be4b016fae371788c,Taqueria Comales,19.111401,-104.338534,,,,,,,,MX,2013-03-16,2021-08-11,,,,,,,,['4bf58dd8d48988d151941735'],['Dining and Drinking > Restaurant > Mexican Restaurant > Taco Restaurant'],b'\x00\x00\x00\x00\x01\xc0Z\x15\xaa\x8a\x82\xa5a@3\x1c\x84\xc6\xa3\xbd\xe0',"{'xmin': -104.338534, 'ymin': 19.111401, 'xmax': -104.338534, 'ymax': 19.111401}",dining and drinking > restaurant > mexican restaurant > taco restaurant,1
58dc0f742f91cb3fc009c2fb,Tacos El Dorado,20.673243,-103.427,,Zapopan,,,,,,MX,2017-03-29,2020-11-24,,,,,,,,['4bf58dd8d48988d151941735'],['Dining and Drinking > Restaurant > Mexican Restaurant > Taco Restaurant'],b'\x00\x00\x00\x00\x01\xc0Y\xdbS\xf7\xce\xd9\x17@4\xacY\xa7;B\xcc',"{'xmin': -103.427, 'ymin': 20.673243, 'xmax': -103.427, 'ymax': 20.673243}",dining and drinking > restaurant > mexican restaurant > taco restaurant,1
50f6e76ce4b0e95749bcf748,Quezadillas,21.12007068315871,-101.67240039025808,Prado,León,Guanajuato,37000,,,,MX,2013-01-16,2020-11-22,,,,,,,,['4bf58dd8d48988d151941735'],['Dining and Drinking > Restaurant > Mexican Restaurant > Taco Restaurant'],b'\x00\x00\x00\x00\x01\xc0Yk\x08\x9b\xa5~x@5\x1e\xbc\xf3\xc9`\x02',"{'xmin': -101.67240039025808, 'ymin': 21.12007068315871, 'xmax': -101.67240039025808, 'ymax': 21.12007068315871}",dining and drinking > restaurant > mexican restaurant > taco restaurant,1
54544bab498e05a0fd27fd1a,El Asador Del Chanfaino,19.262318,-103.714482,,,,,,,,MX,2014-11-01,2023-12-21,,312 323 7930,,,,,,['4bf58dd8d48988d151941735'],['Dining and Drinking > Restaurant > Mexican Restaurant > Taco Restaurant'],"b""\x00\x00\x00\x00\x01\xc0Y\xed\xba\x12\xb5\xe5*@3C'E\xbf&\xf2""","{'xmin': -103.714482, 'ymin': 19.262318, 'xmax': -103.714482, 'ymax': 19.262318}",dining and drinking > restaurant > mexican restaurant > taco restaurant,1
5325e1dc11d2682883699c7e,El Amigaso,20.7012939453125,-103.31769561767578,,Guadalajara,Jalisco,,,,,MX,2014-03-16,2021-08-17,,,,,,,,['4bf58dd8d48988d151941735'],['Dining and Drinking > Restaurant > Mexican Restaurant > Taco Restaurant'],b'\x00\x00\x00\x00\x01\xc0Y\xd4U \x00\x00\x00@4\xb3\x88\x00\x00\x00\x00',"{'xmin': -103.31769561767578, 'ymin': 20.7012939453125, 'xmax': -103.31769561767578, 'ymax': 20.7012939453125}",dining and drinking > restaurant > mexican restaurant > taco restaurant,1
6484f1e6f7a0ca67402c6250,Tacos Los Provi Aleden,20.703364,-103.422072,,Zapopan,JAL,45116,,,,MX,2023-06-10,2023-10-15,,,,,,,,['4bf58dd8d48988d151941735'],['Dining and Drinking > Restaurant > Mexican Restaurant > Taco Restaurant'],b'\x00\x00\x00\x00\x01\xc0Y\xdb\x03:G#\xab@4\xb4\x0f\xa9\xc1/\n',"{'xmin': -103.422072, 'ymin': 20.703364, 'xmax': -103.422072, 'ymax': 20.703364}",dining and drinking > restaurant > mexican restaurant > taco restaurant,1
5006e1dce4b08643c73fcd75,Tacos de Carne Asada,19.686487,-101.233002,,,,,,,,MX,2012-07-18,2021-08-16,,,,,,,,['4bf58dd8d48988d151941735'],['Dining and Drinking > Restaurant > Mexican Restaurant > Taco Restaurant'],b'\x00\x00\x00\x00\x01\xc0YN\xe9\x818y\xc4@3\xaf\xbd\x9c\xae!\x10',"{'xmin': -101.233002, 'ymin': 19.686487, 'xmax': -101.233002, 'ymax': 19.686487}",dining and drinking > restaurant > mexican restaurant > taco restaurant,1
572bf94e498eb6297d0a922b,Tacos La jaula,21.013558,-101.858776,,,,,,,,MX,2016-05-06,2021-08-12,,,,,,,,['4bf58dd8d48988d151941735'],['Dining and Drinking > Restaurant > Mexican Restaurant > Taco Restaurant'],b'\x00\x00\x00\x00\x01\xc0Yv\xf6/\x9c\xa5\xbe@5\x03x\x89~\x99c',"{'xmin': -101.858776, 'ymin': 21.013558, 'xmax': -101.858776, 'ymax': 21.013558}",dining and drinking > restaurant > mexican restaurant > taco restaurant,1
505dbc74e4b027df9c1ed8e6,Tacos El Pilon,20.563877,-101.180209,,,,,,,,MX,2012-09-22,2021-08-17,,,,,,,,['4bf58dd8d48988d151941735'],['Dining and Drinking > Restaurant > Mexican Restaurant > Taco Restaurant'],b'\x00\x00\x00\x00\x01\xc0YK\x88\x8bT\\y@4\x90Z>9\xf7s',"{'xmin': -101.180209, 'ymin': 20.563877, 'xmax': -101.180209, 'ymax': 20.563877}",dining and drinking > restaurant > mexican restaurant > taco restaurant,1
4c98e715d799a1cdb54cb652,Lonchería Mary 5,21.89463277757971,-102.27729818354555,Av Convención de 1914 Ote 618-A,Aguascalientes,AGS,,,,,MX,2010-09-21,2020-11-22,,,,,,,,['4bf58dd8d48988d151941735'],['Dining and Drinking > Restaurant > Mexican Restaurant > Taco Restaurant'],b'\x00\x00\x00\x00\x01\xc0Y\x91\xbf@\xe1d`@5\xe5\x06\xa7Y\xa2n',"{'xmin': -102.27729818354555, 'ymin': 21.89463277757971, 'xmax': -102.27729818354555, 'ymax': 21.89463277757971}",dining and drinking > restaurant > mexican restaurant > taco restaurant,1
e6b2e203225e4ab01a9f9482,Restaurante Lo Nuestro,20.679278,-103.361058,San Felipe 1039,Guadalajara,Jalisco,44200,,,,MX,2014-02-07,2023-12-06,,33 3825 5887,,,,,,['4bf58dd8d48988d151941735'],['Dining and Drinking > Restaurant > Mexican Restaurant > Taco Restaurant'],b'\x00\x00\x00\x00\x01\xc0Y\xd7\x1b\x93\x03}c@4\xad\xe5)\xba\xe4m',"{'xmin': -103.361058, 'ymin': 20.679278, 'xmax': -103.361058, 'ymax': 20.679278}",dining and drinking > restaurant > mexican restaurant > taco restaurant,1
529df74311d228cb0820f862,Tacos Del Feo,20.643516069050637,-103.28101186295443,,,,,,,,MX,2013-12-03,2021-08-11,,,,,,,,['4bf58dd8d48988d151941735'],['Dining and Drinking > Restaurant > Mexican Restaurant > Taco Restaurant'],b'\x00\x00\x00\x00\x01\xc0Y\xd1\xfc\x19.KY@4\xa4\xbdx\x17\x05\xe1',"{'xmin': -103.28101186295443, 'ymin': 20.643516069050637, 'xmax': -103.28101186295443, 'ymax': 20.643516069050637}",dining and drinking > restaurant > mexican restaurant > taco restaurant,1
abc1881ebea145cab902e4a8,Compayes,20.606825,-103.433105,Ignacio Allende 23D,Guadalajara,Jalisco,45239,,,,MX,2010-11-04,2023-12-20,,33 1077 2914,http://www.antojitosmarineros.com,,,,elcompayito,['4bf58dd8d48988d151941735' '63be6904847c3692a84b9bf0'],"['Dining and Drinking > Restaurant > Mexican Restaurant > Taco Restaurant'
 'Retail > Food and Beverage Retail > Meat and Seafood Store']","b'\x00\x00\x00\x00\x01\xc0Y\xdb\xb7\xfe\x08\xae\xfb@4\x9bX\xe2\x19e,'","{'xmin': -103.433105, 'ymin': 20.606825, 'xmax': -103.433105, 'ymax': 20.606825}","dining and drinking > restaurant > mexican restaurant > taco restaurant, retail > food and beverage retail > meat and seafood store",1
57fbe0f0498ecadc4067c6a5,Tortas Y Tacos Ahogados Las Tapatías,19.672092,-101.20073,,Morelia,Michoacán,,,,,MX,2016-10-10,2020-11-23,,,,,,,,['4bf58dd8d48988d151941735'],['Dining and Drinking > Restaurant > Mexican Restaurant > Taco Restaurant'],b'\x00\x00\x00\x00\x01\xc0YL\xd8\xc2\xa4T\xde@3\xac\x0e8\xa7\xe7:',"{'xmin': -101.20073, 'ymin': 19.672092, 'xmax': -101.20073, 'ymax': 19.672092}",dining and drinking > restaurant > mexican restaurant > taco restaurant,1
4ef54d78722e31c6488de666,Carnes Asadas El Alamo,19.287461454225458,-103.7263627566044,,,,,,,,MX,2011-12-24,2021-08-14,,,,,,,,['4bf58dd8d48988d151941735'],['Dining and Drinking > Restaurant > Mexican Restaurant > Taco Restaurant'],b'\x00\x00\x00\x00\x01\xc0Y\xee|\xba7)~@3I\x97\x12\xe8\xc2J',"{'xmin': -103.7263627566044, 'ymin': 19.287461454225458, 'xmax': -103.7263627566044, 'ymax': 19.287461454225458}",dining and drinking > restaurant > mexican restaurant > taco restaurant,1
54f0d086498edb39ef31159a,Taqueria Los Tarascos,20.731434741738347,-103.4544592352171,,,,,,,,MX,2015-02-27,2021-08-16,,,,,,,,['4bf58dd8d48988d151941735'],['Dining and Drinking > Restaurant > Mexican Restaurant > Taco Restaurant'],"b""\x00\x00\x00\x00\x01\xc0Y\xdd\x15\xdc0'\xd9@4\xbb?N\xa6\xec\xa6""","{'xmin': -103.4544592352171, 'ymin': 20.731434741738347, 'xmax': -103.4544592352171, 'ymax': 20.731434741738347}",dining and drinking > restaurant > mexican restaurant > taco restaurant,1
511f8e10e4b093807b1ac335,Tacos la esquina,20.728687286376953,-103.54183959960938,,,,,,,,MX,2013-02-16,2021-08-12,,,,,,,,['4bf58dd8d48988d151941735'],['Dining and Drinking > Restaurant > Mexican Restaurant > Taco Restaurant'],b'\x00\x00\x00\x00\x01\xc0Y\xe2\xad\x80\x00\x00\x00@4\xba\x8b@\x00\x00\x00',"{'xmin': -103.54183959960938, 'ymin': 20.728687286376953, 'xmax': -103.54183959960938, 'ymax': 20.728687286376953}",dining and drinking > restaurant > mexican restaurant > taco restaurant,1
500581f9e4b0ec07e26b40f0,tacos del poder judicial,20.681333432346765,-103.45488823770135,,,,,,,,MX,2012-07-17,2021-08-16,,,,,,,,['4bf58dd8d48988d151941735'],['Dining and Drinking > Restaurant > Mexican Restaurant > Taco Restaurant'],b'\x00\x00\x00\x00\x01\xc0Y\xdd\x1c\xe3\x8e\x10\xcb@4\xaek\xde)\x99\xcd',"{'xmin': -103.45488823770135, 'ymin': 20.681333432346765, 'xmax': -103.45488823770135, 'ymax': 20.681333432346765}",dining and drinking > restaurant > mexican restaurant > taco restaurant,1
555fd87f498e57b13c8b4f3d,Cuernavaca,21.938091278076172,-102.25548553466797,Rafael Gomez Ramirez 406,Aguascalientes,aguascalientes,20126,,,,MX,2015-05-23,2020-11-24,,,,,,,,['4bf58dd8d48988d151941735'],['Dining and Drinking > Restaurant > Mexican Restaurant > Taco Restaurant'],b'\x00\x00\x00\x00\x01\xc0Y\x90Y\xe0\x00\x00\x00@5\xf0&\xc0\x00\x00\x00',"{'xmin': -102.25548553466797, 'ymin': 21.938091278076172, 'xmax': -102.25548553466797, 'ymax': 21.938091278076172}",dining and drinking > restaurant > mexican restaurant > taco restaurant,1
587057ff0aac7528e9ca54c3,Tacos EL PRIMO,20.621834,-103.25342,Paseo Loma Sur,Tonala,Jalisco,45402,,,,MX,2017-01-07,2020-11-23,,,,,,,,['4bf58dd8d48988d151941735'],['Dining and Drinking > Restaurant > Mexican Restaurant > Taco Restaurant'],b'\x00\x00\x00\x00\x01\xc0Y\xd08\x08\x85\t\xc0@4\x9f0\x83U\x8av',"{'xmin': -103.25342, 'ymin': 20.621834, 'xmax': -103.25342, 'ymax': 20.621834}",dining and drinking > restaurant > mexican restaurant > taco restaurant,1
4f47c998e4b072f5a9b6c0ff,Tacos Carnitas Ixtapa,20.716827259034563,-105.21086205000158,Independencia,Puerto Vallarta,Jalisco,,,,,MX,2012-02-24,2020-11-22,,,,,,,,['4bf58dd8d48988d151941735'],['Dining and Drinking > Restaurant > Mexican Restaurant > Taco Restaurant'],b'\x00\x00\x00\x00\x01\xc0ZM~\xc3\x8a.[@4\xb7\x81\xfd\xc2oM',"{'xmin': -105.21086205000158, 'ymin': 20.716827259034563, 'xmax': -105.21086205000158, 'ymax': 20.716827259034563}",dining and drinking > restaurant > mexican restaurant > taco restaurant,1
55d7da59498e3658be8d41fe,Taqueria Arandas,19.105307,-104.333548,,"Manzanillo, COL",,,,,,MX,2015-08-22,2020-11-30,,,,,,,,['4bf58dd8d48988d151941735'],['Dining and Drinking > Restaurant > Mexican Restaurant > Taco Restaurant'],b'\x00\x00\x00\x00\x01\xc0Z\x15X\xd9\xb5\xe9[@3\x1a\xf5fI\n5',"{'xmin': -104.333548, 'ymin': 19.105307, 'xmax': -104.333548, 'ymax': 19.105307}",dining and drinking > restaurant > mexican restaurant > taco restaurant,1
5136bc14e4b079558580ea0e,Taquería El Taconsito,20.647393364760223,-101.34105881286426,Avenida San Roque,,,,,,,MX,2013-03-06,2021-08-10,,,,,,,,['4bf58dd8d48988d151941735'],['Dining and Drinking > Restaurant > Mexican Restaurant > Taco Restaurant'],b'\x00\x00\x00\x00\x01\xc0YU\xd3\xe8W\xd0\xef@4\xa5\xbb\x92QJ\xe5',"{'xmin': -101.34105881286426, 'ymin': 20.647393364760223, 'xmax': -101.34105881286426, 'ymax': 20.647393364760223}",dining and drinking > restaurant > mexican restaurant > taco restaurant,1
5599e9ea498e9ad79c3800a0,Tacos Steak,20.679345737071824,-101.38152480125427,Av. Quinta las Villas,,,,,,,MX,2015-07-06,2021-08-11,,,,,,,,['4bf58dd8d48988d151941735'],['Dining and Drinking > Restaurant > Mexican Restaurant > Taco Restaurant'],b'\x00\x00\x00\x00\x01\xc0YXj\xe7\x00\x00\x00@4\xad\xe9\x9a+f\x87',"{'xmin': -101.38152480125427, 'ymin': 20.679345737071824, 'xmax': -101.38152480125427, 'ymax': 20.679345737071824}",dining and drinking > restaurant > mexican restaurant > taco restaurant,1
5380c491498e151a0515f367,tacos el more,20.662308,-103.30409,San Andrés,,,,,,,MX,2014-05-24,2021-08-12,,,,,,,,['4bf58dd8d48988d151941735'],['Dining and Drinking > Restaurant > Mexican Restaurant > Taco Restaurant'],b'\x00\x00\x00\x00\x01\xc0Y\xd3v5\xe7B\x9a@4\xa9\x8d\x04_\xe1\x11',"{'xmin': -103.30409, 'ymin': 20.662308, 'xmax': -103.30409, 'ymax': 20.662308}",dining and drinking > restaurant > mexican restaurant > taco restaurant,1
522e852011d2c76cb085cb2a,Tacos Hotel San Jose,20.349446,-102.036682,,,,,,,,MX,2013-09-10,2021-08-13,,,,,,,,['4bf58dd8d48988d151941735'],['Dining and Drinking > Restaurant > Mexican Restaurant > Taco Restaurant'],b'\x00\x00\x00\x00\x01\xc0Y\x82X\xffu\x96\x85@4YuK\x05\xb7\xd0',"{'xmin': -102.036682, 'ymin': 20.349446, 'xmax': -102.036682, 'ymax': 20.349446}",dining and drinking > restaurant > mexican restaurant > taco restaurant,1
58057aaf38fade7b06e89c33,Taqueria don tacón,21.012117,-101.250663,,,,,,,,MX,2016-10-18,2021-08-11,,,,,,,,['4bf58dd8d48988d151941735'],['Dining and Drinking > Restaurant > Mexican Restaurant > Taco Restaurant'],b'\x00\x00\x00\x00\x01\xc0YP\n\xdc\xd2\xd4N@5\x03\x1a\x19\x86\xb9\xc3',"{'xmin': -101.250663, 'ymin': 21.012117, 'xmax': -101.250663, 'ymax': 21.012117}",dining and drinking > restaurant > mexican restaurant > taco restaurant,1
4d8d58313bfef04df6937f86,Tacos Pepe's,20.695994207767182,-103.32775519531238,Sierra nevada,Guadalajara,JAL,,,,,MX,2011-03-26,2021-08-15,,,,,,,,['4bf58dd8d48988d151941735' '4bf58dd8d48988d147941735'],"['Dining and Drinking > Restaurant > Mexican Restaurant > Taco Restaurant'
 'Dining and Drinking > Restaurant > Diner']","b'\x00\x00\x00\x00\x01\xc0Y\xd4\xf9\xf0\xed=}@4\xb2,\xad(\x90\xc3'","{'xmin': -103.32775519531238, 'ymin': 20.695994207767182, 'xmax': -103.32775519531238, 'ymax': 20.695994207767182}","dining and drinking > restaurant > mexican restaurant > taco restaurant, dining and drinking > restaurant > diner",1
54a2c969498e1b782209daf9,Tacos De Puerco Titinos,21.508537608988533,-104.8953115002111,Amado Nervo,,,,,,,MX,2014-12-30,2021-08-17,,,,,,,,['4bf58dd8d48988d151941735'],['Dining and Drinking > Restaurant > Mexican Restaurant > Taco Restaurant'],b'\x00\x00\x00\x00\x01\xc0Z9L\xc8\x9bH\xeb@5\x82/\x85OdL',"{'xmin': -104.8953115002111, 'ymin': 21.508537608988533, 'xmax': -104.8953115002111, 'ymax': 21.508537608988533}",dining and drinking > restaurant > mexican restaurant > taco restaurant,1
558aca70498ecbac727121b1,Tacos Martin,21.065847368982556,-101.68601277108984,,,,,,,,MX,2015-06-24,2021-08-15,,,,,,,,['4bf58dd8d48988d151941735'],['Dining and Drinking > Restaurant > Mexican Restaurant > Taco Restaurant'],b'\x00\x00\x00\x00\x01\xc0Yk\xe7\xa2\x1c\x1e\x07@5\x10\xdb_\x88N\xc7',"{'xmin': -101.68601277108984, 'ymin': 21.065847368982556, 'xmax': -101.68601277108984, 'ymax': 21.065847368982556}",dining and drinking > restaurant > mexican restaurant > taco restaurant,1
50c1758ce4b077d5c4594618,Tacos la Estrella,20.744544982910156,-103.40219116210938,,,,,,,,MX,2012-12-07,2021-08-11,,,,,,,,['4bf58dd8d48988d151941735'],['Dining and Drinking > Restaurant > Mexican Restaurant > Taco Restaurant'],b'\x00\x00\x00\x00\x01\xc0Y\xd9\xbd\x80\x00\x00\x00@4\xbe\x9a\x80\x00\x00\x00',"{'xmin': -103.40219116210938, 'ymin': 20.744544982910156, 'xmax': -103.40219116210938, 'ymax': 20.744544982910156}",dining and drinking > restaurant > mexican restaurant > taco restaurant,1
5456cb84498ea04d5b5a7539,La Ktrina,20.663998,-103.414615,,,,,,,,MX,2014-11-03,2021-08-17,,,,,,,,['4bf58dd8d48988d151941735'],['Dining and Drinking > Restaurant > Mexican Restaurant > Taco Restaurant'],b'\x00\x00\x00\x00\x01\xc0Y\xda\x89\rZ[\x96@4\xa9\xfb\xc5\xde\x9c\x02',"{'xmin': -103.414615, 'ymin': 20.663998, 'xmax': -103.414615, 'ymax': 20.663998}",dining and drinking > restaurant > mexican restaurant > taco restaurant,1
5b9d2c1164c8e1002c4bb557,Tacos Chapo,20.663084,-103.29146,,Guadalajara,Jalisco,44790,,,,MX,2018-09-15,2021-08-12,,,,,,,,['4bf58dd8d48988d151941735'],['Dining and Drinking > Restaurant > Mexican Restaurant > Taco Restaurant'],b'\x00\x00\x00\x00\x01\xc0Y\xd2\xa7G\xd8\x05\xe6@4\xa9\xbf\xdf~\x809',"{'xmin': -103.29146, 'ymin': 20.663084, 'xmax': -103.29146, 'ymax': 20.663084}",dining and drinking > restaurant > mexican restaurant > taco restaurant,1
5674cfe9498ee8858305231a,El Taco Mixe,22.14071277753143,-101.0307677815973,,,,,,,,MX,2015-12-19,2021-08-13,,,,,,,,['4bf58dd8d48988d151941735'],['Dining and Drinking > Restaurant > Mexican Restaurant > Taco Restaurant'],b'\x00\x00\x00\x00\x01\xc0YA\xf8\x19m\xee\xc7@6$\x05\xc0\xa9\xa0w',"{'xmin': -101.0307677815973, 'ymin': 22.14071277753143, 'xmax': -101.0307677815973, 'ymax': 22.14071277753143}",dining and drinking > restaurant > mexican restaurant > taco restaurant,1
5b2c8a4c79f6c7002c42c897,Tacos 2x1,21.020105,-101.270593,,Guanajuato,GTO,36030,,,,MX,2018-06-22,2020-11-25,,,,,,,,['4bf58dd8d48988d151941735'],['Dining and Drinking > Restaurant > Mexican Restaurant > Taco Restaurant'],b'\x00\x00\x00\x00\x01\xc0YQQeMa\xb3@5\x05%\x99\xed|p',"{'xmin': -101.270593, 'ymin': 21.020105, 'xmax': -101.270593, 'ymax': 21.020105}",dining and drinking > restaurant > mexican restaurant > taco restaurant,1
5917e8ef5d891b3e89375e81,Lopez De Vaca,21.14953547660382,-101.70618652678384,Blvd. Juan Alonso de Torres Pte. 2518,León,Guanajuato,37150,,,,MX,2017-05-14,2020-11-24,,33 1014 8610,,,,,lopezdevaca,['4bf58dd8d48988d151941735'],['Dining and Drinking > Restaurant > Mexican Restaurant > Taco Restaurant'],b'\x00\x00\x00\x00\x01\xc0Ym2(\xf9Ze@5&G\xf4\xfd\x9a\xed',"{'xmin': -101.70618652678384, 'ymin': 21.14953547660382, 'xmax': -101.70618652678384, 'ymax': 21.14953547660382}",dining and drinking > restaurant > mexican restaurant > taco restaurant,1
4f10fbbbe4b072565c3689f4,tacos,21.498996207316413,-104.89787182137285,,,,,,,,MX,2012-01-14,2021-08-15,,,,,,,,['4bf58dd8d48988d151941735'],['Dining and Drinking > Restaurant > Mexican Restaurant > Taco Restaurant'],"b""\x00\x00\x00\x00\x01\xc0Z9v\xbb_2\xf7@5\x7f\xbe7'@\x85""","{'xmin': -104.89787182137285, 'ymin': 21.498996207316413, 'xmax': -104.89787182137285, 'ymax': 21.498996207316413}",dining and drinking > restaurant > mexican restaurant > taco restaurant,1
6404ea204e2bfe556a5a75ae,Los Pinches Tacos,21.853352,-102.352187,Blvd. Juan Pablo II 1373 Xenia Residencial,Aguascalientes,Aguascalientes,20200,,,,MX,2023-03-05,2023-03-05,,,,,,,,['4bf58dd8d48988d151941735'],['Dining and Drinking > Restaurant > Mexican Restaurant > Taco Restaurant'],b'\x00\x00\x00\x00\x01\xc0Y\x96\x8a;W\xc4\xe3@5\xdauF\xd3\xf9\xe8',"{'xmin': -102.352187, 'ymin': 21.853352, 'xmax': -102.352187, 'ymax': 21.853352}",dining and drinking > restaurant > mexican restaurant > taco restaurant,1
4e72bcb1483b4dd0bde93120,Tacos Los compadres,20.7227449413445,-103.36929230627791,,Zapopan,,,,,,MX,2011-09-16,2023-09-13,,,,,,,,['4bf58dd8d48988d151941735'],['Dining and Drinking > Restaurant > Mexican Restaurant > Taco Restaurant'],b'\x00\x00\x00\x00\x01\xc0Y\xd7\xa2|2\x882@4\xb9\x05\xcf\xfel\x90',"{'xmin': -103.36929230627791, 'ymin': 20.7227449413445, 'xmax': -103.36929230627791, 'ymax': 20.7227449413445}",dining and drinking > restaurant > mexican restaurant > taco restaurant,1
5288238a11d2efaed5c7dd78,Los Molcajetes,20.655324038797072,-105.2274596707719,,,,,,,,MX,2013-11-17,2021-08-11,,,,,,,,['4bf58dd8d48988d151941735'],['Dining and Drinking > Restaurant > Mexican Restaurant > Taco Restaurant'],b'\x00\x00\x00\x00\x01\xc0ZN\x8e\xb3\x01\xc7\xf4@4\xa7\xc3P\xf2\xea\x83',"{'xmin': -105.2274596707719, 'ymin': 20.655324038797072, 'xmax': -105.2274596707719, 'ymax': 20.655324038797072}",dining and drinking > restaurant > mexican restaurant > taco restaurant,1
92386384ded942f762677cfd,Micheladas Ildefonso Portugal,19.697603,-101.268481,Ildefonso Portugal 419,Morelia,Michoacán,58337,,,,MX,2013-03-07,2023-12-06,,443 334 3165,,,,,,['4bf58dd8d48988d116941735' '4bf58dd8d48988d151941735'],"['Dining and Drinking > Bar'
 'Dining and Drinking > Restaurant > Mexican Restaurant > Taco Restaurant']",b'\x00\x00\x00\x00\x01\xc0YQ.\xca\xee\xa6;@3\xb2\x96\x1c6\x97l',"{'xmin': -101.268481, 'ymin': 19.697603, 'xmax': -101.268481, 'ymax': 19.697603}","dining and drinking > bar, dining and drinking > restaurant > mexican restaurant > taco restaurant",1
5d31ec7e844dd80008571be8,Tacos De Barbacoa Y Machito,20.686815,-103.31876,Puerto Melaque 1300,Guadalajara,Jalisco,44329,,,,MX,2019-07-19,2023-07-10,2023-07-10,,,,,,,['4bf58dd8d48988d151941735'],['Dining and Drinking > Restaurant > Mexican Restaurant > Taco Restaurant'],b'\x00\x00\x00\x00\x01\xc0Y\xd4f\x90W\xd1x@4\xaf\xd3\x1b\x9bf\xf9',"{'xmin': -103.31876, 'ymin': 20.686815, 'xmax': -103.31876, 'ymax': 20.686815}",dining and drinking > restaurant > mexican restaurant > taco restaurant,1
51c50d0f498e5d4dea1be53d,Taqueria Medrano,19.884382247924805,-103.60023498535156,,,,,,,,MX,2013-06-22,2021-08-17,,,,,,,,['4bf58dd8d48988d151941735'],['Dining and Drinking > Restaurant > Mexican Restaurant > Taco Restaurant'],b'\x00\x00\x00\x00\x01\xc0Y\xe6j@\x00\x00\x00@3\xe2f\xe0\x00\x00\x00',"{'xmin': -103.60023498535156, 'ymin': 19.884382247924805, 'xmax': -103.60023498535156, 'ymax': 19.884382247924805}",dining and drinking > restaurant > mexican restaurant > taco restaurant,1
4ce5fc88f3bda1438cd8a8e4,Los Compadres,22.135904098925273,-100.96989089490381,,,,,,,,MX,2010-11-19,2021-08-12,,,,,,,,"['4bf58dd8d48988d1c1941735' '4bf58dd8d48988d151941735'
 '4bf58dd8d48988d147941735']","['Dining and Drinking > Restaurant > Mexican Restaurant'
 'Dining and Drinking > Restaurant > Mexican Restaurant > Taco Restaurant'
 'Dining and Drinking > Restaurant > Diner']","b'\x00\x00\x00\x00\x01\xc0Y>\x12\xb1B\x934@6""\xca\x9clF\xc2'","{'xmin': -100.96989089490381, 'ymin': 22.135904098925273, 'xmax': -100.96989089490381, 'ymax': 22.135904098925273}","dining and drinking > restaurant > mexican restaurant, dining and drinking > restaurant > mexican restaurant > taco restaurant, dining and drinking > restaurant > diner",1
4f2364a0e4b0831875891559,Tacos Sport. Y churros los Gueros,21.127062880856926,-101.69377741131085,Guatemala,León,Gto.,,,,,MX,2012-01-28,2020-11-23,,,,,,,,['4bf58dd8d48988d151941735'],['Dining and Drinking > Restaurant > Mexican Restaurant > Taco Restaurant'],"b""\x00\x00\x00\x00\x01\xc0Ylf\xd9_\x12'@5 \x871e\xd0\xe8""","{'xmin': -101.69377741131085, 'ymin': 21.127062880856926, 'xmax': -101.69377741131085, 'ymax': 21.127062880856926}",dining and drinking > restaurant > mexican restaurant > taco restaurant,1
59951abff4b5253d2cd93b85,Tacos Los Gueros De Arandas,20.6645,-103.290146,,Guadalajara,Jalisco,44790,,,,MX,2017-08-17,2021-08-14,,,,,,,,['4bf58dd8d48988d151941735'],['Dining and Drinking > Restaurant > Mexican Restaurant > Taco Restaurant'],"b""\x00\x00\x00\x00\x01\xc0Y\xd2\x91\xc0\x87D,@4\xaa\x1c\xac\x081'""","{'xmin': -103.290146, 'ymin': 20.6645, 'xmax': -103.290146, 'ymax': 20.6645}",dining and drinking > restaurant > mexican restaurant > taco restaurant,1
56f8b994498e551eeb0e4e6e,Asadas Santa Rosalía,20.698578,-103.333402,,Guadalajara,,,,,,MX,2016-03-28,2021-08-14,,,,,,,,['4bf58dd8d48988d151941735'],['Dining and Drinking > Restaurant > Mexican Restaurant > Taco Restaurant'],b'\x00\x00\x00\x00\x01\xc0Y\xd5VuW\x9a\xf2@4\xb2\xd6\x01\xff\xb4\x81',"{'xmin': -103.333402, 'ymin': 20.698578, 'xmax': -103.333402, 'ymax': 20.698578}",dining and drinking > restaurant > mexican restaurant > taco restaurant,1
555a9622498e3f77d3b6b5c3,Tacos de Max,21.09416495521362,-101.64193511009216,,León,Guanajuato,,,,,MX,2015-05-19,2020-11-25,,,,,,,,['4bf58dd8d48988d151941735'],['Dining and Drinking > Restaurant > Mexican Restaurant > Taco Restaurant'],b'\x00\x00\x00\x00\x01\xc0Yi\x15w\x00\x00\x00@5\x18\x1b1\xcb\x12b',"{'xmin': -101.64193511009216, 'ymin': 21.09416495521362, 'xmax': -101.64193511009216, 'ymax': 21.09416495521362}",dining and drinking > restaurant > mexican restaurant > taco restaurant,1
600bad672ffd7345e4b1c2ce,Tacos Juaro,20.618837,-103.074253,"Solidaridad, Salvador Ruíz, Loma Dorada",Zapotlanejo,JAL,45430,,,,MX,2021-01-23,2021-01-23,,,,,,,,['4bf58dd8d48988d151941735'],['Dining and Drinking > Restaurant > Mexican Restaurant > Taco Restaurant'],b'\x00\x00\x00\x00\x01\xc0Y\xc4\xc0\x8f\xa7\xa8P@4\x9el\x1a\x04\x8e\x04',"{'xmin': -103.074253, 'ymin': 20.618837, 'xmax': -103.074253, 'ymax': 20.618837}",dining and drinking > restaurant > mexican restaurant > taco restaurant,1
4f3dc765e4b01701e8ac9b3c,Tacos Gama,21.899359270935427,-102.27106330034202,Av. Aguascalientes Ote.,Aguascalientes,AGS,,,,,MX,2012-02-17,2020-11-30,,,,,,,,['4bf58dd8d48988d151941735'],['Dining and Drinking > Restaurant > Mexican Restaurant > Taco Restaurant'],b'\x00\x00\x00\x00\x01\xc0Y\x91Y\x19\xe2\x87Y@5\xe6<h\xc0\x05\xa6',"{'xmin': -102.27106330034202, 'ymin': 21.899359270935427, 'xmax': -102.27106330034202, 'ymax': 21.899359270935427}",dining and drinking > restaurant > mexican restaurant > taco restaurant,1
52d35348498e1eefb84f44ff,chano y john,21.869524,-102.294994,José Ma. Chavez,,,,,,,MX,2014-01-13,2021-08-10,,,,,,,,['4bf58dd8d48988d151941735'],['Dining and Drinking > Restaurant > Mexican Restaurant > Taco Restaurant'],b'\x00\x00\x00\x00\x01\xc0Y\x92\xe1.\x83\xa1\n@5\xde\x99\x1f\xf7\x16L',"{'xmin': -102.294994, 'ymin': 21.869524, 'xmax': -102.294994, 'ymax': 21.869524}",dining and drinking > restaurant > mexican restaurant > taco restaurant,1
5578f577498ecd56474acde5,Tacos Leo's,20.74479846153461,-103.39891772664667,Avenida Valdepeñas,,,,,,,MX,2015-06-11,2021-08-12,,,,,,,,['4bf58dd8d48988d151941735'],['Dining and Drinking > Restaurant > Mexican Restaurant > Taco Restaurant'],b'\x00\x00\x00\x00\x01\xc0Y\xd9\x87\xde7o\x7f@4\xbe\xab\x1c\xaaf\xfb',"{'xmin': -103.39891772664667, 'ymin': 20.74479846153461, 'xmax': -103.39891772664667, 'ymax': 20.74479846153461}",dining and drinking > restaurant > mexican restaurant > taco restaurant,1
550f82d1498e2c17487576ac,Tacos de Asada Estilo Sinaloa,20.597618709474936,-103.4064797548026,Monte Carmelo s/n,Tlaquepaque,Jalisco,45609,,,,MX,2015-03-23,2020-11-30,,33 1038 4078,,,,,,['4bf58dd8d48988d151941735'],['Dining and Drinking > Restaurant > Mexican Restaurant > Taco Restaurant'],"b'\x00\x00\x00\x00\x01\xc0Y\xda\x03\xc3\xa9W@@4\x98\xfd\x8a,\xac.'","{'xmin': -103.4064797548026, 'ymin': 20.597618709474936, 'xmax': -103.4064797548026, 'ymax': 20.597618709474936}",dining and drinking > restaurant > mexican restaurant > taco restaurant,1
52ceacc8498e19cec889cf33,Tacos y Tortas La Pasadita,21.10491,-101.679189,,,,,,,,MX,2014-01-09,2021-08-13,,,,,,,,['4bf58dd8d48988d151941735'],['Dining and Drinking > Restaurant > Mexican Restaurant > Taco Restaurant'],b'\x00\x00\x00\x00\x01\xc0Ykw\xd5#\xb3c@5\x1a\xdba\xbb\x05\xfb',"{'xmin': -101.679189, 'ymin': 21.10491, 'xmax': -101.679189, 'ymax': 21.10491}",dining and drinking > restaurant > mexican restaurant > taco restaurant,1
4c7d1981aa3ba093f681ac74,Tacos San Martín,22.14191668880047,-101.03643951772973,Paseo Real del Marqués,San Luis Potosí,San Luis Potosí,,,,,MX,2010-08-31,2020-11-23,,,,,,,,['4bf58dd8d48988d151941735'],['Dining and Drinking > Restaurant > Mexican Restaurant > Taco Restaurant'],"b""\x00\x00\x00\x00\x01\xc0YBU\x06j;\x99@6$T\xa6\xf1'\x96""","{'xmin': -101.03643951772973, 'ymin': 22.14191668880047, 'xmax': -101.03643951772973, 'ymax': 22.14191668880047}",dining and drinking > restaurant > mexican restaurant > taco restaurant,1
55c2e48e498e7cb4f2cdbbb8,Tacos el GUARA,21.47941502314872,-104.87899256332054,,,,,,,,MX,2015-08-06,2021-08-16,,,,,,,,['4bf58dd8d48988d151941735'],['Dining and Drinking > Restaurant > Mexican Restaurant > Taco Restaurant'],b'\x00\x00\x00\x00\x01\xc0Z8Aj\x068\xe4@5z\xba\xf1e\xa2\x85',"{'xmin': -104.87899256332054, 'ymin': 21.47941502314872, 'xmax': -104.87899256332054, 'ymax': 21.47941502314872}",dining and drinking > restaurant > mexican restaurant > taco restaurant,1
5086d026e4b02f17ca17df7c,Taqueria Los Felipes,20.654583072521557,-103.38143116415037,Pasillo Central entre calle 7 y 8,,,,,,,MX,2012-10-23,2021-08-16,,,,,,,,['4bf58dd8d48988d151941735'],['Dining and Drinking > Restaurant > Mexican Restaurant > Taco Restaurant'],b'\x00\x00\x00\x00\x01\xc0Y\xd8i^A\xec\xde@4\xa7\x92\xc1\x98\xfe\xcb',"{'xmin': -103.38143116415037, 'ymin': 20.654583072521557, 'xmax': -103.38143116415037, 'ymax': 20.654583072521557}",dining and drinking > restaurant > mexican restaurant > taco restaurant,1
4ed4355f6da10f20747e3c12,Street Tacos,20.60080178519738,-105.23762531121463,Francisca Rodriguez,Puerto Vallarta,Jalisco,,,,,MX,2011-11-29,2020-11-24,,,,,,,,"['4bf58dd8d48988d151941735' '4bf58dd8d48988d1cb941735'
 '4bf58dd8d48988d153941735']","['Dining and Drinking > Restaurant > Mexican Restaurant > Taco Restaurant'
 'Dining and Drinking > Food Truck'
 'Dining and Drinking > Restaurant > Mexican Restaurant > Burrito Restaurant']",b'\x00\x00\x00\x00\x01\xc0ZO5@\xcb\x17\x98@4\x99\xce%R\xcd\x19',"{'xmin': -105.23762531121463, 'ymin': 20.60080178519738, 'xmax': -105.23762531121463, 'ymax': 20.60080178519738}","dining and drinking > restaurant > mexican restaurant > taco restaurant, dining and drinking > food truck, dining and drinking > restaurant > mexican restaurant > burrito restaurant",1
504d58dee4b0ef19b1907a90,Ricos Tacos al Pastor Pio.,20.193702697753906,-104.04012298583984,,,,,,,,MX,2012-09-10,2021-08-11,,,,,,,,['4bf58dd8d48988d151941735'],['Dining and Drinking > Restaurant > Mexican Restaurant > Taco Restaurant'],b'\x00\x00\x00\x00\x01\xc0Z\x02\x91`\x00\x00\x00@41\x96\x80\x00\x00\x00',"{'xmin': -104.04012298583984, 'ymin': 20.193702697753906, 'xmax': -104.04012298583984, 'ymax': 20.193702697753906}",dining and drinking > restaurant > mexican restaurant > taco restaurant,1
4e20851fb0fbdf9ba7a031b7,"Tacos ""Chanclas""",20.664872,-103.431884,,Zapopan,Jalisco,,,,,MX,2011-07-15,2020-11-21,,,,,,,,['4bf58dd8d48988d151941735'],['Dining and Drinking > Restaurant > Mexican Restaurant > Taco Restaurant'],b'\x00\x00\x00\x00\x01\xc0Y\xdb\xa3\xfc\xc9\xea\x9a@4\xaa5\r(\x06\xaf',"{'xmin': -103.431884, 'ymin': 20.664872, 'xmax': -103.431884, 'ymax': 20.664872}",dining and drinking > restaurant > mexican restaurant > taco restaurant,1
51d618958bbd0296adbc3dfc,Don Taco,20.67792541114621,-103.3695137500763,"Justo Sierra 2104, Colonia Americana",Guadalajara,Jal,44160,,,,MX,2013-07-05,2021-08-17,,33 1524 9826,,,,,,['4bf58dd8d48988d151941735'],['Dining and Drinking > Restaurant > Mexican Restaurant > Taco Restaurant'],b'\x00\x00\x00\x00\x01\xc0Y\xd7\xa6\x1d\x00\x00\x00@4\xad\x8c\x85\x0e\x00\x15',"{'xmin': -103.3695137500763, 'ymin': 20.67792541114621, 'xmax': -103.3695137500763, 'ymax': 20.67792541114621}",dining and drinking > restaurant > mexican restaurant > taco restaurant,1
5297fdf511d2702a5b53a31c,Flautas D' Cache,20.679780896688552,-103.32786467765614,,Guadalajara,,,,,,MX,2013-11-29,2021-08-11,,,,,,,,['4bf58dd8d48988d151941735'],['Dining and Drinking > Restaurant > Mexican Restaurant > Taco Restaurant'],b'\x00\x00\x00\x00\x01\xc0Y\xd4\xfb\xbc!\x02\xfd@4\xae\x06\x1e\xef\xb9\x0f',"{'xmin': -103.32786467765614, 'ymin': 20.679780896688552, 'xmax': -103.32786467765614, 'ymax': 20.679780896688552}",dining and drinking > restaurant > mexican restaurant > taco restaurant,1
54087fec498e743eaa3a6828,Tacos Mincho León,21.147378,-101.671222,,,,,,,,MX,2014-09-04,2021-08-12,,,,,,,,['4bf58dd8d48988d151941735'],['Dining and Drinking > Restaurant > Mexican Restaurant > Taco Restaurant'],b'\x00\x00\x00\x00\x01\xc0Yj\xf5M\x1e\x96\xc4@5%\xba\x90\x8a&_',"{'xmin': -101.671222, 'ymin': 21.147378, 'xmax': -101.671222, 'ymax': 21.147378}",dining and drinking > restaurant > mexican restaurant > taco restaurant,1
516978a9498e94b1e45811a3,Carnitas Cacho,21.526223,-104.881389,,,,,,,,MX,2013-04-13,2021-08-12,,,,,,,,['4bf58dd8d48988d151941735'],['Dining and Drinking > Restaurant > Mexican Restaurant > Taco Restaurant'],"b'\x00\x00\x00\x00\x01\xc0Z8h\xadh\x83w@5\x86\xb6\x8c\xefg,'","{'xmin': -104.881389, 'ymin': 21.526223, 'xmax': -104.881389, 'ymax': 21.526223}",dining and drinking > restaurant > mexican restaurant > taco restaurant,1
64b6122fb202907ce7f00db5,Taquería Ontiveros Bucerías,20.750784,-105.3266,Las Palmas 81,Bucerías,Nayarit,63732,,,,MX,2023-07-18,2023-07-18,,,,,,,,['4bf58dd8d48988d151941735'],['Dining and Drinking > Restaurant > Mexican Restaurant > Taco Restaurant'],b'\x00\x00\x00\x00\x01\xc0ZT\xe7\x03\xaf\xb7\xe9@4\xc03aV\\-',"{'xmin': -105.3266, 'ymin': 20.750784, 'xmax': -105.3266, 'ymax': 20.750784}",dining and drinking > restaurant > mexican restaurant > taco restaurant,1
56dce102498e3643adf2873a,"Taqueria ""El Cachanilla""",21.018823889120885,-101.25696301460265,Calle galarza #99,Guanajuato,Guanajuato,36000,,,,MX,2016-03-07,2020-11-25,,473 690 2812,,,528194884008485.0,,,['4bf58dd8d48988d1c1941735' '4bf58dd8d48988d151941735'],"['Dining and Drinking > Restaurant > Mexican Restaurant'
 'Dining and Drinking > Restaurant > Mexican Restaurant > Taco Restaurant']",b'\x00\x00\x00\x00\x01\xc0YPr\x14\xff\xff\xff@5\x04\xd1\xa4t(a',"{'xmin': -101.25696301460265, 'ymin': 21.018823889120885, 'xmax': -101.25696301460265, 'ymax': 21.018823889120885}","dining and drinking > restaurant > mexican restaurant, dining and drinking > restaurant > mexican restaurant > taco restaurant",1
4fb0a8e8e4b0ddb44acb8eb8,Taquería Mixe,20.58113501255115,-101.2088478371038,Faja de Oro Col. Guadalupe,Salamanca,Guanajuato,,,,,MX,2012-05-14,2020-11-30,,,,,,,,['4bf58dd8d48988d151941735'],['Dining and Drinking > Restaurant > Mexican Restaurant > Taco Restaurant'],b'\x00\x00\x00\x00\x01\xc0YM]\xc3Q\x8c\xe0@4\x94\xc5C\xa1w\xbe',"{'xmin': -101.2088478371038, 'ymin': 20.58113501255115, 'xmax': -101.2088478371038, 'ymax': 20.58113501255115}",dining and drinking > restaurant > mexican restaurant > taco restaurant,1
4d0a6dc98ea0a143d817e673,La Choza,20.673762172032795,-103.37480604382047,Miguel de Cervantes,"Guadalajara, JAL",JAL,,,,,MX,2010-12-16,2023-12-20,,33 1732 4117,http://lachoza.com.mx,,1400099550205624.0,,tacoslachoza,['4bf58dd8d48988d151941735' '4bf58dd8d48988d1cb941735'],"['Dining and Drinking > Restaurant > Mexican Restaurant > Taco Restaurant'
 'Dining and Drinking > Food Truck']",b'\x00\x00\x00\x00\x01\xc0Y\xd7\xfc\xd2}#U@4\xac{\xad~)\xac',"{'xmin': -103.37480604382047, 'ymin': 20.673762172032795, 'xmax': -103.37480604382047, 'ymax': 20.673762172032795}","dining and drinking > restaurant > mexican restaurant > taco restaurant, dining and drinking > food truck",1
528a4b9011d2aa92e961d92b,tacos de barbacoa victor,19.093647003173828,-104.30171966552734,Av. Elias Zamora Verdusco,Manzanillo,COL,,,,,MX,2013-11-18,2020-11-23,,,,,,,,['4bf58dd8d48988d151941735'],['Dining and Drinking > Restaurant > Mexican Restaurant > Taco Restaurant'],b'\x00\x00\x00\x00\x01\xc0Z\x13O`\x00\x00\x00@3\x17\xf9@\x00\x00\x00',"{'xmin': -104.30171966552734, 'ymin': 19.093647003173828, 'xmax': -104.30171966552734, 'ymax': 19.093647003173828}",dining and drinking > restaurant > mexican restaurant > taco restaurant,1
4dbae0d40cb691071c7bedc0,taco fish,20.664667696644738,-103.35211753374699,la paz esq donato guerra,Guadalajara,Jalisco,,,,,MX,2011-04-29,2021-08-12,,,,,,,,['4bf58dd8d48988d1ce941735' '4bf58dd8d48988d151941735'],"['Dining and Drinking > Restaurant > Seafood Restaurant'
 'Dining and Drinking > Restaurant > Mexican Restaurant > Taco Restaurant']","b""\x00\x00\x00\x00\x01\xc0Y\xd6\x89\x17\xfa\xf2\xa8@4\xaa'\xa9\x83\xcb\xfb""","{'xmin': -103.35211753374699, 'ymin': 20.664667696644738, 'xmax': -103.35211753374699, 'ymax': 20.664667696644738}","dining and drinking > restaurant > seafood restaurant, dining and drinking > restaurant > mexican restaurant > taco restaurant",1
5d4b9943b08a930008974c44,El Trompito,19.694016,-101.179245,,Morelia,Michoacán,58020,,,,MX,2019-08-08,2020-11-23,,,,,,,,['4bf58dd8d48988d151941735'],['Dining and Drinking > Restaurant > Mexican Restaurant > Taco Restaurant'],b'\x00\x00\x00\x00\x01\xc0YKx\xc0\x05>-@3\xb1\xab\x08V\xe6\x97',"{'xmin': -101.179245, 'ymin': 19.694016, 'xmax': -101.179245, 'ymax': 19.694016}",dining and drinking > restaurant > mexican restaurant > taco restaurant,1
5bf04b15d176e90025057207,Tacos De Barbacoa “El Güero Chito”,20.650366,-103.279131,Mercedes Celis 668,Guadalajara,JAL,44820,,,,MX,2018-11-17,2021-08-13,,,,,,,,['4bf58dd8d48988d151941735'],['Dining and Drinking > Restaurant > Mexican Restaurant > Taco Restaurant'],b'\x00\x00\x00\x00\x01\xc0Y\xd1\xddHE\x130@4\xa6~b\xdcn+',"{'xmin': -103.279131, 'ymin': 20.650366, 'xmax': -103.279131, 'ymax': 20.650366}",dining and drinking > restaurant > mexican restaurant > taco restaurant,1
56a2ea65498e392f53312702,Tacos el Pelón,19.688616,-101.299576,,,,,,,,MX,2016-01-23,2020-11-22,,,,,,,,['4bf58dd8d48988d151941735'],['Dining and Drinking > Restaurant > Mexican Restaurant > Taco Restaurant'],"b'\x00\x00\x00\x00\x01\xc0YS,@\xd0\xaa\xa8@3\xb0I#_\x80\x99'","{'xmin': -101.299576, 'ymin': 19.688616, 'xmax': -101.299576, 'ymax': 19.688616}",dining and drinking > restaurant > mexican restaurant > taco restaurant,1
51e37797498e3c12d3c4cf81,Tacos San Juan de los Lagos,21.079563652762694,-101.61936863516219,Epsilon 910,León,Guanajuato,,,,,MX,2013-07-15,2020-11-23,,,,,,,,['4bf58dd8d48988d151941735'],['Dining and Drinking > Restaurant > Mexican Restaurant > Taco Restaurant'],b'\x00\x00\x00\x00\x01\xc0Yg\xa3\xbcX\x0c%@5\x14^H\x96\x90\xea',"{'xmin': -101.61936863516219, 'ymin': 21.079563652762694, 'xmax': -101.61936863516219, 'ymax': 21.079563652762694}",dining and drinking > restaurant > mexican restaurant > taco restaurant,1
50588a2be4b01987c8449e55,River's (barbacoa),20.52802869429304,-100.82133062808427,Tianguis Cañitos,Celaya,Guanajuato,38020,,,,MX,2012-09-18,2020-11-23,,,,,,,,"['4bf58dd8d48988d151941735' '4bf58dd8d48988d10f941735'
 '4bf58dd8d48988d1d3941735']","['Dining and Drinking > Restaurant > Mexican Restaurant > Taco Restaurant'
 'Dining and Drinking > Restaurant > Indian Restaurant'
 'Dining and Drinking > Restaurant > Vegan and Vegetarian Restaurant']","b'\x00\x00\x00\x00\x01\xc0Y4\x90\xaeV\xb4\xce@4\x87,\xe3uV\x94'","{'xmin': -100.82133062808427, 'ymin': 20.52802869429304, 'xmax': -100.82133062808427, 'ymax': 20.52802869429304}","dining and drinking > restaurant > mexican restaurant > taco restaurant, dining and drinking > restaurant > indian restaurant, dining and drinking > restaurant > vegan and vegetarian restaurant",1
50dcf99ae4b063dac3c5628e,Los Amigos,20.391012075995025,-101.18103964986088,Carranza,Valle De Santiago,Guanajuato,,,,,MX,2012-12-28,2020-11-24,,,,,,,,['4bf58dd8d48988d151941735'],['Dining and Drinking > Restaurant > Mexican Restaurant > Taco Restaurant'],"b""\x00\x00\x00\x00\x01\xc0YK\x96'S\xdb\xa2@4d\x19^\x0e\xbd]""","{'xmin': -101.18103964986088, 'ymin': 20.391012075995025, 'xmax': -101.18103964986088, 'ymax': 20.391012075995025}",dining and drinking > restaurant > mexican restaurant > taco restaurant,1
5388ed5c498ee7f0fb207910,La Pinta Fish & Shrimp,21.486385345458984,-104.89253997802734,Av. De La Cultura 64,Tepic,Nayarit,,,,,MX,2014-05-30,2020-11-21,,311 250 0466,,,,,,['4bf58dd8d48988d151941735'],['Dining and Drinking > Restaurant > Mexican Restaurant > Taco Restaurant'],b'\x00\x00\x00\x00\x01\xc0Z9\x1f`\x00\x00\x00@5|\x83\xc0\x00\x00\x00',"{'xmin': -104.89253997802734, 'ymin': 21.486385345458984, 'xmax': -104.89253997802734, 'ymax': 21.486385345458984}",dining and drinking > restaurant > mexican restaurant > taco restaurant,1
5da15e132e6db300089d4689,Taqueria La Flama,19.768303,-104.35406,Matamoros #563,Autlán de Navarro,Jalisco,48900,,,,MX,2019-10-12,2020-11-30,,,,,,,,['4bf58dd8d48988d151941735'],['Dining and Drinking > Restaurant > Mexican Restaurant > Taco Restaurant'],b'\x00\x00\x00\x00\x01\xc0Z\x16\xa8\xebF4\x98@3\xc4\xaf\x81bk/',"{'xmin': -104.35406, 'ymin': 19.768303, 'xmax': -104.35406, 'ymax': 19.768303}",dining and drinking > restaurant > mexican restaurant > taco restaurant,1
5b38fd5dfc9e94002c45da2a,Birrieria Venegas,21.737038,-105.23641,,Villa Hidalgo,Nayarit,63550,,,,MX,2018-07-01,2020-11-23,,,,,,,,['4bf58dd8d48988d151941735'],['Dining and Drinking > Restaurant > Mexican Restaurant > Taco Restaurant'],b'\x00\x00\x00\x00\x01\xc0ZO!Wh\x9c\xa2@5\xbc\xae\x85\xb9\xe8\xc4',"{'xmin': -105.23641, 'ymin': 21.737038, 'xmax': -105.23641, 'ymax': 21.737038}",dining and drinking > restaurant > mexican restaurant > taco restaurant,1
52ad275b498e057b426b24a5,Tacos Abundio,20.690771102905273,-103.3393325805664,,Guadalajara,,,,,,MX,2013-12-15,2021-08-16,,,,,,,,['4bf58dd8d48988d151941735'],['Dining and Drinking > Restaurant > Mexican Restaurant > Taco Restaurant'],b'\x00\x00\x00\x00\x01\xc0Y\xd5\xb7\xa0\x00\x00\x00@4\xb0\xd6`\x00\x00\x00',"{'xmin': -103.3393325805664, 'ymin': 20.690771102905273, 'xmax': -103.3393325805664, 'ymax': 20.690771102905273}",dining and drinking > restaurant > mexican restaurant > taco restaurant,1
6396221ec4e49a271cf31241,Tacos Don Pepe,21.118046,-101.671295,,León,Guanajuato,37370,,,,MX,2022-12-11,2022-12-11,,,,,,,,['4bf58dd8d48988d151941735'],['Dining and Drinking > Restaurant > Mexican Restaurant > Taco Restaurant'],b'\x00\x00\x00\x00\x01\xc0Yj\xf6\x7fM\xbd\xf9@5\x1e8C=lr',"{'xmin': -101.671295, 'ymin': 21.118046, 'xmax': -101.671295, 'ymax': 21.118046}",dining and drinking > restaurant > mexican restaurant > taco restaurant,1
5435cb20498efa4bed34fd95,Los 7 Tacos,21.850406992490335,-102.29359513952697,Centro Comercial Villasunción,Aguascalientes,Aguascalientes,,,,,MX,2014-10-08,2020-11-23,,,,,,,,['4bf58dd8d48988d151941735'],['Dining and Drinking > Restaurant > Mexican Restaurant > Taco Restaurant'],b'\x00\x00\x00\x00\x01\xc0Y\x92\xcaCD\xa2\x1b@5\xd9\xb4E\xcd\t$',"{'xmin': -102.29359513952697, 'ymin': 21.850406992490335, 'xmax': -102.29359513952697, 'ymax': 21.850406992490335}",dining and drinking > restaurant > mexican restaurant > taco restaurant,1
509e8ce5e4b0872dbd4cd5fa,Quesardillas,19.68811314476322,-101.19916635525254,Alberto Alvarado 550,Morelia,Michoacan,58040,,,,MX,2012-11-10,2020-11-30,,,,,,,,['4bf58dd8d48988d151941735'],['Dining and Drinking > Restaurant > Mexican Restaurant > Taco Restaurant'],b'\x00\x00\x00\x00\x01\xc0YL\xbf$=\x91|@3\xb0(.\xdc\xb4\xac',"{'xmin': -101.19916635525254, 'ymin': 19.68811314476322, 'xmax': -101.19916635525254, 'ymax': 19.68811314476322}",dining and drinking > restaurant > mexican restaurant > taco restaurant,1
529bf7a011d252f08878f5c3,La Feria Del Taco,20.535093307495117,-100.82560729980469,,,,,,,,MX,2013-12-02,2021-08-13,,,,,,,,['4bf58dd8d48988d151941735'],['Dining and Drinking > Restaurant > Mexican Restaurant > Taco Restaurant'],b'\x00\x00\x00\x00\x01\xc0Y4\xd6\xc0\x00\x00\x00@4\x88\xfb\xe0\x00\x00\x00',"{'xmin': -100.82560729980469, 'ymin': 20.535093307495117, 'xmax': -100.82560729980469, 'ymax': 20.535093307495117}",dining and drinking > restaurant > mexican restaurant > taco restaurant,1
577488ba498e4773497775e8,Taquería Los Poblanos,20.625069,-103.412308,Av. 18 de Marzo 5465,Zapopan,Jalisco,45080,,,,MX,2016-06-30,2020-11-23,2018-07-19,,,,,,,['4bf58dd8d48988d151941735'],['Dining and Drinking > Restaurant > Mexican Restaurant > Taco Restaurant'],b'\x00\x00\x00\x00\x01\xc0Y\xdacA\x17\xf8D@4\xa0\x04\x85\xa0\xbeQ',"{'xmin': -103.412308, 'ymin': 20.625069, 'xmax': -103.412308, 'ymax': 20.625069}",dining and drinking > restaurant > mexican restaurant > taco restaurant,1
5aaaa24e135b390f924b9de7,Tacos Marina,21.880299,-102.28178,,Aguascalientes,Aguascalientes,20259,,,,MX,2018-03-15,2020-11-24,,,,,,,,['4bf58dd8d48988d151941735'],['Dining and Drinking > Restaurant > Mexican Restaurant > Taco Restaurant'],b'\x00\x00\x00\x00\x01\xc0Y\x92\x08\xae\xfb*\xae@5\xe1[Fw\xb3\x96',"{'xmin': -102.28178, 'ymin': 21.880299, 'xmax': -102.28178, 'ymax': 21.880299}",dining and drinking > restaurant > mexican restaurant > taco restaurant,1
620f419d59466f37abc3c6c7,Taquería El Chavito,18.847736,-97.098236,Oriente 6,Orizaba,Veracruz,94300,,,,MX,2022-02-18,2022-02-18,,,,,,,,['4bf58dd8d48988d151941735'],['Dining and Drinking > Restaurant > Mexican Restaurant > Taco Restaurant'],b'\x00\x00\x00\x00\x01\xc0XFI\x7f\xa5\xd2\x8d@2\xd9\x059\xfb\xa4Q',"{'xmin': -97.098236, 'ymin': 18.847736, 'xmax': -97.098236, 'ymax': 18.847736}",dining and drinking > restaurant > mexican restaurant > taco restaurant,1
50649f0ce4b0295090e74aec,Carnitas Santa Elena De Altepexi,18.375449016503953,-97.29556657150421,Matriz,Altepexi,Puebla,,,,,MX,2012-09-27,2023-12-21,,236 381 1632,,,,,,['4bf58dd8d48988d151941735'],['Dining and Drinking > Restaurant > Mexican Restaurant > Taco Restaurant'],b'\x00\x00\x00\x00\x01\xc0XR\xea\x90\r\x99\xb1@2`\x1dm?3)',"{'xmin': -97.29556657150421, 'ymin': 18.375449016503953, 'xmax': -97.29556657150421, 'ymax': 18.375449016503953}",dining and drinking > restaurant > mexican restaurant > taco restaurant,1
6170247cedeaa333b390f5ff,Taqueria Restaurante El Morral,18.780069,-99.231321,Republica de Paraguay 16,Xochitepec,MOR,62790,,,,MX,2021-10-20,2023-12-20,,777 361 2314,,,,,,['4bf58dd8d48988d151941735'],['Dining and Drinking > Restaurant > Mexican Restaurant > Taco Restaurant'],b'\x00\x00\x00\x00\x01\xc0X\xce\xcd\xf6\x98x1@2\xc7\xb2\x9a\x1b\x9f\x99',"{'xmin': -99.231321, 'ymin': 18.780069, 'xmax': -99.231321, 'ymax': 18.780069}",dining and drinking > restaurant > mexican restaurant > taco restaurant,1
4fc2e64fe4b008d93b547739,"Taqueria ""El amigo""",20.298965454101562,-102.32270812988281,,,,,,,,MX,2012-05-28,2021-08-11,,,,,,,,['4bf58dd8d48988d151941735'],['Dining and Drinking > Restaurant > Mexican Restaurant > Taco Restaurant'],b'\x00\x00\x00\x00\x01\xc0Y\x94\xa7@\x00\x00\x00@4L\x89\x00\x00\x00\x00',"{'xmin': -102.32270812988281, 'ymin': 20.298965454101562, 'xmax': -102.32270812988281, 'ymax': 20.298965454101562}",dining and drinking > restaurant > mexican restaurant > taco restaurant,1
5a1eedd2c824ae14f5434b72,Cecina De Yecapixtla El Compadre,18.977114,-99.2535,,Cuernavaca,Morelos,62100,,,,MX,2017-11-29,2020-11-22,,,,,,,,['4bf58dd8d48988d151941735'],['Dining and Drinking > Restaurant > Mexican Restaurant > Taco Restaurant'],b'\x00\x00\x00\x00\x01\xc0X\xd09X\x10bN@2\xfa$$\xa2v\xb8',"{'xmin': -99.2535, 'ymin': 18.977114, 'xmax': -99.2535, 'ymax': 18.977114}",dining and drinking > restaurant > mexican restaurant > taco restaurant,1
55c7ad74498e5a7a99bb5423,El Buffe,18.891266,-96.939588,,,,,,,,MX,2015-08-09,2021-08-12,,,,,,,,['4bf58dd8d48988d151941735'],['Dining and Drinking > Restaurant > Mexican Restaurant > Taco Restaurant'],"b'\x00\x00\x00\x00\x01\xc0X<""5\xb4\xed\xb3@2\xe4*\x022\th'","{'xmin': -96.939588, 'ymin': 18.891266, 'xmax': -96.939588, 'ymax': 18.891266}",dining and drinking > restaurant > mexican restaurant > taco restaurant,1
643c27eb3e238279615f116b,Taconmadre,20.570826,-103.15624,Aldama 450,Puente Grande,JAL,45427,,,,MX,2023-04-16,2023-04-16,,,,,,,,['4bf58dd8d48988d151941735'],['Dining and Drinking > Restaurant > Mexican Restaurant > Taco Restaurant'],b'\x00\x00\x00\x00\x01\xc0Y\xc9\xff\xd6\x0e\x94\xee@4\x92!\xa7\x19\xb4\xdd',"{'xmin': -103.15624, 'ymin': 20.570826, 'xmax': -103.15624, 'ymax': 20.570826}",dining and drinking > restaurant > mexican restaurant > taco restaurant,1
5810bee638fa8bd1cfa04e40,"Taco-Jardin ""La Guera""",18.838706,-99.675407,,,,,,,,MX,2016-10-26,2021-08-11,,,,,,,,['4bf58dd8d48988d151941735'],['Dining and Drinking > Restaurant > Mexican Restaurant > Taco Restaurant'],b'\x00\x00\x00\x00\x01\xc0X\xeb9\xdeH\x1fT@2\xd6\xb5o\xb8\xf5\x7f',"{'xmin': -99.675407, 'ymin': 18.838706, 'xmax': -99.675407, 'ymax': 18.838706}",dining and drinking > restaurant > mexican restaurant > taco restaurant,1
50425823e4b0d3bcedd31e49,Tacos de Moronga,19.327058,-99.141348,,,,,,,,MX,2012-09-01,2021-08-12,,,,,,,,['4bf58dd8d48988d151941735'],['Dining and Drinking > Restaurant > Mexican Restaurant > Taco Restaurant'],b'\x00\x00\x00\x00\x01\xc0X\xc9\x0b\xd8{V\xb8@3S\xba\x12\xb5\xe5*',"{'xmin': -99.141348, 'ymin': 19.327058, 'xmax': -99.141348, 'ymax': 19.327058}",dining and drinking > restaurant > mexican restaurant > taco restaurant,1
4dd88538c65bee535aceb1d4,Tacos Simo,16.868525710481705,-99.89497070119603,Aguascalientes 34,Acapulco,Guerrero,,,,,MX,2011-05-22,2020-11-25,,,,,,,,['4bf58dd8d48988d151941735'],['Dining and Drinking > Restaurant > Mexican Restaurant > Taco Restaurant'],b'\x00\x00\x00\x00\x01\xc0X\xf9G31 \xf8@0\xdeW\xb3rA\x0c',"{'xmin': -99.89497070119603, 'ymin': 16.868525710481705, 'xmax': -99.89497070119603, 'ymax': 16.868525710481705}",dining and drinking > restaurant > mexican restaurant > taco restaurant,1
635de43d1ae7a5468b84d06a,Rincón De Oaxaca,18.956627,-99.23441,,Cuernavaca,Morelos,62237,,,,MX,2022-10-30,2022-10-30,,,,,,,,['4bf58dd8d48988d151941735'],['Dining and Drinking > Restaurant > Mexican Restaurant > Taco Restaurant'],b'\x00\x00\x00\x00\x01\xc0X\xcf\x00\x92\xcc\xf6\xbe@2\xf4\xe5\x81\xcfxy',"{'xmin': -99.23441, 'ymin': 18.956627, 'xmax': -99.23441, 'ymax': 18.956627}",dining and drinking > restaurant > mexican restaurant > taco restaurant,1
6455c18021f70230170d99de,Taqueria La Morena,19.127416,-96.182077,,Hacienda Sotavento,VER,91698,,,,MX,2023-05-06,2023-05-06,,,,,,,,['4bf58dd8d48988d151941735'],['Dining and Drinking > Restaurant > Mexican Restaurant > Taco Restaurant'],b'\x00\x00\x00\x00\x01\xc0X\x0b\xa7&J\x16\xa5@3 \x9eU\xc0\xfc\xb5',"{'xmin': -96.182077, 'ymin': 19.127416, 'xmax': -96.182077, 'ymax': 19.127416}",dining and drinking > restaurant > mexican restaurant > taco restaurant,1
5236094511d2f50ae471a654,Taqueria San Jose,20.35784,-102.773385,,,,,,,,MX,2013-09-15,2021-08-13,,,,,,,,['4bf58dd8d48988d151941735'],['Dining and Drinking > Restaurant > Mexican Restaurant > Taco Restaurant'],b'\x00\x00\x00\x00\x01\xc0Y\xb1\x7f#\xcc\x8d\xe3@4[\x9bf\xf93]',"{'xmin': -102.773385, 'ymin': 20.35784, 'xmax': -102.773385, 'ymax': 20.35784}",dining and drinking > restaurant > mexican restaurant > taco restaurant,1
56490d27498ec6f3a5a7cf06,El Fresno Tortas Ahogadas,19.52613986873813,-101.60780906111498,,,,,,,,MX,2015-11-15,2021-08-16,,,,,,,,['4bf58dd8d48988d151941735'],['Dining and Drinking > Restaurant > Mexican Restaurant > Taco Restaurant'],b'\x00\x00\x00\x00\x01\xc0Yf\xe6W\xf9\xec\xe2@3\x86\xb1\x1a9Z\x1d',"{'xmin': -101.60780906111498, 'ymin': 19.52613986873813, 'xmax': -101.60780906111498, 'ymax': 19.52613986873813}",dining and drinking > restaurant > mexican restaurant > taco restaurant,1
57ef3840498ee073f2a99362,Trocadero Beers,19.155474,-96.112977,Jardines de Virginia 422-D,Boca del Rio,Veracruz,,,,,MX,2016-10-01,2024-01-04,,229 129 8783,http://trocaderobeers.com,,,,,['4bf58dd8d48988d151941735'],['Dining and Drinking > Restaurant > Mexican Restaurant > Taco Restaurant'],"b""\x00\x00\x00\x00\x01\xc0X\x07;\x03\xe2\x0c\xd0@3'\xcd$\xe1`\xd9""","{'xmin': -96.112977, 'ymin': 19.155474, 'xmax': -96.112977, 'ymax': 19.155474}",dining and drinking > restaurant > mexican restaurant > taco restaurant,1
562a427a498eef10bf0cbc3c,Tacos El Chilango.,16.20162945645838,-92.10770752895296,Boulevard De Las Federaciones 1270,Comitan,Chiapas,,,,,MX,2015-10-23,2020-11-22,,,,,,,,['4bf58dd8d48988d151941735'],['Dining and Drinking > Restaurant > Mexican Restaurant > Taco Restaurant'],b'\x00\x00\x00\x00\x01\xc0W\x06\xe4\xae\x1e\x98\xb3@03\x9d\xfc\xf1f%',"{'xmin': -92.10770752895296, 'ymin': 16.20162945645838, 'xmax': -92.10770752895296, 'ymax': 16.20162945645838}",dining and drinking > restaurant > mexican restaurant > taco restaurant,1
53664c04498ed1096135c66f,Tacos de cecina zócalo Huamuxtitlan,17.801015867355325,-98.5652155109002,,,,,,,,MX,2014-05-04,2021-08-17,,,,,,,,['4bf58dd8d48988d151941735'],['Dining and Drinking > Restaurant > Mexican Restaurant > Taco Restaurant'],"b'\x00\x00\x00\x00\x01\xc0X\xa4,}\xad\xa0\x88@1\xcd\x0f`9\xdeB'","{'xmin': -98.5652155109002, 'ymin': 17.801015867355325, 'xmax': -98.5652155109002, 'ymax': 17.801015867355325}",dining and drinking > restaurant > mexican restaurant > taco restaurant,1
501b624de4b0363dc3ce753d,Los Tarascos Suc. Las Gaviotas,16.81883239379659,-99.8054528338986,Nicolás Bravo,,"Acapulco, Guerrero",,,,,MX,2012-08-03,2021-08-11,,,,,,,,['4bf58dd8d48988d151941735'],['Dining and Drinking > Restaurant > Mexican Restaurant > Taco Restaurant'],b'\x00\x00\x00\x00\x01\xc0X\xf3\x8c\x8a\x0b\x04)@0\xd1\x9e\xff\xf0C\x02',"{'xmin': -99.8054528338986, 'ymin': 16.81883239379659, 'xmax': -99.8054528338986, 'ymax': 16.81883239379659}",dining and drinking > restaurant > mexican restaurant > taco restaurant,1
544bcb7e498e810408908081,"Taqueria ""Mucho Taco""",16.860084,-99.872525,,,,,,,,MX,2014-10-25,2021-08-15,,,,,,,,['4bf58dd8d48988d151941735'],['Dining and Drinking > Restaurant > Mexican Restaurant > Taco Restaurant'],b'\x00\x00\x00\x00\x01\xc0X\xf7\xd7s\x18\xfcP@0\xdc.w\x0b\xd0\x18',"{'xmin': -99.872525, 'ymin': 16.860084, 'xmax': -99.872525, 'ymax': 16.860084}",dining and drinking > restaurant > mexican restaurant > taco restaurant,1
5a4d5bbe58aa7f1260d50243,Quesadillas Imss,19.725017,-101.103668,,Morelia,MICH,,,,,MX,2018-01-03,2020-11-24,,,,,,,,['4bf58dd8d48988d1c1941735' '4bf58dd8d48988d151941735'],"['Dining and Drinking > Restaurant > Mexican Restaurant'
 'Dining and Drinking > Restaurant > Mexican Restaurant > Taco Restaurant']",b'\x00\x00\x00\x00\x01\xc0YF\xa2\x7f\x1bi\x12@3\xb9\x9a\xb6\xd0\x0bF',"{'xmin': -101.103668, 'ymin': 19.725017, 'xmax': -101.103668, 'ymax': 19.725017}","dining and drinking > restaurant > mexican restaurant, dining and drinking > restaurant > mexican restaurant > taco restaurant",1
4f60a89de4b0a0bd379eae04,Taqueria La Mexicana,20.356016206800916,-102.77572701077919,,,,,,,,MX,2012-03-14,2021-08-12,,,,,,,,['4bf58dd8d48988d151941735'],['Dining and Drinking > Restaurant > Mexican Restaurant > Taco Restaurant'],b'\x00\x00\x00\x00\x01\xc0Y\xb1\xa5\x82\xe7z\xe9@4[#\xe0\xcd\x0eP',"{'xmin': -102.77572701077919, 'ymin': 20.356016206800916, 'xmax': -102.77572701077919, 'ymax': 20.356016206800916}",dining and drinking > restaurant > mexican restaurant > taco restaurant,1
57d5cf83cd10a53b9a4c778e,Taquería Juquila,19.306003,-99.6121,,,,,,,,MX,2016-09-11,2021-08-14,,,,,,,,['4bf58dd8d48988d151941735'],['Dining and Drinking > Restaurant > Mexican Restaurant > Taco Restaurant'],"b'\x00\x00\x00\x00\x01\xc0X\xe7,\xa5zxl@3NV6mzW'","{'xmin': -99.6121, 'ymin': 19.306003, 'xmax': -99.6121, 'ymax': 19.306003}",dining and drinking > restaurant > mexican restaurant > taco restaurant,1
51a23ea8498e1de1501afc62,Carnitas de Reyes!,19.149406,-96.969589,,,,,,,,MX,2013-05-26,2021-08-13,,,,,,,,['4bf58dd8d48988d151941735'],['Dining and Drinking > Restaurant > Mexican Restaurant > Taco Restaurant'],b'\x00\x00\x00\x00\x01\xc0X>\r\xbf\x05c\xed@3&?x\xbb\xd3\x80',"{'xmin': -96.969589, 'ymin': 19.149406, 'xmax': -96.969589, 'ymax': 19.149406}",dining and drinking > restaurant > mexican restaurant > taco restaurant,1
51e44f3a498e56b7c29e46d5,Tacos El Indio,18.5097699,-95.3162888,Carretera Paso del Toro - Alvarado,Medellin,Veracruz,,,,,MX,2013-07-15,2020-11-25,,,,,,,,['4bf58dd8d48988d151941735'],['Dining and Drinking > Restaurant > Mexican Restaurant > Taco Restaurant'],b'\x00\x00\x00\x00\x01\xc0W\xd4>\x13a\x05\xd4@2\x82\x80G\xb8\xfc5',"{'xmin': -95.3162888, 'ymin': 18.5097699, 'xmax': -95.3162888, 'ymax': 18.5097699}",dining and drinking > restaurant > mexican restaurant > taco restaurant,1
593b3cb32a7ab65ad5cdbb42,Y Tu Burrito Que?,19.324459,-99.174755,,Ciudad de México,DF,04510,,,,MX,2017-06-10,2020-11-23,,,,,,,,"['4bf58dd8d48988d153941735' '56aa371be4b08b9a8d573550'
 '4bf58dd8d48988d151941735']","['Dining and Drinking > Restaurant > Mexican Restaurant > Burrito Restaurant'
 'Business and Professional Services > Food and Beverage Service'
 'Dining and Drinking > Restaurant > Mexican Restaurant > Taco Restaurant']",b'\x00\x00\x00\x00\x01\xc0X\xcb//\x98t\x00@3S\x0f\xbe\xb9\xe4\x93',"{'xmin': -99.174755, 'ymin': 19.324459, 'xmax': -99.174755, 'ymax': 19.324459}","dining and drinking > restaurant > mexican restaurant > burrito restaurant, business and professional services > food and beverage service, dining and drinking > restaurant > mexican restaurant > taco restaurant",1
53c8990b498ec00d434a7c70,taqueria doña vicky,19.170326232910156,-96.21807098388672,,,,,,,,MX,2014-07-18,2020-11-22,,,,,,,,['4bf58dd8d48988d151941735'],['Dining and Drinking > Restaurant > Mexican Restaurant > Taco Restaurant'],b'\x00\x00\x00\x00\x01\xc0X\r\xf4\xe0\x00\x00\x00@3+\x9a\x80\x00\x00\x00',"{'xmin': -96.21807098388672, 'ymin': 19.170326232910156, 'xmax': -96.21807098388672, 'ymax': 19.170326232910156}",dining and drinking > restaurant > mexican restaurant > taco restaurant,1
509db837e4b04eb23cb0f73f,El Generoso,19.295095359544398,-99.1765080590371,,,,,,,,MX,2012-11-10,2021-08-16,,,,,,,,['4bf58dd8d48988d151941735'],['Dining and Drinking > Restaurant > Mexican Restaurant > Taco Restaurant'],b'\x00\x00\x00\x00\x01\xc0X\xcbK\xe8uB\xde@3K\x8b^\x96q\xce',"{'xmin': -99.1765080590371, 'ymin': 19.295095359544398, 'xmax': -99.1765080590371, 'ymax': 19.295095359544398}",dining and drinking > restaurant > mexican restaurant > taco restaurant,1
506868fae4b0a3e6eda8cbee,La Cabaña De La Vuelta,19.305206,-99.391583,,,,,,,,MX,2012-09-30,2020-11-24,,,,,,,,['4bf58dd8d48988d151941735'],['Dining and Drinking > Restaurant > Mexican Restaurant > Taco Restaurant'],b'\x00\x00\x00\x00\x01\xc0X\xd9\x0f\xb2$\xaa\xda@3N!\xfa\xfc\x8b\x00',"{'xmin': -99.391583, 'ymin': 19.305206, 'xmax': -99.391583, 'ymax': 19.305206}",dining and drinking > restaurant > mexican restaurant > taco restaurant,1
4fd6b247e4b05c6ceb89f442,El Arriero,18.031593102873824,-95.52947785483812,,,,,,,,MX,2012-06-12,2021-08-17,,,,,,,,['4bf58dd8d48988d151941735'],['Dining and Drinking > Restaurant > Mexican Restaurant > Taco Restaurant'],b'\x00\x00\x00\x00\x01\xc0W\xe1\xe2\xf7\x15\x9f\x1a@2\x08\x16|O\x9fK',"{'xmin': -95.52947785483812, 'ymin': 18.031593102873824, 'xmax': -95.52947785483812, 'ymax': 18.031593102873824}",dining and drinking > restaurant > mexican restaurant > taco restaurant,1
52929afe498e2c42df5cdb94,Antojitos Rafaelo's,14.869296517296043,-92.30944632629209,,,,,,,,MX,2013-11-25,2020-11-22,,,,,,,,['4bf58dd8d48988d151941735'],['Dining and Drinking > Restaurant > Mexican Restaurant > Taco Restaurant'],b'\x00\x00\x00\x00\x01\xc0W\x13\xcd\xf7\xf6\xd2\xae@-\xbd\x14n\xe0\xa0\\',"{'xmin': -92.30944632629209, 'ymin': 14.869296517296043, 'xmax': -92.30944632629209, 'ymax': 14.869296517296043}",dining and drinking > restaurant > mexican restaurant > taco restaurant,1
4ed2d99b02d5feaa1f2fee62,Taqueria Arandas,19.281462638573018,-99.22926582561503,,,,,,,,MX,2011-11-28,2021-08-12,,,,,,,,['4bf58dd8d48988d151941735'],['Dining and Drinking > Restaurant > Mexican Restaurant > Taco Restaurant'],b'\x00\x00\x00\x00\x01\xc0X\xce\xacJ\x91\xc6\xd9@3H\r\xef{\xb7\x8c',"{'xmin': -99.22926582561503, 'ymin': 19.281462638573018, 'xmax': -99.22926582561503, 'ymax': 19.281462638573018}",dining and drinking > restaurant > mexican restaurant > taco restaurant,1
6431d6f9b627d134adbf107c,Taquería Ta' Chingón,16.959067,-96.47788,Av. Juárez,Tlacolula de Matamoros,OAX,70400,,,,MX,2023-04-08,2023-04-13,,,,,,,,['4bf58dd8d48988d151941735'],['Dining and Drinking > Restaurant > Mexican Restaurant > Taco Restaurant'],b'\x00\x00\x00\x00\x01\xc0X\x1e\x95\x95\xfe\xdaf@0\xf5\x85j7\xac?',"{'xmin': -96.47788, 'ymin': 16.959067, 'xmax': -96.47788, 'ymax': 16.959067}",dining and drinking > restaurant > mexican restaurant > taco restaurant,1
5b4c106bc53093002c815c0a,El Taco Loco,20.053518,-102.71326,,Sahuayo de Morelos,Michoacán,59020,,,,MX,2018-07-16,2020-11-25,,,,,,,,['4bf58dd8d48988d151941735'],['Dining and Drinking > Restaurant > Mexican Restaurant > Taco Restaurant'],b'\x00\x00\x00\x00\x01\xc0Y\xad\xa6\rEb\xe1@4\r\xb3[\x0b\xbfQ',"{'xmin': -102.71326, 'ymin': 20.053518, 'xmax': -102.71326, 'ymax': 20.053518}",dining and drinking > restaurant > mexican restaurant > taco restaurant,1
4f601307e4b039028efab44d,El Carboncito,14.911173391258286,-92.26407065654142,6a Av. Norte,,,,,,,MX,2012-03-14,2021-08-16,,,,,,,,['4bf58dd8d48988d151941735'],['Dining and Drinking > Restaurant > Mexican Restaurant > Taco Restaurant'],"b""\x00\x00\x00\x00\x01\xc0W\x10\xe6\x88\x9cko@-\xd2\x85Q\x98\xe1'""","{'xmin': -92.26407065654142, 'ymin': 14.911173391258286, 'xmax': -92.26407065654142, 'ymax': 14.911173391258286}",dining and drinking > restaurant > mexican restaurant > taco restaurant,1
5892a4a6fc73d40bed4ab103,Señor Maciza Suc. Mercadito,19.184511,-96.134877,Av. Díaz Miron,Veracruz,Veracruz,,,,,MX,2017-02-02,2020-11-30,,,,,,,,['4bf58dd8d48988d151941735'],['Dining and Drinking > Restaurant > Mexican Restaurant > Taco Restaurant'],b'\x00\x00\x00\x00\x01\xc0X\x08\xa1\xd3#\xfe\xe3@3/<\x1c\xe6\xc0\x94',"{'xmin': -96.134877, 'ymin': 19.184511, 'xmax': -96.134877, 'ymax': 19.184511}",dining and drinking > restaurant > mexican restaurant > taco restaurant,1
52c63667498e2fd20b19acaa,Mitos Arabes,19.16491280006951,-96.11061254526238,Ruiz Cortines,"Boca del Río, VER",Veracruz,,,,,MX,2014-01-03,2020-11-23,,,,,,,,['4bf58dd8d48988d151941735'],['Dining and Drinking > Restaurant > Mexican Restaurant > Taco Restaurant'],b'\x00\x00\x00\x00\x01\xc0X\x07\x14F\xa4\x1by@3*7\xb9\xaa\xfd\x86',"{'xmin': -96.11061254526238, 'ymin': 19.16491280006951, 'xmax': -96.11061254526238, 'ymax': 19.16491280006951}",dining and drinking > restaurant > mexican restaurant > taco restaurant,1
531e82b0498e9bcb6eb856d1,Antojeria Tepetlapa,19.31521987915039,-99.10619354248047,,,,,,,,MX,2014-03-11,2021-08-11,,,,,,,,['4bf58dd8d48988d151941735'],['Dining and Drinking > Restaurant > Mexican Restaurant > Taco Restaurant'],b'\x00\x00\x00\x00\x01\xc0X\xc6\xcb\xe0\x00\x00\x00@3P\xb2@\x00\x00\x00',"{'xmin': -99.10619354248047, 'ymin': 19.31521987915039, 'xmax': -99.10619354248047, 'ymax': 19.31521987915039}",dining and drinking > restaurant > mexican restaurant > taco restaurant,1
56d10718498e4199984dc0b1,La Trijonsona,19.27565553567721,-99.67404970583134,Lago De Mextitlan 501,Toluca,Toluca,50170,,,,MX,2016-02-27,2023-12-20,,722 240 4859,,,,,,['4bf58dd8d48988d151941735'],['Dining and Drinking > Restaurant > Mexican Restaurant > Taco Restaurant'],b'\x00\x00\x00\x00\x01\xc0X\xeb#\xa1`\x9b#@3F\x91\\v\xb1\xea',"{'xmin': -99.67404970583134, 'ymin': 19.27565553567721, 'xmax': -99.67404970583134, 'ymax': 19.27565553567721}",dining and drinking > restaurant > mexican restaurant > taco restaurant,1
513bfaabe4b0f9298185e757,quekas el lento,19.32024059989561,-99.24180880325083,av san bernabe,,,,,,,MX,2013-03-10,2021-08-12,,,,,,,,['4bf58dd8d48988d151941735'],['Dining and Drinking > Restaurant > Mexican Restaurant > Taco Restaurant'],b'\x00\x00\x00\x00\x01\xc0X\xcfy\xcb\xa1v9@3Q\xfbI\xb7g/',"{'xmin': -99.24180880325083, 'ymin': 19.32024059989561, 'xmax': -99.24180880325083, 'ymax': 19.32024059989561}",dining and drinking > restaurant > mexican restaurant > taco restaurant,1
4fef930ee4b00a5fd4821630,Tacos orientales,17.56063408697524,-99.5073867279989,,,,,,,,MX,2012-07-01,2021-08-11,,,,,,,,['4bf58dd8d48988d151941735'],['Dining and Drinking > Restaurant > Mexican Restaurant > Taco Restaurant'],"b'\x00\x00\x00\x00\x01\xc0X\xe0y\x06.\xcb\x81@1\x8f\x85\xb7,\x94\xdc'","{'xmin': -99.5073867279989, 'ymin': 17.56063408697524, 'xmax': -99.5073867279989, 'ymax': 17.56063408697524}",dining and drinking > restaurant > mexican restaurant > taco restaurant,1
55732635498edc19ce0d1b37,"Carnitas ""Emily""",19.29079540922843,-99.05378588411506,,,,,,,,MX,2015-06-06,2021-08-13,,,,,,,,['4bf58dd8d48988d151941735'],['Dining and Drinking > Restaurant > Mexican Restaurant > Taco Restaurant'],b'\x00\x00\x00\x00\x01\xc0X\xc3q:YP\xae@3Jq\x91dv\x8a',"{'xmin': -99.05378588411506, 'ymin': 19.29079540922843, 'xmax': -99.05378588411506, 'ymax': 19.29079540922843}",dining and drinking > restaurant > mexican restaurant > taco restaurant,1
5e702bdeb329c5000860c553,Taqueria Mc Taco El Rey,17.083229,-96.711752,"Martires De Chicago 2, Infonavit 1ro Mayo",Oaxaca de Juárez,OAX,68020,,,,MX,2020-03-17,2020-11-23,,,,,,,,['4bf58dd8d48988d151941735'],['Dining and Drinking > Restaurant > Mexican Restaurant > Taco Restaurant'],b'\x00\x00\x00\x00\x01\xc0X-\x8dXB\xb75@1\x15N~\xe9\x14+',"{'xmin': -96.711752, 'ymin': 17.083229, 'xmax': -96.711752, 'ymax': 17.083229}",dining and drinking > restaurant > mexican restaurant > taco restaurant,1
51263c33e4b0fa3866c9fca8,El Cabrito De Taxco,18.555205,-99.60544,,,,,,,,MX,2013-02-21,2023-12-21,,762 622 1884,,,,,,['4bf58dd8d48988d151941735'],['Dining and Drinking > Restaurant > Mexican Restaurant > Taco Restaurant'],b'\x00\x00\x00\x00\x01\xc0X\xe6\xbf\x87i\xec-@2\x8e!\xea5\x93`',"{'xmin': -99.60544, 'ymin': 18.555205, 'xmax': -99.60544, 'ymax': 18.555205}",dining and drinking > restaurant > mexican restaurant > taco restaurant,1
573fc5bf498e89bb5abc8338,La Chilanguita,19.151982767545768,-96.13820938445436,,,,,,,,MX,2016-05-21,2021-08-14,,,,,,,,['4bf58dd8d48988d151941735'],['Dining and Drinking > Restaurant > Mexican Restaurant > Taco Restaurant'],"b'\x00\x00\x00\x00\x01\xc0X\x08\xd8l,\x8e\xd5@3&\xe8W\xb8*&'","{'xmin': -96.13820938445436, 'ymin': 19.151982767545768, 'xmax': -96.13820938445436, 'ymax': 19.151982767545768}",dining and drinking > restaurant > mexican restaurant > taco restaurant,1
54110b15498ea076466c40fb,TAQUERIA DE LA 28,14.888909339904785,-92.26122283935547,15 Sur Esq. 28 Ote,Tapachula,chiapas,30790,,,,MX,2014-09-11,2020-11-30,,,,,,,,['4bf58dd8d48988d151941735'],['Dining and Drinking > Restaurant > Mexican Restaurant > Taco Restaurant'],b'\x00\x00\x00\x00\x01\xc0W\x10\xb7\xe0\x00\x00\x00@-\xc7\x1f \x00\x00\x00',"{'xmin': -92.26122283935547, 'ymin': 14.888909339904785, 'xmax': -92.26122283935547, 'ymax': 14.888909339904785}",dining and drinking > restaurant > mexican restaurant > taco restaurant,1
5019e25fe4b0265f386b62a6,Tacos Tita,20.350791,-102.765247,Honorato Barrera,Ocotlan,Jalisco,47860,,,,MX,2012-08-02,2020-11-23,,,,,,,,['4bf58dd8d48988d151941735'],['Dining and Drinking > Restaurant > Mexican Restaurant > Taco Restaurant'],"b'\x00\x00\x00\x00\x01\xc0Y\xb0\xf9\xce\x8d\x97-@4Y\xcdp`\xbb,'","{'xmin': -102.765247, 'ymin': 20.350791, 'xmax': -102.765247, 'ymax': 20.350791}",dining and drinking > restaurant > mexican restaurant > taco restaurant,1
4c43a763f97fbe9a4e30ba30,Tacos de la Lona Naranja,19.263553360262602,-99.13470602023516,Arenal,Xochimilco,D.f.,,,,,MX,2010-07-19,2020-11-25,,,,,,,,['4bf58dd8d48988d151941735' '4bf58dd8d48988d1cb941735'],"['Dining and Drinking > Restaurant > Mexican Restaurant > Taco Restaurant'
