fsq_place_id,name,latitude,longitude,address,locality,region,postcode,admin_region,post_town,po_box,country,date_created,date_refreshed,date_closed,tel,website,email,facebook_id,instagram,twitter,fsq_category_ids,fsq_category_labels,geom,bbox,labels_str,taco_restaurant
ba10d9fa28094fca61a6d3d7,Audio e Iluminacion Boston,,,Clle Litografia 317,Ciudad de México,Ciudad de México,15300,,,,MX,2016-06-04,2024-07-15,,55 5789 0770,,,,,,"['5454152e498ef71e2b9132c6' '63be6904847c3692a84b9b58'
 '4bf58dd8d48988d151941735']","['Business and Professional Services > Event Service'
 'Business and Professional Services > Home Improvement Service'
 'Dining and Drinking > Restaurant > Mexican Restaurant > Taco Restaurant']",,"{'xmin': None, 'ymin': None, 'xmax': None, 'ymax': None}","business and professional services > event service, business and professional services > home improvement service, dining and drinking > restaurant > mexican restaurant > taco restaurant",1
50e7b221e4b0ebb62aa3c5aa,Tacos Johnny,32.523515,-117.045262,,,,,,,,MX,2013-01-05,2021-08-14,,,,,,,,['4bf58dd8d48988d151941735'],['Dining and Drinking > Restaurant > Mexican Restaurant > Taco Restaurant'],b'\x00\x00\x00\x00\x01\xc0]B\xe5\x92\x96p\x19@@C\x02\x8a\x1d\xfb\x94',"{'xmin': -117.045262, 'ymin': 32.523515, 'xmax': -117.045262, 'ymax': 32.523515}",dining and drinking > restaurant > mexican restaurant > taco restaurant,1
51302ac7e4b02c4450482b08,Tacos El Campechano,32.61323110842334,-115.44020720748429,,Mexicali,Baja California,,,,,MX,2013-03-01,2020-11-30,,,,,,,,['4bf58dd8d48988d151941735'],['Dining and Drinking > Restaurant > Mexican Restaurant > Taco Restaurant'],"b'\x00\x00\x00\x00\x01\xc0\\\xdc,Z\xd9\xe6\xf2@@N~[a\xc8\xb7'","{'xmin': -115.44020720748429, 'ymin': 32.61323110842334, 'xmax': -115.44020720748429, 'ymax': 32.61323110842334}",dining and drinking > restaurant > mexican restaurant > taco restaurant,1
51fd64ce498e900f3833f7f6,Tacos La pasadita,32.359999726722954,-117.05865499309284,Blvd Benito Juarez,Rosarito,baja,22710,,,,MX,2013-08-03,2023-12-20,,661 613 5041,,,,,,['4bf58dd8d48988d151941735'],['Dining and Drinking > Restaurant > Mexican Restaurant > Taco Restaurant'],b'\x00\x00\x00\x00\x01\xc0]C\xc1\x00\xdfE-@@.\x14x\x96l\t',"{'xmin': -117.05865499309284, 'ymin': 32.359999726722954, 'xmax': -117.05865499309284, 'ymax': 32.359999726722954}",dining and drinking > restaurant > mexican restaurant > taco restaurant,1
5243b64511d2e3258703c95d,Tacos Angelito,31.861537,-116.612727,,,,,,,,MX,2013-09-26,2021-08-13,,,,,,,,['4bf58dd8d48988d151941735'],['Dining and Drinking > Restaurant > Mexican Restaurant > Taco Restaurant'],"b""\x00\x00\x00\x00\x01\xc0]'6\xebN\x98\x14@?\xdc\x8d\xb0WK@""","{'xmin': -116.612727, 'ymin': 31.861537, 'xmax': -116.612727, 'ymax': 31.861537}",dining and drinking > restaurant > mexican restaurant > taco restaurant,1
628fb823fedf861299b9ca2d,Hijas De La Chiilanga,31.862864,-116.61234,,Ensenada,Baja California,22830,,,,MX,2022-05-26,2022-05-26,,,,,,,,['4bf58dd8d48988d151941735'],['Dining and Drinking > Restaurant > Mexican Restaurant > Taco Restaurant'],"b""\x00\x00\x00\x00\x01\xc0]'0\x94\x1c\x82\x17@?\xdc\xe4\xa7\xb4\xe5O""","{'xmin': -116.61234, 'ymin': 31.862864, 'xmax': -116.61234, 'ymax': 31.862864}",dining and drinking > restaurant > mexican restaurant > taco restaurant,1
4eea33a24690034a7fdc9c9f,Carnitas Valle Del Colorado,32.59469022440365,-115.37740601149756,,,,,,,,MX,2011-12-15,2021-08-16,,,,,,,,['4bf58dd8d48988d151941735'],['Dining and Drinking > Restaurant > Mexican Restaurant > Taco Restaurant'],"b""\x00\x00\x00\x00\x01\xc0\\\xd8'k\x8b,\x88@@L\x1e\xcf,\x88D""","{'xmin': -115.37740601149756, 'ymin': 32.59469022440365, 'xmax': -115.37740601149756, 'ymax': 32.59469022440365}",dining and drinking > restaurant > mexican restaurant > taco restaurant,1
4e49fadfe4cd4fd72fff53d3,Asadero El Chava,32.62362665692879,-115.50347834616262,,Mexicali,Baja California,,,,,MX,2011-08-16,2023-12-20,,686 559 2915,,,,,,['4bf58dd8d48988d151941735'],['Dining and Drinking > Restaurant > Mexican Restaurant > Taco Restaurant'],b'\x00\x00\x00\x00\x01\xc0\\\xe08\xfd=\xc0\xcf@@O\xd2\xff\x906$',"{'xmin': -115.50347834616262, 'ymin': 32.62362665692879, 'xmax': -115.50347834616262, 'ymax': 32.62362665692879}",dining and drinking > restaurant > mexican restaurant > taco restaurant,1
4de16ab97d8b2547eaeb9b51,Tacos el Patito,32.5734706182072,-116.64356231689453,,Tecate,,,,,,MX,2011-05-28,2020-11-22,,,,,,,,['4bf58dd8d48988d151941735'],['Dining and Drinking > Restaurant > Mexican Restaurant > Taco Restaurant'],b'\x00\x00\x00\x00\x01\xc0])0 \x00\x00\x00@@Ig|75[',"{'xmin': -116.64356231689453, 'ymin': 32.5734706182072, 'xmax': -116.64356231689453, 'ymax': 32.5734706182072}",dining and drinking > restaurant > mexican restaurant > taco restaurant,1
562c06ff498ed5b22c759606,Tacos Cajeme,32.50776908871151,-116.92658270219052,,,,,,,,MX,2015-10-24,2020-11-22,,,,,,,,['4bf58dd8d48988d151941735'],['Dining and Drinking > Restaurant > Mexican Restaurant > Taco Restaurant'],b'\x00\x00\x00\x00\x01\xc0];M!\x88\xbc\xa5@@@\xfe\x93\xd6\xf7\xc4',"{'xmin': -116.92658270219052, 'ymin': 32.50776908871151, 'xmax': -116.92658270219052, 'ymax': 32.50776908871151}",dining and drinking > restaurant > mexican restaurant > taco restaurant,1
58ce0331febfbd140ce4824e,Tacos Lolis,32.488238,-116.947708,,,,,,,,MX,2017-03-19,2020-11-30,,,,,,,,['4bf58dd8d48988d151941735'],['Dining and Drinking > Restaurant > Mexican Restaurant > Taco Restaurant'],b'\x00\x00\x00\x00\x01\xc0]<\xa7?t\x8a\x16@@>~\x951U\r',"{'xmin': -116.947708, 'ymin': 32.488238, 'xmax': -116.947708, 'ymax': 32.488238}",dining and drinking > restaurant > mexican restaurant > taco restaurant,1
4fa7fa79e4b0cbe2e1d68e49,Super 7,32.5298586,-117.0249256,Francisco Javier Mina,Tijuana,Baja California,,,,,MX,2012-05-07,2020-11-24,,,,,,,,['4bf58dd8d48988d151941735'],['Dining and Drinking > Restaurant > Mexican Restaurant > Taco Restaurant'],b'\x00\x00\x00\x00\x01\xc0]A\x98a\x8b5S@@C\xd2h\x17@\x8e',"{'xmin': -117.0249256, 'ymin': 32.5298586, 'xmax': -117.0249256, 'ymax': 32.5298586}",dining and drinking > restaurant > mexican restaurant > taco restaurant,1
4f96ec906b74dd14ba15bf4e,Tacos Del Retro,32.66425258872912,-115.47351837158203,Av. Reforma,Mexicali,CA,,,,,MX,2012-04-24,2021-08-11,,,,,,,,['4bf58dd8d48988d151941735'],['Dining and Drinking > Restaurant > Mexican Restaurant > Taco Restaurant'],b'\x00\x00\x00\x00\x01\xc0\\\xdeN \x00\x00\x00@@U\x06:\x94o\xfd',"{'xmin': -115.47351837158203, 'ymin': 32.66425258872912, 'xmax': -115.47351837158203, 'ymax': 32.66425258872912}",dining and drinking > restaurant > mexican restaurant > taco restaurant,1
4fb852c5e4b06d1e699eda5d,Taqueria Guasave,31.788556030775382,-116.56384543873115,,,,,,,,MX,2012-05-20,2021-08-13,,,,,,,,['4bf58dd8d48988d151941735'],['Dining and Drinking > Restaurant > Mexican Restaurant > Taco Restaurant'],b'\x00\x00\x00\x00\x01\xc0]$\x16\x0b-\xd6W@?\xc9\xde\xce\xdb>l',"{'xmin': -116.56384543873115, 'ymin': 31.788556030775382, 'xmax': -116.56384543873115, 'ymax': 31.788556030775382}",dining and drinking > restaurant > mexican restaurant > taco restaurant,1
5f9253b863d29f091534650e,Biznaga,32.541208,-117.029943,,Tijuana,BC,22010,,,,MX,2020-10-23,2020-11-25,,,,,,,,['4bf58dd8d48988d151941735'],['Dining and Drinking > Restaurant > Mexican Restaurant > Taco Restaurant'],b'\x00\x00\x00\x00\x01\xc0]A\xea\x96\x0bo\xa0@@EFM\xc2*\xb2',"{'xmin': -117.029943, 'ymin': 32.541208, 'xmax': -117.029943, 'ymax': 32.541208}",dining and drinking > restaurant > mexican restaurant > taco restaurant,1
4f30c26ae4b02344c214898f,Asadero Autlán,32.62127848356961,-115.47935649107046,Blvd. Anahuac,Mexicali,,,,,,MX,2012-02-07,2020-11-22,,,,,,,,['4bf58dd8d48988d151941735'],['Dining and Drinking > Restaurant > Mexican Restaurant > Taco Restaurant'],b'\x00\x00\x00\x00\x01\xc0\\\xde\xad\xc6\xd9\x11x@@O\x86\r\xa8Q\xea',"{'xmin': -115.47935649107046, 'ymin': 32.62127848356961, 'xmax': -115.47935649107046, 'ymax': 32.62127848356961}",dining and drinking > restaurant > mexican restaurant > taco restaurant,1
541ca532498ec006c3bdf72b,Tacos Jorge,32.665753305860385,-115.47115454583054,,Mexicali,BN,,,,,MX,2014-09-19,2020-11-24,,,,,,,,['4bf58dd8d48988d151941735'],['Dining and Drinking > Restaurant > Mexican Restaurant > Taco Restaurant'],"b""\x00\x00\x00\x00\x01\xc0\\\xde'eem\r@@U7g\x81\xef\xe7""","{'xmin': -115.47115454583054, 'ymin': 32.665753305860385, 'xmax': -115.47115454583054, 'ymax': 32.665753305860385}",dining and drinking > restaurant > mexican restaurant > taco restaurant,1
56d85f97498e1789857949dc,tacos de ollita,20.742348,-103.430433,,,,,,,,MX,2016-03-03,2021-08-15,,,,,,,,['4bf58dd8d48988d151941735'],['Dining and Drinking > Restaurant > Mexican Restaurant > Taco Restaurant'],b'\x00\x00\x00\x00\x01\xc0Y\xdb\x8c6\xda\x87\xa0@4\xbe\n\x84\xbe@B',"{'xmin': -103.430433, 'ymin': 20.742348, 'xmax': -103.430433, 'ymax': 20.742348}",dining and drinking > restaurant > mexican restaurant > taco restaurant,1
4d6c7f98369ba0937ba9c84c,Naranja Tacos,20.697054226595224,-103.36198842177973,Av. Plan de San Luis Potosí 1653,Guadalajara,Jalisco,,,,,MX,2011-03-01,2021-08-12,,,,,,,,['4bf58dd8d48988d151941735' '4bf58dd8d48988d1c1941735'],"['Dining and Drinking > Restaurant > Mexican Restaurant > Taco Restaurant'
 'Dining and Drinking > Restaurant > Mexican Restaurant']",b'\x00\x00\x00\x00\x01\xc0Y\xd7*\xd1|D\xc6@4\xb2r%R\xc3\xdb',"{'xmin': -103.36198842177973, 'ymin': 20.697054226595224, 'xmax': -103.36198842177973, 'ymax': 20.697054226595224}","dining and drinking > restaurant > mexican restaurant > taco restaurant, dining and drinking > restaurant > mexican restaurant",1
51930a5f498ea46fc14283e1,Tacos Los López,20.737517107267973,-103.35267944982533,,,,,,,,MX,2013-05-15,2021-08-14,,,,,,,,['4bf58dd8d48988d151941735'],['Dining and Drinking > Restaurant > Mexican Restaurant > Taco Restaurant'],b'\x00\x00\x00\x00\x01\xc0Y\xd6\x92L\xd3\xbe&@4\xbc\xcd\xeb\xcf\xf4\xdb',"{'xmin': -103.35267944982533, 'ymin': 20.737517107267973, 'xmax': -103.35267944982533, 'ymax': 20.737517107267973}",dining and drinking > restaurant > mexican restaurant > taco restaurant,1
55748c55498e914672634e47,Las Ro,20.663786931438377,-103.40067462318244,Tepeyac 591,Guadalajara,Jalisco,45040,,,,MX,2015-06-07,2021-08-10,,,http://tortasahogadas.mx,,,,,['4bf58dd8d48988d151941735'],['Dining and Drinking > Restaurant > Mexican Restaurant > Taco Restaurant'],"b'\x00\x00\x00\x00\x01\xc0Y\xd9\xa4\xa7,\xb9\xf7@4\xa9\xed\xf0\xba\n?'","{'xmin': -103.40067462318244, 'ymin': 20.663786931438377, 'xmax': -103.40067462318244, 'ymax': 20.663786931438377}",dining and drinking > restaurant > mexican restaurant > taco restaurant,1
530247de498e34f625a66bb5,tacos Miky,20.519391,-100.795584,,,,,,,,MX,2014-02-17,2021-08-15,,,,,,,,['4bf58dd8d48988d151941735'],['Dining and Drinking > Restaurant > Mexican Restaurant > Taco Restaurant'],"b""\x00\x00\x00\x00\x01\xc0Y2\xea\xd9'N#@4\x84\xf6\xce\xfe\xd64""","{'xmin': -100.795584, 'ymin': 20.519391, 'xmax': -100.795584, 'ymax': 20.519391}",dining and drinking > restaurant > mexican restaurant > taco restaurant,1
50d7d6f9e4b079e5d531d31a,Tacos Mane,20.12721173732658,-101.1812996064536,Av. América,Moroleon,Guanajuato,,,,,MX,2012-12-24,2020-11-23,,,,,,,,['4bf58dd8d48988d151941735'],['Dining and Drinking > Restaurant > Mexican Restaurant > Taco Restaurant'],b'\x00\x00\x00\x00\x01\xc0YK\x9ai\xaa\x1f\xbd@4 \x90\xf2\xcb|)',"{'xmin': -101.1812996064536, 'ymin': 20.12721173732658, 'xmax': -101.1812996064536, 'ymax': 20.12721173732658}",dining and drinking > restaurant > mexican restaurant > taco restaurant,1
5bf0e0f023a2e6002c279b46,La Taqueria,20.736821,-103.421251,Av Jesus,Zapopan,JAL,45130,,,,MX,2018-11-18,2020-11-30,,,,,,,,['4bf58dd8d48988d151941735' '4bf58dd8d48988d1c1941735'],"['Dining and Drinking > Restaurant > Mexican Restaurant > Taco Restaurant'
 'Dining and Drinking > Restaurant > Mexican Restaurant']",b'\x00\x00\x00\x00\x01\xc0Y\xda\xf5\xc6\xc1\x1a\x11@4\xbc\xa0M\x12\x01\x8a',"{'xmin': -103.421251, 'ymin': 20.736821, 'xmax': -103.421251, 'ymax': 20.736821}","dining and drinking > restaurant > mexican restaurant > taco restaurant, dining and drinking > restaurant > mexican restaurant",1
5143ead1e4b0702d1d438da8,Tacos Manuel (Lentencias),20.688924,-103.366826,,,,,,,,MX,2013-03-16,2021-08-16,,,,,,,,['4bf58dd8d48988d151941735'],['Dining and Drinking > Restaurant > Mexican Restaurant > Taco Restaurant'],b'\x00\x00\x00\x00\x01\xc0Y\xd7z\x13\xc2T\xa4@4\xb0]R\xc1m\xf4',"{'xmin': -103.366826, 'ymin': 20.688924, 'xmax': -103.366826, 'ymax': 20.688924}",dining and drinking > restaurant > mexican restaurant > taco restaurant,1
524f7f3111d20f0286e08032,"Tacos ""La Pasadita"" Doña Petra",20.945836530018948,-101.43422813070009,,,,,,,,MX,2013-10-05,2021-08-16,,,,,,,,['4bf58dd8d48988d151941735'],['Dining and Drinking > Restaurant > Mexican Restaurant > Taco Restaurant'],"b'\x00\x00\x00\x00\x01\xc0Y[\xcad\xc9\x17\x0c@4\xf2""W\xc3\xcb#'","{'xmin': -101.43422813070009, 'ymin': 20.945836530018948, 'xmax': -101.43422813070009, 'ymax': 20.945836530018948}",dining and drinking > restaurant > mexican restaurant > taco restaurant,1
4ecbbe60775b4671dbeab8e5,Quesadillas,20.450933,-101.548472,,,Guanajuato,,,,,MX,2011-11-22,2021-08-17,,,,,,,,['4bf58dd8d48988d151941735'],['Dining and Drinking > Restaurant > Mexican Restaurant > Taco Restaurant'],b'\x00\x00\x00\x00\x01\xc0Yc\x1a*M\xb1d@4spXW\xaf\xea',"{'xmin': -101.548472, 'ymin': 20.450933, 'xmax': -101.548472, 'ymax': 20.450933}",dining and drinking > restaurant > mexican restaurant > taco restaurant,1
521416a011d2cb78f7115999,Flautas De Milanesa Armando,21.127125532620656,-101.69094346111366,,,,,,,,MX,2013-08-21,2021-08-14,,,,,,,,['4bf58dd8d48988d151941735'],['Dining and Drinking > Restaurant > Mexican Restaurant > Taco Restaurant'],b'\x00\x00\x00\x00\x01\xc0Yl8j\xec7\x91@5 \x8bL\x85\x17\xa1',"{'xmin': -101.69094346111366, 'ymin': 21.127125532620656, 'xmax': -101.69094346111366, 'ymax': 21.127125532620656}",dining and drinking > restaurant > mexican restaurant > taco restaurant,1
56636230498e59f4a28dc396,Taqueria La Flor De Sahuayo,20.682765858353452,-103.35929002056288,Mariano Barcenas #79,Guadalajara,Jalisco,,,,,MX,2015-12-05,2021-08-11,,,,,,,,['4bf58dd8d48988d151941735'],['Dining and Drinking > Restaurant > Mexican Restaurant > Taco Restaurant'],b'\x00\x00\x00\x00\x01\xc0Y\xd6\xfe\x9b\x92\x061@4\xae\xc9\xbeHt\x15',"{'xmin': -103.35929002056288, 'ymin': 20.682765858353452, 'xmax': -103.35929002056288, 'ymax': 20.682765858353452}",dining and drinking > restaurant > mexican restaurant > taco restaurant,1
c0cb2e616a874be5f7f0228c,Cenaduria Juanita,21.137949,-101.682401,16 de Septiembre 508,León,Guanajuato,37320,,,,MX,2013-10-22,2023-12-06,,477 279 1191,,,,,,['4bf58dd8d48988d151941735'],['Dining and Drinking > Restaurant > Mexican Restaurant > Taco Restaurant'],b'\x00\x00\x00\x00\x01\xc0Yk\xacu>p~@5#P\xa0+\x84\x12',"{'xmin': -101.682401, 'ymin': 21.137949, 'xmax': -101.682401, 'ymax': 21.137949}",dining and drinking > restaurant > mexican restaurant > taco restaurant,1
4f8e249ce4b068786aee1e94,tacos erick,19.771116596874467,-104.36054953382653,,,,,,,,MX,2012-04-18,2021-08-14,,,,,,,,['4bf58dd8d48988d151941735'],['Dining and Drinking > Restaurant > Mexican Restaurant > Taco Restaurant'],b'\x00\x00\x00\x00\x01\xc0Z\x17\x13>Z\x17\xdf@3\xc5g\xe5\xb4\xfa\x89',"{'xmin': -104.36054953382653, 'ymin': 19.771116596874467, 'xmax': -104.36054953382653, 'ymax': 19.771116596874467}",dining and drinking > restaurant > mexican restaurant > taco restaurant,1
641877093734c91c6cf397ee,Tacos De Cabeza Ponce,21.543513,-105.280696,,San Blas,NAY,63742,,,,MX,2023-03-20,2023-03-20,,,,,,,,['4bf58dd8d48988d151941735'],['Dining and Drinking > Restaurant > Mexican Restaurant > Taco Restaurant'],b'\x00\x00\x00\x00\x01\xc0ZQ\xf6\xec[\x07\x8e@5\x8b#\xaa\xff\xf3k',"{'xmin': -105.280696, 'ymin': 21.543513, 'xmax': -105.280696, 'ymax': 21.543513}",dining and drinking > restaurant > mexican restaurant > taco restaurant,1
4fd80ea4e4b0f87fa0b49e6e,Tacos Tilo,21.238177,-102.325126,,,,,,,,MX,2012-06-13,2021-08-15,,,,,,,,['4bf58dd8d48988d151941735'],['Dining and Drinking > Restaurant > Mexican Restaurant > Taco Restaurant'],b'\x00\x00\x00\x00\x01\xc0Y\x94\xce\xddHE\x13@5<\xf9*\xf9\xa8\xce',"{'xmin': -102.325126, 'ymin': 21.238177, 'xmax': -102.325126, 'ymax': 21.238177}",dining and drinking > restaurant > mexican restaurant > taco restaurant,1
5777ea9c498e14147ce026c3,Tacos Mao,21.110697,-101.60561,Blvd la luz #3322,León,Guanajuato,37299,,,,MX,2016-07-02,2020-11-23,2017-08-13,,,,,,,['4bf58dd8d48988d151941735'],['Dining and Drinking > Restaurant > Mexican Restaurant > Taco Restaurant'],b'\x00\x00\x00\x00\x01\xc0Yf\xc2Pr\x08[@5\x1cV\xa3z\xc3\xeb',"{'xmin': -101.60561, 'ymin': 21.110697, 'xmax': -101.60561, 'ymax': 21.110697}",dining and drinking > restaurant > mexican restaurant > taco restaurant,1
5345f678498ebbbea965ec9a,Tacos el Chino,21.024188995361328,-101.25891876220703,,,,,,,,MX,2014-04-10,2021-08-11,,,,,,,,['4bf58dd8d48988d151941735'],['Dining and Drinking > Restaurant > Mexican Restaurant > Taco Restaurant'],b'\x00\x00\x00\x00\x01\xc0YP\x92 \x00\x00\x00@5\x061@\x00\x00\x00',"{'xmin': -101.25891876220703, 'ymin': 21.024188995361328, 'xmax': -101.25891876220703, 'ymax': 21.024188995361328}",dining and drinking > restaurant > mexican restaurant > taco restaurant,1
55735359498ed338319e1ec2,Tortas Ahogadas Chuy,20.731747,-103.338941,,,,,,,,MX,2015-06-06,2021-08-14,,,,,,,,['4bf58dd8d48988d151941735'],['Dining and Drinking > Restaurant > Mexican Restaurant > Taco Restaurant'],b'\x00\x00\x00\x00\x01\xc0Y\xd5\xb15\x97\x91\x82@4\xbbS\xc5y\xf24',"{'xmin': -103.338941, 'ymin': 20.731747, 'xmax': -103.338941, 'ymax': 20.731747}",dining and drinking > restaurant > mexican restaurant > taco restaurant,1
6142a25a42a4e37d682a0224,Los Tapatíos,20.682185,-101.358528,Lázaro Cárdenas,Irapuato,,,,,,MX,2021-09-16,2023-01-14,,462 333 2782,,,,,,['4bf58dd8d48988d151941735'],['Dining and Drinking > Restaurant > Mexican Restaurant > Taco Restaurant'],b'\x00\x00\x00\x00\x01\xc0YV\xf2\x1fl\xac\xd2@4\xae\xa3\xad\x18\xd2_',"{'xmin': -101.358528, 'ymin': 20.682185, 'xmax': -101.358528, 'ymax': 20.682185}",dining and drinking > restaurant > mexican restaurant > taco restaurant,1
5b11932a012358002cee9f11,Ta-Ki,21.92399,-102.297024,,Aguascalientes,AGS,20124,,,,MX,2018-06-01,2020-11-20,,,,,,,,['4bf58dd8d48988d151941735'],['Dining and Drinking > Restaurant > Mexican Restaurant > Taco Restaurant'],"b'\x00\x00\x00\x00\x01\xc0Y\x93\x02p\xf3\x88""@5\xec\x8a\x9b\xcf\xd4\xbf'","{'xmin': -102.297024, 'ymin': 21.92399, 'xmax': -102.297024, 'ymax': 21.92399}",dining and drinking > restaurant > mexican restaurant > taco restaurant,1
4f6aa52ee4b0b21b4f882247,El May (tacos),20.725241,-103.370984,Manuel Aguirre 197,Zapopan,Jalisco,45180,,,,MX,2012-03-22,2020-11-24,,,,,,,,['4bf58dd8d48988d151941735'],['Dining and Drinking > Restaurant > Mexican Restaurant > Taco Restaurant'],b'\x00\x00\x00\x00\x01\xc0Y\xd7\xbe3\xac\xd5\xb7@4\xb9\xa9d\xe8\xb7\xe5',"{'xmin': -103.370984, 'ymin': 20.725241, 'xmax': -103.370984, 'ymax': 20.725241}",dining and drinking > restaurant > mexican restaurant > taco restaurant,1
4f9d65c1e4b0b045859af8a1,Tortas ahogadas El Robert,20.74398289867281,-103.39545117489347,,,,,,,,MX,2012-04-29,2021-08-16,,,,,,,,['4bf58dd8d48988d151941735'],['Dining and Drinking > Restaurant > Mexican Restaurant > Taco Restaurant'],b'\x00\x00\x00\x00\x01\xc0Y\xd9O\x12q\xd5C@4\xbeu\xa9\xca\x95@',"{'xmin': -103.39545117489347, 'ymin': 20.74398289867281, 'xmax': -103.39545117489347, 'ymax': 20.74398289867281}",dining and drinking > restaurant > mexican restaurant > taco restaurant,1
4d01b1909f9ea143780e8ba9,Burrox,20.688094742634462,-103.42650941900669,,,,,,,,MX,2010-12-10,2021-08-12,2014-02-19,,,,,,,['4bf58dd8d48988d151941735'],['Dining and Drinking > Restaurant > Mexican Restaurant > Taco Restaurant'],b'\x00\x00\x00\x00\x01\xc0Y\xdbK\xee)\x84v@4\xb0&\xfa * ',"{'xmin': -103.42650941900669, 'ymin': 20.688094742634462, 'xmax': -103.42650941900669, 'ymax': 20.688094742634462}",dining and drinking > restaurant > mexican restaurant > taco restaurant,1
5e4c3f0325ecbb00083e83f6,Taquitos Batalla De Zacatecas,20.62124,-103.315155,Batalla de Zacatecas 2996,San Pedro Tlaquepaque,Jalisco,45580,,,,MX,2020-02-18,2020-11-30,,,,,,,,['4bf58dd8d48988d151941735'],['Dining and Drinking > Restaurant > Mexican Restaurant > Taco Restaurant'],b'\x00\x00\x00\x00\x01\xc0Y\xd4+\x7f\xe0\x8a\xf0@4\x9f\t\x95\xaa\xf7\x90',"{'xmin': -103.315155, 'ymin': 20.62124, 'xmax': -103.315155, 'ymax': 20.62124}",dining and drinking > restaurant > mexican restaurant > taco restaurant,1
54303540498ea11026e9aeb6,La Esquina de Mamá Grande,20.645631,-105.2144,Ave. González Gallo 534 Col. Infonavit,Puerto Vallarta,Jalisco,,,,,MX,2014-10-04,2020-11-23,,322 135 7989,,,,,,['4bf58dd8d48988d151941735'],['Dining and Drinking > Restaurant > Mexican Restaurant > Taco Restaurant'],b'\x00\x00\x00\x00\x01\xc0ZM\xb8\xba\xc7\x10\xcb@4\xa5H\x12\xbeH\xa6',"{'xmin': -105.2144, 'ymin': 20.645631, 'xmax': -105.2144, 'ymax': 20.645631}",dining and drinking > restaurant > mexican restaurant > taco restaurant,1
4f79c267e4b0f52dbb348131,Taquería Naty,20.630140620953302,-105.21567958199445,Antonio J Hernandez #234,Puerto Vallarta,Jalisco,48325,,,,MX,2012-04-02,2020-11-24,,322 227 2045,,,,,,['4bf58dd8d48988d151941735'],['Dining and Drinking > Restaurant > Mexican Restaurant > Taco Restaurant'],b'\x00\x00\x00\x00\x01\xc0ZM\xcd\xb1\xbb\xc51@4\xa1P\xe5N\xe0%',"{'xmin': -105.21567958199445, 'ymin': 20.630140620953302, 'xmax': -105.21567958199445, 'ymax': 20.630140620953302}",dining and drinking > restaurant > mexican restaurant > taco restaurant,1
50c10906e4b0f26f559a4bcb,Takito Mio,20.673795318369535,-103.374813802753,,Guadalajara,Jalisco,,,,,MX,2012-12-06,2024-03-16,,,,,,,,['4bf58dd8d48988d1cb941735' '4bf58dd8d48988d151941735'],"['Dining and Drinking > Food Truck'
 'Dining and Drinking > Restaurant > Mexican Restaurant > Taco Restaurant']",b'\x00\x00\x00\x00\x01\xc0Y\xd7\xfc\xf3\x08:w@4\xac}\xd9\x98\x98V',"{'xmin': -103.374813802753, 'ymin': 20.673795318369535, 'xmax': -103.374813802753, 'ymax': 20.673795318369535}","dining and drinking > food truck, dining and drinking > restaurant > mexican restaurant > taco restaurant",1
4eb62d80f790d87d0310451d,"Tacos ""El Sobrino""",19.24598838961481,-103.70984122358098,,,,,,,,MX,2011-11-06,2021-08-14,,,,,,,,['4bf58dd8d48988d151941735'],['Dining and Drinking > Restaurant > Mexican Restaurant > Taco Restaurant'],b'\x00\x00\x00\x00\x01\xc0Y\xedn\t\xe2(\x82@3>\xf9\x18X\x97`',"{'xmin': -103.70984122358098, 'ymin': 19.24598838961481, 'xmax': -103.70984122358098, 'ymax': 19.24598838961481}",dining and drinking > restaurant > mexican restaurant > taco restaurant,1
65f998b9ad0b7a54ecc63b31,Tacos Camioneta Blanca,20.412914,-103.55817,,Acatlán de Juárez,Jalisco,45700,,,,MX,2024-03-19,2024-03-19,,,,,,,,['4bf58dd8d48988d151941735'],['Dining and Drinking > Restaurant > Mexican Restaurant > Taco Restaurant'],b'\x00\x00\x00\x00\x01\xc0Y\xe3\xb9\x0e\xa9\xe6\xef@4i\xb4\xbb^\x0f\x80',"{'xmin': -103.55817, 'ymin': 20.412914, 'xmax': -103.55817, 'ymax': 20.412914}",dining and drinking > restaurant > mexican restaurant > taco restaurant,1
53e63f63498e03a758c7770d,Los tacos del PiSthian,20.751596552894988,-103.37652875518094,Av. Bosques del Centinela 910,"Zapopan, JAL",Jalisco,45180,,,,MX,2014-08-09,2020-11-25,,,,,,,,['4bf58dd8d48988d151941735'],['Dining and Drinking > Restaurant > Mexican Restaurant > Taco Restaurant'],b'\x00\x00\x00\x00\x01\xc0Y\xd8\x19\x0c\x10`^@4\xc0h\xa1\xb6xf',"{'xmin': -103.37652875518094, 'ymin': 20.751596552894988, 'xmax': -103.37652875518094, 'ymax': 20.751596552894988}",dining and drinking > restaurant > mexican restaurant > taco restaurant,1
570d97a3498e36b1600be18d,Cilantro,19.668043158433466,-101.16710255907303,,,,,,,,MX,2016-04-13,2020-11-30,,,,,,,,['4bf58dd8d48988d151941735'],['Dining and Drinking > Restaurant > Mexican Restaurant > Taco Restaurant'],b'\x00\x00\x00\x00\x01\xc0YJ\xb1\xce\xee\x92\xfb@3\xab\x04\xe0]\xc9\xcd',"{'xmin': -101.16710255907303, 'ymin': 19.668043158433466, 'xmax': -101.16710255907303, 'ymax': 19.668043158433466}",dining and drinking > restaurant > mexican restaurant > taco restaurant,1
56ae423638faae8403e41bbe,Tacos Pacos,20.661839661090866,-103.31523920708482,,,,,,,,MX,2016-01-31,2021-08-17,,,,,,,,['4bf58dd8d48988d151941735'],['Dining and Drinking > Restaurant > Mexican Restaurant > Taco Restaurant'],"b'\x00\x00\x00\x00\x01\xc0Y\xd4,\xe1\x116)@4\xa9nR\xf3\x94\xbc'","{'xmin': -103.31523920708482, 'ymin': 20.661839661090866, 'xmax': -103.31523920708482, 'ymax': 20.661839661090866}",dining and drinking > restaurant > mexican restaurant > taco restaurant,1
563c2abbcd10564a7999342f,Tacos El Pariente,20.730849,-103.368245,Esquina General Juan Domínguez Y Obreros De Cananea,Zapopan,Jalisco,,,,,MX,2015-11-06,2020-11-30,,,,,,,,['4bf58dd8d48988d151941735'],['Dining and Drinking > Restaurant > Mexican Restaurant > Taco Restaurant'],b'\x00\x00\x00\x00\x01\xc0Y\xd7\x91Sy\xfa\x98@4\xbb\x18\xeb\x89Pv',"{'xmin': -103.368245, 'ymin': 20.730849, 'xmax': -103.368245, 'ymax': 20.730849}",dining and drinking > restaurant > mexican restaurant > taco restaurant,1
5b5a958e66f3cd002c05f02a,Taqueria La Gloria,21.84547,-102.308375,,Aguascalientes,AGS,20286,,,,MX,2018-07-27,2020-11-26,,,,,,,,['4bf58dd8d48988d151941735'],['Dining and Drinking > Restaurant > Mexican Restaurant > Taco Restaurant'],b'\x00\x00\x00\x00\x01\xc0Y\x93\xbcj~\xf9\xdb@5\xd8p\xb8\xcf\xbf\xc6',"{'xmin': -102.308375, 'ymin': 21.84547, 'xmax': -102.308375, 'ymax': 21.84547}",dining and drinking > restaurant > mexican restaurant > taco restaurant,1
4d42353048cea35d54332ff7,Tacos Arandinos,20.746341,-103.385788,,,,,,,,MX,2011-01-28,2021-08-13,2015-07-12,,,,,,,['4bf58dd8d48988d151941735'],['Dining and Drinking > Restaurant > Mexican Restaurant > Taco Restaurant'],b'\x00\x00\x00\x00\x01\xc0Y\xd8\xb0\xc0&\xcc\x1d@4\xbf\x104*\xa9\xf8',"{'xmin': -103.385788, 'ymin': 20.746341, 'xmax': -103.385788, 'ymax': 20.746341}",dining and drinking > restaurant > mexican restaurant > taco restaurant,1
596d8186aa6c955c09575f8c,Tacos Toro Negro,31.311288,-113.542643,,Puerto Peñasco,SON,83555,,,,MX,2017-07-18,2020-11-22,,,,,,,,['4bf58dd8d48988d151941735'],['Dining and Drinking > Restaurant > Mexican Restaurant > Taco Restaurant'],b'\x00\x00\x00\x00\x01\xc0\\b\xba\xa9\xb4\x99\xd0@?O\xb0\x92\x03\xa3#',"{'xmin': -113.542643, 'ymin': 31.311288, 'xmax': -113.542643, 'ymax': 31.311288}",dining and drinking > restaurant > mexican restaurant > taco restaurant,1
522c5b6d11d265949e3a5467,Tía Amor,21.493014,-104.896173,,,,,,,,MX,2013-09-08,2021-08-12,,,,,,,,['4bf58dd8d48988d151941735'],['Dining and Drinking > Restaurant > Mexican Restaurant > Taco Restaurant'],b'\x00\x00\x00\x00\x01\xc0Z9Z\xe5\xff\xa3\xba@5~6*^x[',"{'xmin': -104.896173, 'ymin': 21.493014, 'xmax': -104.896173, 'ymax': 21.493014}",dining and drinking > restaurant > mexican restaurant > taco restaurant,1
52c77f3411d234eea4207b93,Tacos el guero,20.613284590911874,-103.16219916049313,,,,,,,,MX,2014-01-04,2020-11-26,,,,,,,,['4bf58dd8d48988d151941735'],['Dining and Drinking > Restaurant > Mexican Restaurant > Taco Restaurant'],b'\x00\x00\x00\x00\x01\xc0Y\xcaax\x96pm@4\x9d\x008\r\x1bt',"{'xmin': -103.16219916049313, 'ymin': 20.613284590911874, 'xmax': -103.16219916049313, 'ymax': 20.613284590911874}",dining and drinking > restaurant > mexican restaurant > taco restaurant,1
4d2be5e3888af04d5302e4af,Taquería La Flama,20.453171758748198,-101.52844151108378,,,,,,,,MX,2011-01-11,2021-08-12,,,,,,,,['4bf58dd8d48988d151941735'],['Dining and Drinking > Restaurant > Mexican Restaurant > Taco Restaurant'],b'\x00\x00\x00\x00\x01\xc0Ya\xd1\xfcW\xfd\t@4t\x03\x10{KX',"{'xmin': -101.52844151108378, 'ymin': 20.453171758748198, 'xmax': -101.52844151108378, 'ymax': 20.453171758748198}",dining and drinking > restaurant > mexican restaurant > taco restaurant,1
5487e9fc498e343a027435ba,Tacos El Pata,22.124859259610233,-101.01876594338576,Av. Chapultepec 1223,San Luis Potosí,San Luis Potosí,,,,,MX,2014-12-10,2020-11-23,,444 816 2077,http://tacoselpata.com.mx,,318786504969665.0,,tacoselpataslp,['4bf58dd8d48988d151941735'],['Dining and Drinking > Restaurant > Mexican Restaurant > Taco Restaurant'],b'\x00\x00\x00\x00\x01\xc0YA3v\x12G\xb5@6\x1f\xf6\xc6\xc4\xa0\xf4',"{'xmin': -101.01876594338576, 'ymin': 22.124859259610233, 'xmax': -101.01876594338576, 'ymax': 22.124859259610233}",dining and drinking > restaurant > mexican restaurant > taco restaurant,1
4f0528cf99116f05b5605db9,Tacos El Vaquero,22.146259948807135,-100.97635211432993,Vallejo,San Luis Potosí,San Luis Potosí,,,,,MX,2012-01-05,2023-09-12,,,,,,,,['4bf58dd8d48988d1c1941735' '4bf58dd8d48988d151941735'],"['Dining and Drinking > Restaurant > Mexican Restaurant'
 'Dining and Drinking > Restaurant > Mexican Restaurant > Taco Restaurant']",b'\x00\x00\x00\x00\x01\xc0Y>|\x8d\x94\x1b\\@6%qJ\xc0\xd7^',"{'xmin': -100.97635211432993, 'ymin': 22.146259948807135, 'xmax': -100.97635211432993, 'ymax': 22.146259948807135}","dining and drinking > restaurant > mexican restaurant, dining and drinking > restaurant > mexican restaurant > taco restaurant",1
4f81b22ce4b01e69d822a591,Tacos De Chuy,21.866691296296036,-102.91351242100076,,,,,,,,MX,2012-04-08,2021-08-16,,,,,,,,['4bf58dd8d48988d151941735'],['Dining and Drinking > Restaurant > Mexican Restaurant > Taco Restaurant'],"b'\x00\x00\x00\x00\x01\xc0Y\xbav\xfc\xcd,\t@5\xdd\xdf{\x15Q\xbf'","{'xmin': -102.91351242100076, 'ymin': 21.866691296296036, 'xmax': -102.91351242100076, 'ymax': 21.866691296296036}",dining and drinking > restaurant > mexican restaurant > taco restaurant,1
4f56cbf5e4b0d4675ed2b867,Parrilla Taco Especial,22.137788,-101.011509,,,,,,,,MX,2012-03-07,2021-08-11,,,,,,,,['4bf58dd8d48988d151941735'],['Dining and Drinking > Restaurant > Mexican Restaurant > Taco Restaurant'],b'\x00\x00\x00\x00\x01\xc0Y@\xbc\x90>\xa7\x05@6#F\x13\t\xc8\x00',"{'xmin': -101.011509, 'ymin': 22.137788, 'xmax': -101.011509, 'ymax': 22.137788}",dining and drinking > restaurant > mexican restaurant > taco restaurant,1
501c24c9e4b03059fc32c71e,Tacos Omar Carlos,20.640340996468606,-103.40251647835716,Av Obsidiana 3048,Zapopan,Jalisco,45086,,,,MX,2012-08-03,2020-11-23,,,,,,,,['4bf58dd8d48988d151941735'],['Dining and Drinking > Restaurant > Mexican Restaurant > Taco Restaurant'],b'\x00\x00\x00\x00\x01\xc0Y\xd9\xc2\xd4y\xa9I@4\xa3\xedc6\x1e\xe7',"{'xmin': -103.40251647835716, 'ymin': 20.640340996468606, 'xmax': -103.40251647835716, 'ymax': 20.640340996468606}",dining and drinking > restaurant > mexican restaurant > taco restaurant,1
51637a2be4b063c6e9d7ed8d,Tacos la Morena,20.680801391601562,-101.370361328125,,,,,,,,MX,2013-04-09,2021-08-14,,,,,,,,['4bf58dd8d48988d151941735'],['Dining and Drinking > Restaurant > Mexican Restaurant > Taco Restaurant'],b'\x00\x00\x00\x00\x01\xc0YW\xb4\x00\x00\x00\x00@4\xaeI\x00\x00\x00\x00',"{'xmin': -101.370361328125, 'ymin': 20.680801391601562, 'xmax': -101.370361328125, 'ymax': 20.680801391601562}",dining and drinking > restaurant > mexican restaurant > taco restaurant,1
5a6bf06d35f98359ee28933c,Metate,21.018463,-101.256347,,Guanajuato,GTO,36000,,,,MX,2018-01-27,2024-01-04,,473 597 6338,http://www.metate.mx,,,,,['4bf58dd8d48988d1c1941735' '4bf58dd8d48988d151941735'],"['Dining and Drinking > Restaurant > Mexican Restaurant'
 'Dining and Drinking > Restaurant > Mexican Restaurant > Taco Restaurant']",b'\x00\x00\x00\x00\x01\xc0YPg\xfd?[`@5\x04\xb9\xfd\xbd/\xa1',"{'xmin': -101.256347, 'ymin': 21.018463, 'xmax': -101.256347, 'ymax': 21.018463}","dining and drinking > restaurant > mexican restaurant, dining and drinking > restaurant > mexican restaurant > taco restaurant",1
4e443f68c65b82109468ae89,Tacos Chuy,21.176965560958024,-101.66689813803694,Hermenegildo Bustos 1702,Leon,GUANAJUATO,37100,,,,MX,2011-08-11,2020-11-23,,477 330 2729,,,,,tacoschuy,['4bf58dd8d48988d151941735'],['Dining and Drinking > Restaurant > Mexican Restaurant > Taco Restaurant'],b'\x00\x00\x00\x00\x01\xc0Yj\xaeu\x87(r@5-M\x9dp\xd5@',"{'xmin': -101.66689813803694, 'ymin': 21.176965560958024, 'xmax': -101.66689813803694, 'ymax': 21.176965560958024}",dining and drinking > restaurant > mexican restaurant > taco restaurant,1
5338ec15498e8f96b2860d7b,Tacos Los Muchachos,20.582893270402213,-103.33204284850486,,,,,,,,MX,2014-03-31,2021-08-12,,,,,,,,['4bf58dd8d48988d151941735'],['Dining and Drinking > Restaurant > Mexican Restaurant > Taco Restaurant'],b'\x00\x00\x00\x00\x01\xc0Y\xd5@0\xa5\xcc\xbd@4\x958~Mo\x9d',"{'xmin': -103.33204284850486, 'ymin': 20.582893270402213, 'xmax': -103.33204284850486, 'ymax': 20.582893270402213}",dining and drinking > restaurant > mexican restaurant > taco restaurant,1
63bb49854f83e27c31a779e9,Tacos Honorio,20.76532,-104.08553,segunda de Escobedo 218,Etzatlán,Jalisco,46500,,,,MX,2023-01-08,2023-01-08,,,,,,,,['4bf58dd8d48988d151941735'],['Dining and Drinking > Restaurant > Mexican Restaurant > Taco Restaurant'],b'\x00\x00\x00\x00\x01\xc0Z\x05yR\xd24\xec@4\xc3\xec\x02\xf2\xf9\x87',"{'xmin': -104.08553, 'ymin': 20.76532, 'xmax': -104.08553, 'ymax': 20.76532}",dining and drinking > restaurant > mexican restaurant > taco restaurant,1
52b8f4c1498e8697149322d6,"Tacos ""Don Arnulfo""",20.75287628173828,-103.34325408935547,Carretera A Saltillo,Zapopan,Jalisco,45180,,,,MX,2013-12-24,2020-11-23,,,,,,,,['4bf58dd8d48988d151941735'],['Dining and Drinking > Restaurant > Mexican Restaurant > Taco Restaurant'],b'\x00\x00\x00\x00\x01\xc0Y\xd5\xf7\xe0\x00\x00\x00@4\xc0\xbc\x80\x00\x00\x00',"{'xmin': -103.34325408935547, 'ymin': 20.75287628173828, 'xmax': -103.34325408935547, 'ymax': 20.75287628173828}",dining and drinking > restaurant > mexican restaurant > taco restaurant,1
51bc86d0498e5042b656a85f,Tacos El Cuñado,21.15946143087402,-101.66837649226966,,,,,,,,MX,2013-06-15,2021-08-11,,,,,,,,['4bf58dd8d48988d151941735'],['Dining and Drinking > Restaurant > Mexican Restaurant > Taco Restaurant'],b'\x00\x00\x00\x00\x01\xc0Yj\xc6\xae1\xed\xa8@5(\xd2v\xde\x93\xc9',"{'xmin': -101.66837649226966, 'ymin': 21.15946143087402, 'xmax': -101.66837649226966, 'ymax': 21.15946143087402}",dining and drinking > restaurant > mexican restaurant > taco restaurant,1
5d372466c2424b0008160a44,Tacos De Guisados Calle Nueva,20.910423,-100.74612,,San Miguel de Allende,Guanajuato,37700,,,,MX,2019-07-23,2020-11-23,,,,,,,,['4bf58dd8d48988d151941735'],['Dining and Drinking > Restaurant > Mexican Restaurant > Taco Restaurant'],b'\x00\x00\x00\x00\x01\xc0Y/\xc0n\x19\xb9\x0f@4\xe9\x11{R\x86\xb6',"{'xmin': -100.74612, 'ymin': 20.910423, 'xmax': -100.74612, 'ymax': 20.910423}",dining and drinking > restaurant > mexican restaurant > taco restaurant,1
58bee008a36ecd71ece3cad8,Huaraches Moroleón,20.135091,-101.184525,,Moroleon,Guanajuto,,,,,MX,2017-03-07,2020-11-30,,,,,,,,['4bf58dd8d48988d151941735'],['Dining and Drinking > Restaurant > Mexican Restaurant > Taco Restaurant'],"b'\x00\x00\x00\x00\x01\xc0YK\xcfA\xf2\x12\xd7@4""\x95R\xe2\xfb\xe3'","{'xmin': -101.184525, 'ymin': 20.135091, 'xmax': -101.184525, 'ymax': 20.135091}",dining and drinking > restaurant > mexican restaurant > taco restaurant,1
4df972bd7d8b1f1d6c0565be,Ricos Tacos Al Carbon,20.736354835662553,-103.36120218657155,Av. Tabachines,Zapopan,JAL,,,,,MX,2011-06-16,2020-11-23,,,,,,,,['4bf58dd8d48988d151941735'],['Dining and Drinking > Restaurant > Mexican Restaurant > Taco Restaurant'],b'\x00\x00\x00\x00\x01\xc0Y\xd7\x1d\xef\xc6\xa4b@4\xbc\x81\xc0!l\x10',"{'xmin': -103.36120218657155, 'ymin': 20.736354835662553, 'xmax': -103.36120218657155, 'ymax': 20.736354835662553}",dining and drinking > restaurant > mexican restaurant > taco restaurant,1
4f8c4b32e4b0ab5c8a96700c,Tacos y Lonches Don Cuco,20.624936,-103.236032,,,,,,,,MX,2012-04-16,2021-08-13,,,,,,,,['4bf58dd8d48988d151941735'],['Dining and Drinking > Restaurant > Mexican Restaurant > Taco Restaurant'],b'\x00\x00\x00\x00\x01\xc0Y\xcf\x1b%\xf63\xce@4\x9f\xfb\xceB\x17\xd3',"{'xmin': -103.236032, 'ymin': 20.624936, 'xmax': -103.236032, 'ymax': 20.624936}",dining and drinking > restaurant > mexican restaurant > taco restaurant,1
52d2ec54498ec90f002013ae,16 Cazuleas,19.28317780321621,-103.73230218434792,3er Anillo Periférico,Villa De Álvarez,Colima,28979,,,,MX,2014-01-12,2020-11-22,,,,,,,,['4bf58dd8d48988d151941735'],['Dining and Drinking > Restaurant > Mexican Restaurant > Taco Restaurant'],b'\x00\x00\x00\x00\x01\xc0Y\xee\xde\t\xfb$\x13@3H~W+\xc4I',"{'xmin': -103.73230218434792, 'ymin': 19.28317780321621, 'xmax': -103.73230218434792, 'ymax': 19.28317780321621}",dining and drinking > restaurant > mexican restaurant > taco restaurant,1
523e5ee111d2b31d6302bd81,Tacos TITOS,19.25890788851388,-103.73723493819136,Av. Pablo Silva 503,Colima,Colima,280984,,,,MX,2013-09-22,2020-11-23,,,,,,,,['4bf58dd8d48988d151941735'],['Dining and Drinking > Restaurant > Mexican Restaurant > Taco Restaurant'],b'\x00\x00\x00\x00\x01\xc0Y\xef.\xdbs@\x08@3BG\xc9\x91\xd7\xf1',"{'xmin': -103.73723493819136, 'ymin': 19.25890788851388, 'xmax': -103.73723493819136, 'ymax': 19.25890788851388}",dining and drinking > restaurant > mexican restaurant > taco restaurant,1
4e095a862271dfa46bbb1c85,Tacos De Cabeza El Gallo,19.68633,-101.181178,,Morelia,Michoacán,,,,,MX,2011-06-28,2020-11-26,,,,,,,,['4bf58dd8d48988d151941735'],['Dining and Drinking > Restaurant > Mexican Restaurant > Taco Restaurant'],b'\x00\x00\x00\x00\x01\xc0YK\x98k\x9c0M@3\xaf\xb3R\xa8C\x81',"{'xmin': -101.181178, 'ymin': 19.68633, 'xmax': -101.181178, 'ymax': 19.68633}",dining and drinking > restaurant > mexican restaurant > taco restaurant,1
4ed45a25722e6f1fd9d1de6e,"Tacos ""el Chuzo""",20.907331,-103.976915,,Magdalena,Jalisco,,,,,MX,2011-11-29,2020-11-23,,,,,,,,['4bf58dd8d48988d151941735'],['Dining and Drinking > Restaurant > Mexican Restaurant > Taco Restaurant'],b'\x00\x00\x00\x00\x01\xc0Y\xfe\x85\xc6}\xfe3@4\xe8F\xd8+\xa5\xa0',"{'xmin': -103.976915, 'ymin': 20.907331, 'xmax': -103.976915, 'ymax': 20.907331}",dining and drinking > restaurant > mexican restaurant > taco restaurant,1
53796058498eb186db3367c1,tacos chava,20.719249725341797,-105.26919555664062,,,,,,,,MX,2014-05-19,2021-08-13,,,,,,,,['4bf58dd8d48988d151941735'],['Dining and Drinking > Restaurant > Mexican Restaurant > Taco Restaurant'],b'\x00\x00\x00\x00\x01\xc0ZQ:\x80\x00\x00\x00@4\xb8 \xc0\x00\x00\x00',"{'xmin': -105.26919555664062, 'ymin': 20.719249725341797, 'xmax': -105.26919555664062, 'ymax': 20.719249725341797}",dining and drinking > restaurant > mexican restaurant > taco restaurant,1
4ef361606c2507422532f772,Tacos Don Taco,20.667349803381192,-103.44365561756625,,,,,,,,MX,2011-12-22,2021-08-16,,,,,,,,['4bf58dd8d48988d151941735'],['Dining and Drinking > Restaurant > Mexican Restaurant > Taco Restaurant'],b'\x00\x00\x00\x00\x01\xc0Y\xdcd\xda\x88\x08\x8f@4\xaa\xd7o\xcc\x83\xa6',"{'xmin': -103.44365561756625, 'ymin': 20.667349803381192, 'xmax': -103.44365561756625, 'ymax': 20.667349803381192}",dining and drinking > restaurant > mexican restaurant > taco restaurant,1
50e9b57be4b0688e4c0b223f,carnitas de Jarras,20.15504264831543,-101.16768646240234,,,,,,,,MX,2013-01-06,2021-08-12,,,,,,,,['4bf58dd8d48988d151941735'],['Dining and Drinking > Restaurant > Mexican Restaurant > Taco Restaurant'],"b""\x00\x00\x00\x00\x01\xc0YJ\xbb`\x00\x00\x00@4'\xb0\xe0\x00\x00\x00""","{'xmin': -101.16768646240234, 'ymin': 20.15504264831543, 'xmax': -101.16768646240234, 'ymax': 20.15504264831543}",dining and drinking > restaurant > mexican restaurant > taco restaurant,1
4f3d2f2fe4b00d955f2836c8,"Gorditas Y Quesadillas ""La Central""",20.541806354367058,-101.20475937887346,,,,,,,,MX,2012-02-16,2021-08-12,,,,,,,,['4bf58dd8d48988d151941735'],['Dining and Drinking > Restaurant > Mexican Restaurant > Taco Restaurant'],b'\x00\x00\x00\x00\x01\xc0YM\x1a\xc7\x14\xf3\xe4@4\x8a\xb3\xd2<\xc5\x81',"{'xmin': -101.20475937887346, 'ymin': 20.541806354367058, 'xmax': -101.20475937887346, 'ymax': 20.541806354367058}",dining and drinking > restaurant > mexican restaurant > taco restaurant,1
4e9a44c8cc215f3adcbdd6bd,Tacos Doña Mary,19.322038,-103.759981,,Comala,Colima,,,,,MX,2011-10-16,2020-11-22,,,,,,,,['4bf58dd8d48988d151941735'],['Dining and Drinking > Restaurant > Mexican Restaurant > Taco Restaurant'],b'\x00\x00\x00\x00\x01\xc0Y\xf0\xa3\x87Y%5@3Rq\x15\x16\x11\xba',"{'xmin': -103.759981, 'ymin': 19.322038, 'xmax': -103.759981, 'ymax': 19.322038}",dining and drinking > restaurant > mexican restaurant > taco restaurant,1
5555517c498ec8a69df35c2b,Tacos Carnes Asadas *Villa*,21.348826445545722,-101.93999165073016,Bkvd Orozco Y Jimenes,Lagos de Moreno,Jalisco,,,,,MX,2015-05-15,2020-11-30,,,,,,,,['4bf58dd8d48988d151941735'],['Dining and Drinking > Restaurant > Mexican Restaurant > Taco Restaurant'],b'\x00\x00\x00\x00\x01\xc0Y|(\xd2\xbd\x99\x8b@5YL\xb0\x9f\x99K',"{'xmin': -101.93999165073016, 'ymin': 21.348826445545722, 'xmax': -101.93999165073016, 'ymax': 21.348826445545722}",dining and drinking > restaurant > mexican restaurant > taco restaurant,1
4f0bc1d4e4b0614b14247af2,"Tacos ""light"".",20.528205330380587,-100.82541045017032,Los Aztecas,Celaya,Gto,,,,,MX,2012-01-10,2020-11-22,,,,,,,,"['4bf58dd8d48988d151941735' '56aa371be4b08b9a8d573550'
 '4bf58dd8d48988d16e941735']","['Dining and Drinking > Restaurant > Mexican Restaurant > Taco Restaurant'
 'Business and Professional Services > Food and Beverage Service'
 'Dining and Drinking > Restaurant > Fast Food Restaurant']",b'\x00\x00\x00\x00\x01\xc0Y4\xd3\x86ZP\x86@4\x878v\xeb\x8e\xb8',"{'xmin': -100.82541045017032, 'ymin': 20.528205330380587, 'xmax': -100.82541045017032, 'ymax': 20.528205330380587}","dining and drinking > restaurant > mexican restaurant > taco restaurant, business and professional services > food and beverage service, dining and drinking > restaurant > fast food restaurant",1
64cf0fee04040e372fac73f8,Asadas San Antonio,20.644841,-103.328771,Rio Lagos,Guadalajara,Jal.,44870,,,,MX,2023-08-06,2023-08-06,,,,,,,,['4bf58dd8d48988d151941735'],['Dining and Drinking > Restaurant > Mexican Restaurant > Taco Restaurant'],b'\x00\x00\x00\x00\x01\xc0Y\xd5\n\x95\x857\xe3@4\xa5\x14L\xbe\x1e\xb4',"{'xmin': -103.328771, 'ymin': 20.644841, 'xmax': -103.328771, 'ymax': 20.644841}",dining and drinking > restaurant > mexican restaurant > taco restaurant,1
60cffede651da9293511cb56,Taqueria Chevo,21.249605,-105.1653,,Zacualpan,Nayarit,63710,,,,MX,2021-06-21,2021-06-21,,,,,,,,['4bf58dd8d48988d151941735'],['Dining and Drinking > Restaurant > Mexican Restaurant > Taco Restaurant'],b'\x00\x00\x00\x00\x01\xc0ZJ\x94Fs\x81\xd8@5?\xe6\x1c\xff\xeb\x07',"{'xmin': -105.1653, 'ymin': 21.249605, 'xmax': -105.1653, 'ymax': 21.249605}",dining and drinking > restaurant > mexican restaurant > taco restaurant,1
5376df41498eadf12f402f9d,Taqueria de Paco,21.47643151786683,-101.21635025653515,,,,,,,,MX,2014-05-17,2021-08-16,,,,,,,,['4bf58dd8d48988d151941735'],['Dining and Drinking > Restaurant > Mexican Restaurant > Taco Restaurant'],b'\x00\x00\x00\x00\x01\xc0YM\xd8\xae\xbf\x13.@5y\xf7j|\x05\x8c',"{'xmin': -101.21635025653515, 'ymin': 21.47643151786683, 'xmax': -101.21635025653515, 'ymax': 21.47643151786683}",dining and drinking > restaurant > mexican restaurant > taco restaurant,1
50fc9416e4b02cc66500fe4b,Tacos El Güero,21.858168408029865,-102.29987638851308,Pico de Orizaba,Aguascalientes,Aguascalientes,,,,,MX,2013-01-21,2020-11-24,,,,,,,,['4bf58dd8d48988d151941735'],['Dining and Drinking > Restaurant > Mexican Restaurant > Taco Restaurant'],"b'\x00\x00\x00\x00\x01\xc0Y\x931,\xbc`g@5\xdb\xb0\xec\xbe\xf2\xdb'","{'xmin': -102.29987638851308, 'ymin': 21.858168408029865, 'xmax': -102.29987638851308, 'ymax': 21.858168408029865}",dining and drinking > restaurant > mexican restaurant > taco restaurant,1
4bed12526e8c20a1e2de6f61,Tacos Los Tarascos,20.672467170283237,-103.41753087168637,Av. Manuel J. Clouthier 4853,Zapopan,Jalisco,,,,,MX,2010-05-14,2020-11-25,,33 3629 2578,http://www.lostarascos.com.mx,,,,,['4bf58dd8d48988d151941735' '4bf58dd8d48988d1c1941735'],"['Dining and Drinking > Restaurant > Mexican Restaurant > Taco Restaurant'
 'Dining and Drinking > Restaurant > Mexican Restaurant']",b'\x00\x00\x00\x00\x01\xc0Y\xda\xb8\xd3g\xbd\xa7@4\xac&\xce\xf8\x00\x0b',"{'xmin': -103.41753087168637, 'ymin': 20.672467170283237, 'xmax': -103.41753087168637, 'ymax': 20.672467170283237}","dining and drinking > restaurant > mexican restaurant > taco restaurant, dining and drinking > restaurant > mexican restaurant",1
5642a49338fa2ce64aec2010,Tacos De Papa Paty,20.64708475571819,-103.7034899429007,Constitución,Tala,Jalisco,45300,,,,MX,2015-11-11,2020-11-30,,,,,,,,['4bf58dd8d48988d151941735'],['Dining and Drinking > Restaurant > Mexican Restaurant > Taco Restaurant'],b'\x00\x00\x00\x00\x01\xc0Y\xed\x05\xfa\xaet\xb3@4\xa5\xa7X\xb7\x8c\xbe',"{'xmin': -103.7034899429007, 'ymin': 20.64708475571819, 'xmax': -103.7034899429007, 'ymax': 20.64708475571819}",dining and drinking > restaurant > mexican restaurant > taco restaurant,1
526b426211d2200c23b77016,taqueria la tia,20.57441540635846,-103.46735815749626,,,,,,,,MX,2013-10-26,2020-11-24,,,,,,,,['4bf58dd8d48988d151941735'],['Dining and Drinking > Restaurant > Mexican Restaurant > Taco Restaurant'],b'\x00\x00\x00\x00\x01\xc0Y\xdd\xe920}\xc7@4\x93\x0c\xe3X\xa0\xce',"{'xmin': -103.46735815749626, 'ymin': 20.57441540635846, 'xmax': -103.46735815749626, 'ymax': 20.57441540635846}",dining and drinking > restaurant > mexican restaurant > taco restaurant,1
54d98236498e35c124cd9d71,Tacos Charlie,21.11259206455716,-101.71087428046083,Pepino,León,Guanajuat,,,,,MX,2015-02-10,2020-11-24,,,,,,,,['4bf58dd8d48988d151941735'],['Dining and Drinking > Restaurant > Mexican Restaurant > Taco Restaurant'],b'\x00\x00\x00\x00\x01\xc0Ym~\xf6\xd6\x89e@5\x1c\xd2\xd5c\x0f\xe7',"{'xmin': -101.71087428046083, 'ymin': 21.11259206455716, 'xmax': -101.71087428046083, 'ymax': 21.11259206455716}",dining and drinking > restaurant > mexican restaurant > taco restaurant,1
4f1642bde4b0725661842617,Tacos Don Luis,21.85914,-102.302604,Arquimedes Caballero 106 Boulevares,Aguascalientes,AGUASCALIENTES,,,,,MX,2012-01-18,2020-11-23,,,,,,,,['4bf58dd8d48988d151941735'],['Dining and Drinking > Restaurant > Mexican Restaurant > Taco Restaurant'],b'\x00\x00\x00\x00\x01\xc0Y\x93]\xdd*\xe8\xe2@5\xdb\xf0\x99Z\xafy',"{'xmin': -102.302604, 'ymin': 21.85914, 'xmax': -102.302604, 'ymax': 21.85914}",dining and drinking > restaurant > mexican restaurant > taco restaurant,1
522e76dd11d2126c47b74a07,Tacos wicho,22.137632270402257,-101.01542207455817,,,,,,,,MX,2013-09-10,2021-08-15,,,,,,,,['4bf58dd8d48988d151941735'],['Dining and Drinking > Restaurant > Mexican Restaurant > Taco Restaurant'],b'\x00\x00\x00\x00\x01\xc0Y@\xfc\xac\xdewI@6#;\xdeT@~',"{'xmin': -101.01542207455817, 'ymin': 22.137632270402257, 'xmax': -101.01542207455817, 'ymax': 22.137632270402257}",dining and drinking > restaurant > mexican restaurant > taco restaurant,1
4e172d9818388d0d26865e8d,Taco Tote,20.58815774279442,-103.32658144942629,,Tlaquepaque,Jalisco,,,,,MX,2011-07-08,2020-11-23,,,,,,,,['4bf58dd8d48988d151941735'],['Dining and Drinking > Restaurant > Mexican Restaurant > Taco Restaurant'],b'\x00\x00\x00\x00\x01\xc0Y\xd4\xe6\xb5\xe11\t@4\x96\x91\x81~0\xf3',"{'xmin': -103.32658144942629, 'ymin': 20.58815774279442, 'xmax': -103.32658144942629, 'ymax': 20.58815774279442}",dining and drinking > restaurant > mexican restaurant > taco restaurant,1
5183244a498e50232b62cac2,"Taqueria ""Santo Domingo""",21.091167,-101.668296,Carteros,León,Guanajuato,,,,,MX,2013-05-03,2020-11-30,,,,,,,,['4bf58dd8d48988d151941735'],['Dining and Drinking > Restaurant > Mexican Restaurant > Taco Restaurant'],b'\x00\x00\x00\x00\x01\xc0Yj\xc5\\\x96\x03\x0c@5\x17V\xb8syt',"{'xmin': -101.668296, 'ymin': 21.091167, 'xmax': -101.668296, 'ymax': 21.091167}",dining and drinking > restaurant > mexican restaurant > taco restaurant,1
52a8b6e4498eef088817a9c3,tacos mickey,20.63245306985038,-103.31672780806225,,,,,,,,MX,2013-12-11,2021-08-11,,,,,,,,['4bf58dd8d48988d151941735'],['Dining and Drinking > Restaurant > Mexican Restaurant > Taco Restaurant'],b'\x00\x00\x00\x00\x01\xc0Y\xd4ED\xb6W\x1d@4\xa1\xe8q\xc3C\x1f',"{'xmin': -103.31672780806225, 'ymin': 20.63245306985038, 'xmax': -103.31672780806225, 'ymax': 20.63245306985038}",dining and drinking > restaurant > mexican restaurant > taco restaurant,1
5567bef4498e21a7486db56b,"Taqueria ""El Meserito""",19.676965432384414,-101.30800203728273,Villas Del.Pedregal,,,,,,,MX,2015-05-29,2020-11-22,,,,,,,,['4bf58dd8d48988d151941735'],['Dining and Drinking > Restaurant > Mexican Restaurant > Taco Restaurant'],b'\x00\x00\x00\x00\x01\xc0YS\xb6N-N\xc4@3\xadM\x9bH\x9d\x12',"{'xmin': -101.30800203728273, 'ymin': 19.676965432384414, 'xmax': -101.30800203728273, 'ymax': 19.676965432384414}",dining and drinking > restaurant > mexican restaurant > taco restaurant,1
4e5c38811495cac41937c8e6,Las Papatias,20.65133573734861,-103.31053105797672,,Guadalajara,Jalisco,,,,,MX,2011-08-30,2021-08-12,,,,,,,,['4bf58dd8d48988d151941735'],['Dining and Drinking > Restaurant > Mexican Restaurant > Taco Restaurant'],b'\x00\x00\x00\x00\x01\xc0Y\xd3\xdf\xbd\xa8\x99\xbf@4\xa6\xbd\xf0Z\xa0\xda',"{'xmin': -103.31053105797672, 'ymin': 20.65133573734861, 'xmax': -103.31053105797672, 'ymax': 20.65133573734861}",dining and drinking > restaurant > mexican restaurant > taco restaurant,1
50ab9597e4b0b7a4bf16a52a,Tacos El Rey,21.138574,-101.640964,,,,,,,,MX,2012-11-20,2021-08-17,,,,,,,,['4bf58dd8d48988d151941735'],['Dining and Drinking > Restaurant > Mexican Restaurant > Taco Restaurant'],b'\x00\x00\x00\x00\x01\xc0Yi\x05\x8d\xdezt@5#y\x95\xee\x13n',"{'xmin': -101.640964, 'ymin': 21.138574, 'xmax': -101.640964, 'ymax': 21.138574}",dining and drinking > restaurant > mexican restaurant > taco restaurant,1
5959b4a17b2e04644b5bd718,Central De Tacos,21.886093,-102.2513,,Aguascalientes,Aguascalientes,,,,,MX,2017-07-03,2020-11-25,,,,,,,,['4bf58dd8d48988d151941735'],['Dining and Drinking > Restaurant > Mexican Restaurant > Taco Restaurant'],b'\x00\x00\x00\x00\x01\xc0Y\x90\x15L\x98_\x07@5\xe2\xd6\xfd\xa86\xeb',"{'xmin': -102.2513, 'ymin': 21.886093, 'xmax': -102.2513, 'ymax': 21.886093}",dining and drinking > restaurant > mexican restaurant > taco restaurant,1
4e286650b0fba988bb6b8518,Kekas Gaspe,20.53641992386789,-100.79806866537668,Irrigacion,Celaya,Guanajuato,,,,,MX,2011-07-21,2020-11-25,,,,,,,,['4bf58dd8d48988d151941735'],['Dining and Drinking > Restaurant > Mexican Restaurant > Taco Restaurant'],b'\x00\x00\x00\x00\x01\xc0Y3\x13\x8e\x98pU@4\x89R\xd0\xed\xefv',"{'xmin': -100.79806866537668, 'ymin': 20.53641992386789, 'xmax': -100.79806866537668, 'ymax': 20.53641992386789}",dining and drinking > restaurant > mexican restaurant > taco restaurant,1
500c8928e4b01f2d3e475b2b,La Taquiza,21.880656598884396,-102.31229035515209,,,,,,,,MX,2012-07-22,2021-08-16,,,,,,,,['4bf58dd8d48988d151941735'],['Dining and Drinking > Restaurant > Mexican Restaurant > Taco Restaurant'],b'\x00\x00\x00\x00\x01\xc0Y\x93\xfc\x90\xaf\x8f\x01@5\xe1r\xb5\xfb7\x0f',"{'xmin': -102.31229035515209, 'ymin': 21.880656598884396, 'xmax': -102.31229035515209, 'ymax': 21.880656598884396}",dining and drinking > restaurant > mexican restaurant > taco restaurant,1
541c4092498eede0eaef15ea,quedadillas de Pino Suarez,21.121082208784888,-101.68204393018763,Pino Suárez 203,León,GTO,37000,,,,MX,2014-09-19,2020-11-24,,,,,,,,['4bf58dd8d48988d151941735'],['Dining and Drinking > Restaurant > Mexican Restaurant > Taco Restaurant'],b'\x00\x00\x00\x00\x01\xc0Yk\xa6\x9b\x95\xa5\xd6@5\x1e\xff>^\xdb\xc9',"{'xmin': -101.68204393018763, 'ymin': 21.121082208784888, 'xmax': -101.68204393018763, 'ymax': 21.121082208784888}",dining and drinking > restaurant > mexican restaurant > taco restaurant,1
4cfb030c34c1a093b2e6430e,Tacos Don Luis,20.713398269829362,-103.37472543554226,Av. Patria,Guadalajara,JAL,,,,,MX,2010-12-05,2024-03-07,,,,,,,,['4bf58dd8d48988d151941735'],['Dining and Drinking > Restaurant > Mexican Restaurant > Taco Restaurant'],b'\x00\x00\x00\x00\x01\xc0Y\xd7\xfb\x80d\xa8\x89@4\xb6\xa1D\xdd\xf0\xaa',"{'xmin': -103.37472543554226, 'ymin': 20.713398269829362, 'xmax': -103.37472543554226, 'ymax': 20.713398269829362}",dining and drinking > restaurant > mexican restaurant > taco restaurant,1
52fee527498e3e88d194417f,Parrilla 33,20.726514,-103.457519,Paseo Solares 44 Local 15,Zapopan,Jalisco,45918,,,,MX,2014-02-15,2020-11-23,2016-04-15,33 3832 0075,,,,,,"['4bf58dd8d48988d151941735' '4bf58dd8d48988d116941735'
 '4bf58dd8d48988d1cc941735']","['Dining and Drinking > Restaurant > Mexican Restaurant > Taco Restaurant'
 'Dining and Drinking > Bar'
 'Dining and Drinking > Restaurant > Steakhouse']",b'\x00\x00\x00\x00\x01\xc0Y\xddG\xfd\xc5\x93\x1d@4\xb9\xfc\xd2N\x16\x0e',"{'xmin': -103.457519, 'ymin': 20.726514, 'xmax': -103.457519, 'ymax': 20.726514}","dining and drinking > restaurant > mexican restaurant > taco restaurant, dining and drinking > bar, dining and drinking > restaurant > steakhouse",1
4f655bcee4b04d4b167f051a,Tacos El Cachas,20.667479,-101.359434,Insurgentes,Irapuato,Guanajuato,,,,,MX,2012-03-18,2020-11-24,,,,,,,,['4bf58dd8d48988d151941735'],['Dining and Drinking > Restaurant > Mexican Restaurant > Taco Restaurant'],b'\x00\x00\x00\x00\x01\xc0YW\x00\xf7v\xc4\x82@4\xaa\xdf\xe7[\xc4L',"{'xmin': -101.359434, 'ymin': 20.667479, 'xmax': -101.359434, 'ymax': 20.667479}",dining and drinking > restaurant > mexican restaurant > taco restaurant,1
4f5f6fbfe4b04154fb977acf,Tacos De Ollita El Guero,20.616520218690326,-103.28031449585983,,,,,,,,MX,2012-03-13,2021-08-15,,,,,,,,['4bf58dd8d48988d151941735'],['Dining and Drinking > Restaurant > Mexican Restaurant > Taco Restaurant'],b'\x00\x00\x00\x00\x01\xc0Y\xd1\xf0\xac6\x14\x03@4\x9d\xd4D\xe0\x99\x04',"{'xmin': -103.28031449585983, 'ymin': 20.616520218690326, 'xmax': -103.28031449585983, 'ymax': 20.616520218690326}",dining and drinking > restaurant > mexican restaurant > taco restaurant,1
4febcdbde4b0d2bb9931b194,Los Super Tacos,20.523242975397668,-100.81685948396932,,,,,,,,MX,2012-06-28,2021-08-15,,,,,,,,"['4bf58dd8d48988d151941735' '4bf58dd8d48988d1cb941735'
 '4bf58dd8d48988d16e941735']","['Dining and Drinking > Restaurant > Mexican Restaurant > Taco Restaurant'
 'Dining and Drinking > Food Truck'
 'Dining and Drinking > Restaurant > Fast Food Restaurant']",b'\x00\x00\x00\x00\x01\xc0Y4Gm\x00D\xd8@4\x85\xf3@k1\xd9',"{'xmin': -100.81685948396932, 'ymin': 20.523242975397668, 'xmax': -100.81685948396932, 'ymax': 20.523242975397668}","dining and drinking > restaurant > mexican restaurant > taco restaurant, dining and drinking > food truck, dining and drinking > restaurant > fast food restaurant",1
4f5d4d65e4b086681cd1487e,Tacos Luis,20.622881694796813,-103.39760085784656,4444 Bálticas,,,,,,,MX,2012-03-12,2021-08-14,,,,,,,,['4bf58dd8d48988d151941735'],['Dining and Drinking > Restaurant > Mexican Restaurant > Taco Restaurant'],"b'\x00\x00\x00\x00\x01\xc0Y\xd9rJ\xdeT\x00@4\x9fu,\xbcm\xeb'","{'xmin': -103.39760085784656, 'ymin': 20.622881694796813, 'xmax': -103.39760085784656, 'ymax': 20.622881694796813}",dining and drinking > restaurant > mexican restaurant > taco restaurant,1
52cb7ada498ec75dec985622,Taquería Los Rápidos,21.029975,-101.853729,,,,,,,,MX,2014-01-07,2021-08-13,,,,,,,,['4bf58dd8d48988d151941735'],['Dining and Drinking > Restaurant > Mexican Restaurant > Taco Restaurant'],b'\x00\x00\x00\x00\x01\xc0Yv\xa3~\xf5\xa9e@5\x07\xacq\x0c\xb2\x96',"{'xmin': -101.853729, 'ymin': 21.029975, 'xmax': -101.853729, 'ymax': 21.029975}",dining and drinking > restaurant > mexican restaurant > taco restaurant,1
5327347b498ee4d0a686de9c,Barbacoa El Hijin,20.022619185273538,-100.72827869470228,1ro De Mayo,Acambaro,Guanajuato,,,,,MX,2014-03-17,2020-11-30,,,,,,,,['4bf58dd8d48988d151941735'],['Dining and Drinking > Restaurant > Mexican Restaurant > Taco Restaurant'],b'\x00\x00\x00\x00\x01\xc0Y.\x9c\x1e>\x07\xac@4\x05\xca^\xf5\x03\x13',"{'xmin': -100.72827869470228, 'ymin': 20.022619185273538, 'xmax': -100.72827869470228, 'ymax': 20.022619185273538}",dining and drinking > restaurant > mexican restaurant > taco restaurant,1
51566c9ee4b08b1cd474fa55,"Tacos Y Pellizcadas ""Lupita""",21.022501705457383,-105.27004520544634,,,,,,,,MX,2013-03-30,2021-08-16,,,,,,,,['4bf58dd8d48988d151941735' '4bf58dd8d48988d1c1941735'],"['Dining and Drinking > Restaurant > Mexican Restaurant > Taco Restaurant'
 'Dining and Drinking > Restaurant > Mexican Restaurant']",b'\x00\x00\x00\x00\x01\xc0ZQHk\xafuZ@5\x05\xc2\xab\xf9\x0b/',"{'xmin': -105.27004520544634, 'ymin': 21.022501705457383, 'xmax': -105.27004520544634, 'ymax': 21.022501705457383}","dining and drinking > restaurant > mexican restaurant > taco restaurant, dining and drinking > restaurant > mexican restaurant",1
50325ee7e4b0c5661e46eb4e,Guisados y Mariscos Richard's,21.945413,-102.296229,Av. Lopez Mateos 205 A,,Aguascalientes,,,,,MX,2012-08-20,2020-11-30,,,,,,,,['4bf58dd8d48988d151941735'],['Dining and Drinking > Restaurant > Mexican Restaurant > Taco Restaurant'],b'\x00\x00\x00\x00\x01\xc0Y\x92\xf5jz\xc8\x1d@5\xf2\x06\x96\x1c6\x97',"{'xmin': -102.296229, 'ymin': 21.945413, 'xmax': -102.296229, 'ymax': 21.945413}",dining and drinking > restaurant > mexican restaurant > taco restaurant,1
50b78d38e4b0eaaa1a02abff,Tacos De Carnitas El Primo,20.66872,-103.348532,Av La Paz,Guadalajara,Jalisco,,,,,MX,2012-11-29,2021-12-18,,,,,,,,['4bf58dd8d48988d151941735'],['Dining and Drinking > Restaurant > Mexican Restaurant > Taco Restaurant'],b'\x00\x00\x00\x00\x01\xc0Y\xd6NY)g\x02@4\xab1;\xe2.^',"{'xmin': -103.348532, 'ymin': 20.66872, 'xmax': -103.348532, 'ymax': 20.66872}",dining and drinking > restaurant > mexican restaurant > taco restaurant,1
4ea0e3baf7909c68dd77d915,El Rodeo,20.621317,-103.31963,,Tlaquepaque,Jalisco,45560,,,,MX,2011-10-21,2020-11-22,,,,,,,,['4bf58dd8d48988d151941735'],['Dining and Drinking > Restaurant > Mexican Restaurant > Taco Restaurant'],b'\x00\x00\x00\x00\x01\xc0Y\xd4t\xd1c4\x83@4\x9f\x0e\xa1\x83r\xe7',"{'xmin': -103.31963, 'ymin': 20.621317, 'xmax': -103.31963, 'ymax': 20.621317}",dining and drinking > restaurant > mexican restaurant > taco restaurant,1
596af612b9a5a85aa6c30f87,Tacos De Pipirisnaice,20.959478,-101.276655,,Guanajuato,GTO,,,,,MX,2017-07-16,2020-11-23,,,,,,,,['4bf58dd8d48988d151941735'],['Dining and Drinking > Restaurant > Mexican Restaurant > Taco Restaurant'],"b'\x00\x00\x00\x00\x01\xc0YQ\xb4\xb7,Q\x98@4\xf5\xa0Y\xa7;C'","{'xmin': -101.276655, 'ymin': 20.959478, 'xmax': -101.276655, 'ymax': 20.959478}",dining and drinking > restaurant > mexican restaurant > taco restaurant,1
610ea5089b8fc504a52c3af0,Birria Santiago,21.844791,-102.260635,Av. Ajedrecistas,Aguascalientes,Aguascalientes,20299,,,,MX,2021-08-07,2021-08-07,,,,,,,,['4bf58dd8d48988d151941735'],['Dining and Drinking > Restaurant > Mexican Restaurant > Taco Restaurant'],b'\x00\x00\x00\x00\x01\xc0Y\x90\xae>lLY@5\xd8D9\x14\xf4\x84',"{'xmin': -102.260635, 'ymin': 21.844791, 'xmax': -102.260635, 'ymax': 21.844791}",dining and drinking > restaurant > mexican restaurant > taco restaurant,1
51737ef0e4b00c301802dee9,Taqueria La Via,20.906896,-103.977328,,,,,,,,MX,2013-04-21,2021-08-15,,,,,,,,['4bf58dd8d48988d151941735'],['Dining and Drinking > Restaurant > Mexican Restaurant > Taco Restaurant'],b'\x00\x00\x00\x00\x01\xc0Y\xfe\x8c\x8a\xbd]\xc4@4\xe8*V\x14\xdf\x8b',"{'xmin': -103.977328, 'ymin': 20.906896, 'xmax': -103.977328, 'ymax': 20.906896}",dining and drinking > restaurant > mexican restaurant > taco restaurant,1
4de5b06e8877a085f8b8c8e2,Las ahumaderas taqueria,20.644503,-103.312727,Rio Nilo,Guadalajara,Jalisco,44860,,,,MX,2011-06-01,2020-11-30,,,,,,,,['4bf58dd8d48988d151941735'],['Dining and Drinking > Restaurant > Mexican Restaurant > Taco Restaurant'],"b'\x00\x00\x00\x00\x01\xc0Y\xd4\x03\xb8\x1bd\xe0@4\xa4\xfe&\x0b,\x84'","{'xmin': -103.312727, 'ymin': 20.644503, 'xmax': -103.312727, 'ymax': 20.644503}",dining and drinking > restaurant > mexican restaurant > taco restaurant,1
4fb4580fe4b03dfe928a6b74,Tacos De Aceite De Carro,21.251324,-102.32865,,,,,,,,MX,2012-05-17,2021-08-12,,,,,,,,['4bf58dd8d48988d151941735'],['Dining and Drinking > Restaurant > Mexican Restaurant > Taco Restaurant'],b'\x00\x00\x00\x00\x01\xc0Y\x95\x08\x9a\x02u%@5@V\xc5\x08\xb3-',"{'xmin': -102.32865, 'ymin': 21.251324, 'xmax': -102.32865, 'ymax': 21.251324}",dining and drinking > restaurant > mexican restaurant > taco restaurant,1
55b2a6a1498e1bf8cf360176,tacos Moy,20.747844,-105.254174,,,,,,,,MX,2015-07-24,2021-08-13,,,,,,,,['4bf58dd8d48988d151941735'],['Dining and Drinking > Restaurant > Mexican Restaurant > Taco Restaurant'],b'\x00\x00\x00\x00\x01\xc0ZPDc\x06_\x96@4\xbfr\xb4R\x82\x84',"{'xmin': -105.254174, 'ymin': 20.747844, 'xmax': -105.254174, 'ymax': 20.747844}",dining and drinking > restaurant > mexican restaurant > taco restaurant,1
544177d5498e70910f97d453,el cerdito veloz,19.6827392578125,-101.17891693115234,Servicentro Local 473,Morelia,michoacan,,,,,MX,2014-10-17,2020-11-24,,,,,,,,['4bf58dd8d48988d151941735'],['Dining and Drinking > Restaurant > Mexican Restaurant > Taco Restaurant'],b'\x00\x00\x00\x00\x01\xc0YKs`\x00\x00\x00@3\xae\xc8\x00\x00\x00\x00',"{'xmin': -101.17891693115234, 'ymin': 19.6827392578125, 'xmax': -101.17891693115234, 'ymax': 19.6827392578125}",dining and drinking > restaurant > mexican restaurant > taco restaurant,1
50d00c23e4b00db5a04467a7,Tacos Don Aurelio,21.09953487186254,-101.71914467083954,,,,,,,,MX,2012-12-18,2021-08-14,,,,,,,,['4bf58dd8d48988d151941735'],['Dining and Drinking > Restaurant > Mexican Restaurant > Taco Restaurant'],b'\x00\x00\x00\x00\x01\xc0Yn\x06w^\x96N@5\x19{\x1e\x0bv\x0f',"{'xmin': -101.71914467083954, 'ymin': 21.09953487186254, 'xmax': -101.71914467083954, 'ymax': 21.09953487186254}",dining and drinking > restaurant > mexican restaurant > taco restaurant,1
52b9480311d2e7fe0cf9e6c4,Tacos El Tabloncito,20.531684,-100.837873,,,,,,,,MX,2013-12-24,2021-08-11,,,,,,,,"['4bf58dd8d48988d151941735' '4bf58dd8d48988d18c941735'
 '4bf58dd8d48988d1f9941735']","['Dining and Drinking > Restaurant > Mexican Restaurant > Taco Restaurant'
 'Arts and Entertainment > Stadium > Baseball Stadium'
 'Retail > Food and Beverage Retail']",b'\x00\x00\x00\x00\x01\xc0Y5\x9f\xb6\x13L\xe4@4\x88\x1cqO\xcet',"{'xmin': -100.837873, 'ymin': 20.531684, 'xmax': -100.837873, 'ymax': 20.531684}","dining and drinking > restaurant > mexican restaurant > taco restaurant, arts and entertainment > stadium > baseball stadium, retail > food and beverage retail",1
534aad0e498e8ddc9f71ecaf,Tacos El Chavo,20.722189,-103.332328,Soto y Gama 1280,Rancho Nuevo,Jalisco,,,,,MX,2014-04-13,2021-08-10,,,,,,,,['4bf58dd8d48988d151941735'],['Dining and Drinking > Restaurant > Mexican Restaurant > Taco Restaurant'],b'\x00\x00\x00\x00\x01\xc0Y\xd5D\xdc\xa8\xe2\xe3@4\xb8\xe1`\xd8\x87\xec',"{'xmin': -103.332328, 'ymin': 20.722189, 'xmax': -103.332328, 'ymax': 20.722189}",dining and drinking > restaurant > mexican restaurant > taco restaurant,1
565235e0498e2b867266e9ff,Tacos y Carnitas Sanchez,20.685401194932478,-103.3643045819283,Hospital 1399,Guadalajara Jal,,,,,,MX,2015-11-22,2021-08-13,,,,,,,,['4bf58dd8d48988d151941735'],['Dining and Drinking > Restaurant > Mexican Restaurant > Taco Restaurant'],b'\x00\x00\x00\x00\x01\xc0Y\xd7P\xc4*J\x8f@4\xafvs\xe4\xdf\xd3',"{'xmin': -103.3643045819283, 'ymin': 20.685401194932478, 'xmax': -103.3643045819283, 'ymax': 20.685401194932478}",dining and drinking > restaurant > mexican restaurant > taco restaurant,1
4e26457cae609b2f94e608e1,Tacos 2x3,21.151071,-101.689758,Paseo del Moral,Leon,Gto,37160,,,,MX,2011-07-20,2023-06-26,,,,,,,,['4bf58dd8d48988d151941735'],['Dining and Drinking > Restaurant > Mexican Restaurant > Taco Restaurant'],b'\x00\x00\x00\x00\x01\xc0Yl$\xfe\xbd\t\xe1@5&\xac\x96\xcc_\xc0',"{'xmin': -101.689758, 'ymin': 21.151071, 'xmax': -101.689758, 'ymax': 21.151071}",dining and drinking > restaurant > mexican restaurant > taco restaurant,1
52cc40a611d2d33c5206b20e,tacos lalo,20.6802978515625,-103.30073547363281,Puerto Melaque,,,,,,,MX,2014-01-07,2021-08-11,,,,,,,,['4bf58dd8d48988d151941735'],['Dining and Drinking > Restaurant > Mexican Restaurant > Taco Restaurant'],b'\x00\x00\x00\x00\x01\xc0Y\xd3?@\x00\x00\x00@4\xae(\x00\x00\x00\x00',"{'xmin': -103.30073547363281, 'ymin': 20.6802978515625, 'xmax': -103.30073547363281, 'ymax': 20.6802978515625}",dining and drinking > restaurant > mexican restaurant > taco restaurant,1
5228a911498e8d61ea9bf46d,Tacos La Providencia,20.640627,-103.390609,,,,,,,,MX,2013-09-05,2021-08-15,,,,,,,,['4bf58dd8d48988d151941735'],['Dining and Drinking > Restaurant > Mexican Restaurant > Taco Restaurant'],b'\x00\x00\x00\x00\x01\xc0Y\xd8\xff\xbc\xe4!}@4\xa4\x00!\x8d\xefA',"{'xmin': -103.390609, 'ymin': 20.640627, 'xmax': -103.390609, 'ymax': 20.640627}",dining and drinking > restaurant > mexican restaurant > taco restaurant,1
4d1d34696e8c3704c15eda9f,Tacos El Pirata,20.68129197649386,-103.36822026477267,Garibaldi,Guadalajara,Jalisco,,,,,MX,2010-12-31,2021-08-12,,,,,,,,['4bf58dd8d48988d151941735'],['Dining and Drinking > Restaurant > Mexican Restaurant > Taco Restaurant'],b'\x00\x00\x00\x00\x01\xc0Y\xd7\x90\xeb\xba\xbb\x14@4\xaei&\xa6\x11~',"{'xmin': -103.36822026477267, 'ymin': 20.68129197649386, 'xmax': -103.36822026477267, 'ymax': 20.68129197649386}",dining and drinking > restaurant > mexican restaurant > taco restaurant,1
4eee1b71775b3c580e397849,Menuderia Chayito,20.711416943020282,-103.3185378351201,Igualdad,Guadalajara,Jalisco,,,,,MX,2011-12-18,2021-08-15,,,,,,,,['4bf58dd8d48988d151941735'],['Dining and Drinking > Restaurant > Mexican Restaurant > Taco Restaurant'],b'\x00\x00\x00\x00\x01\xc0Y\xd4b\xec\x84\x18I@4\xb6\x1fk\xb8\x17\xa8',"{'xmin': -103.3185378351201, 'ymin': 20.711416943020282, 'xmax': -103.3185378351201, 'ymax': 20.711416943020282}",dining and drinking > restaurant > mexican restaurant > taco restaurant,1
66496dd2a21c465624538adf,Tacos Los Viejones Solares,20.726287,-103.459403,,Zapopan,Jal.,45019,,,,MX,2024-05-19,2024-10-10,,,,,,,,['4bf58dd8d48988d151941735'],['Dining and Drinking > Restaurant > Mexican Restaurant > Taco Restaurant'],b'\x00\x00\x00\x00\x01\xc0Y\xddf\xdb\xd7+\xcb@4\xb9\xed\xf1\xe0\x82\x8c',"{'xmin': -103.459403, 'ymin': 20.726287, 'xmax': -103.459403, 'ymax': 20.726287}",dining and drinking > restaurant > mexican restaurant > taco restaurant,1
4e7d446429c2e87745f173e0,Lonchería El Médico,20.53424279666905,-104.034470073799,,Ameca,JAL,,,,,MX,2011-09-24,2020-11-23,,,,,,,,['4bf58dd8d48988d143941735' '4bf58dd8d48988d151941735'],"['Dining and Drinking > Breakfast Spot'
 'Dining and Drinking > Restaurant > Mexican Restaurant > Taco Restaurant']","b'\x00\x00\x00\x00\x01\xc0Z\x024\xc1\xf7\xea\x13@4\x88\xc4""\xcb\xd11'","{'xmin': -104.034470073799, 'ymin': 20.53424279666905, 'xmax': -104.034470073799, 'ymax': 20.53424279666905}","dining and drinking > breakfast spot, dining and drinking > restaurant > mexican restaurant > taco restaurant",1
6546fd2d794a765017ab7901,Taquería El Sinaloa,20.672719,-103.42481,Sebastian Bach 5093 A,Zapopan,Jal.,45020,,,,MX,2023-11-05,2024-10-16,,33 2803 7771,,,,,,['4bf58dd8d48988d151941735'],['Dining and Drinking > Restaurant > Mexican Restaurant > Taco Restaurant'],b'\x00\x00\x00\x00\x01\xc0Y\xdb0\x16H@\xe1@4\xac7O\xf8e\xd8',"{'xmin': -103.42481, 'ymin': 20.672719, 'xmax': -103.42481, 'ymax': 20.672719}",dining and drinking > restaurant > mexican restaurant > taco restaurant,1
5a20b8843149b940694171ad,Cenaduria La Escondida,21.160448,-101.649587,,León,GTO,37218,,,,MX,2017-12-01,2020-11-20,,,,,,,,['4bf58dd8d48988d151941735'],['Dining and Drinking > Restaurant > Mexican Restaurant > Taco Restaurant'],b'\x00\x00\x00\x00\x01\xc0Yi\x92\xd5Z:\x08@5)\x13\x1e\xc0\xb5g',"{'xmin': -101.649587, 'ymin': 21.160448, 'xmax': -101.649587, 'ymax': 21.160448}",dining and drinking > restaurant > mexican restaurant > taco restaurant,1
52b90792498e53bfcab18894,Taqueria Paty,21.81358,-105.20453,Avenida México esquina Amado Nervo,,,,,,,MX,2013-12-24,2021-08-11,,,,,,,,['4bf58dd8d48988d151941735'],['Dining and Drinking > Restaurant > Mexican Restaurant > Taco Restaurant'],b'\x00\x00\x00\x00\x01\xc0ZM\x17\x04\xffCB@5\xd0F\xc7d\xae\x00',"{'xmin': -105.20453, 'ymin': 21.81358, 'xmax': -105.20453, 'ymax': 21.81358}",dining and drinking > restaurant > mexican restaurant > taco restaurant,1
524cc2f911d2ce1cf5006b53,Tacos Martin´s,20.582077520768802,-101.19670245482423,Arbol Grande 708,Salamanca,Guanajuato,36730,,,,MX,2013-10-03,2020-11-23,,,,,,,,"['4bf58dd8d48988d1df931735' '4bf58dd8d48988d151941735'
 '4bf58dd8d48988d1ce941735']","['Dining and Drinking > Restaurant > BBQ Joint'
 'Dining and Drinking > Restaurant > Mexican Restaurant > Taco Restaurant'
 'Dining and Drinking > Restaurant > Seafood Restaurant']",b'\x00\x00\x00\x00\x01\xc0YL\x96\xc5\xe4\xa0\xd5@4\x95\x03\x08KpS',"{'xmin': -101.19670245482423, 'ymin': 20.582077520768802, 'xmax': -101.19670245482423, 'ymax': 20.582077520768802}","dining and drinking > restaurant > bbq joint, dining and drinking > restaurant > mexican restaurant > taco restaurant, dining and drinking > restaurant > seafood restaurant",1
5c4cc9d6eaf49a002cb0a026,La Casa De Crispín Y Pepe Sandoval,21.171623,-101.698425,,León,Guanajuato,37138,,,,MX,2019-01-26,2020-11-25,,,,,,,,['4bf58dd8d48988d151941735'],['Dining and Drinking > Restaurant > Mexican Restaurant > Taco Restaurant'],b'\x00\x00\x00\x00\x01\xc0Yl\xb2\xfe\xc5m]@5+\xef|$=\xcd',"{'xmin': -101.698425, 'ymin': 21.171623, 'xmax': -101.698425, 'ymax': 21.171623}",dining and drinking > restaurant > mexican restaurant > taco restaurant,1
4e78e924a809f5bf7346f957,Tacos de Perro Fino,20.72791437123869,-103.41536956793804,Santa Clara S/N,Zapopan,Jalisco,45190,,,,MX,2011-09-20,2020-11-23,,,,,,,,['4bf58dd8d48988d151941735'],['Dining and Drinking > Restaurant > Mexican Restaurant > Taco Restaurant'],b'\x00\x00\x00\x00\x01\xc0Y\xda\x95j=\x83\x0b@4\xbaX\x98\xa2\xc22',"{'xmin': -103.41536956793804, 'ymin': 20.72791437123869, 'xmax': -103.41536956793804, 'ymax': 20.72791437123869}",dining and drinking > restaurant > mexican restaurant > taco restaurant,1
50a4479de4b0560e846a55d5,Tacos PIrecords,20.697153,-103.36069,,,,,,,,MX,2012-11-15,2021-08-14,,,,,,,,['4bf58dd8d48988d151941735'],['Dining and Drinking > Restaurant > Mexican Restaurant > Taco Restaurant'],b'\x00\x00\x00\x00\x01\xc0Y\xd7\x15\x8b\x82\x7f\xa2@4\xb2x\x9ewN\xec',"{'xmin': -103.36069, 'ymin': 20.697153, 'xmax': -103.36069, 'ymax': 20.697153}",dining and drinking > restaurant > mexican restaurant > taco restaurant,1
5378f50e498ef563f960e0f5,Toronón Tacos de Barbacoa,20.674791,-103.369454,,,,,,,,MX,2014-05-18,2021-08-14,,,,,,,,['4bf58dd8d48988d151941735'],['Dining and Drinking > Restaurant > Mexican Restaurant > Taco Restaurant'],"b'\x00\x00\x00\x00\x01\xc0Y\xd7\xa5""c\xd8\x17@4\xac\xbf\x1a\\\xa2\x98'","{'xmin': -103.369454, 'ymin': 20.674791, 'xmax': -103.369454, 'ymax': 20.674791}",dining and drinking > restaurant > mexican restaurant > taco restaurant,1
52d19299498e1b3cc217c8eb,carnitas los dorados,20.609106063842773,-103.2718734741211,Carretera Libre A Zapotlanejo,,,,,,,MX,2014-01-11,2021-08-16,,,,,,,,['4bf58dd8d48988d151941735'],['Dining and Drinking > Restaurant > Mexican Restaurant > Taco Restaurant'],b'\x00\x00\x00\x00\x01\xc0Y\xd1f`\x00\x00\x00@4\x9b\xee`\x00\x00\x00',"{'xmin': -103.2718734741211, 'ymin': 20.609106063842773, 'xmax': -103.2718734741211, 'ymax': 20.609106063842773}",dining and drinking > restaurant > mexican restaurant > taco restaurant,1
5434c18a498e4f25e9c15328,tacos de asada el Gus,20.648447625343955,-103.37607180836518,Cruz Del Sur,Guadalajara,jalisco,,,,,MX,2014-10-08,2021-08-14,,,,,,,,['4bf58dd8d48988d151941735'],['Dining and Drinking > Restaurant > Mexican Restaurant > Taco Restaurant'],b'\x00\x00\x00\x00\x01\xc0Y\xd8\x11\x8f}x\x11@4\xa6\x00\xa9\xe0\x05j',"{'xmin': -103.37607180836518, 'ymin': 20.648447625343955, 'xmax': -103.37607180836518, 'ymax': 20.648447625343955}",dining and drinking > restaurant > mexican restaurant > taco restaurant,1
5112b8bce4b0d9f7c515c5e0,"Tacos ""Los Mamados""",22.14489338984068,-100.94885475699586,,,,,,,,MX,2013-02-06,2021-08-13,,,,,,,,['4bf58dd8d48988d151941735'],['Dining and Drinking > Restaurant > Mexican Restaurant > Taco Restaurant'],b'\x00\x00\x00\x00\x01\xc0Y<\xba\tM|\xe1@6%\x17\xbb\xb2\xc5\xb5',"{'xmin': -100.94885475699586, 'ymin': 22.14489338984068, 'xmax': -100.94885475699586, 'ymax': 22.14489338984068}",dining and drinking > restaurant > mexican restaurant > taco restaurant,1
4fefd724e4b02acbce0cfdb2,Charquito,20.4791,-100.9688,Bulevard Paseo de la Juventud,,,,,,,MX,2012-07-01,2021-08-15,,,,,,,,['4bf58dd8d48988d151941735'],['Dining and Drinking > Restaurant > Mexican Restaurant > Taco Restaurant'],b'\x00\x00\x00\x00\x01\xc0Y>\x00\xd1\xb7\x17Y@4z\xa6L/\x83{',"{'xmin': -100.9688, 'ymin': 20.4791, 'xmax': -100.9688, 'ymax': 20.4791}",dining and drinking > restaurant > mexican restaurant > taco restaurant,1
5a1b796b06fb604b9cd3fe2b,"Taquería ""Ninfas""",20.424423,-103.59071,Cuauhtémoc,Acatlán de Juárez,Jalisco,45700,,,,MX,2017-11-27,2020-11-22,,,,,,,,['4bf58dd8d48988d151941735'],['Dining and Drinking > Restaurant > Mexican Restaurant > Taco Restaurant'],b'\x00\x00\x00\x00\x01\xc0Y\xe5\xce1P\xda\xe4@4l\xa6\xfcX\xab\x93',"{'xmin': -103.59071, 'ymin': 20.424423, 'xmax': -103.59071, 'ymax': 20.424423}",dining and drinking > restaurant > mexican restaurant > taco restaurant,1
50102285e4b03939959018da,Tacos de Ollita de Don Rogelio Jimenez,20.600168,-103.40195,,,,,,,,MX,2012-07-25,2021-08-12,,,,,,,,['4bf58dd8d48988d151941735'],['Dining and Drinking > Restaurant > Mexican Restaurant > Taco Restaurant'],"b'\x00\x00\x00\x00\x01\xc0Y\xd9\xb9\x8c~($@4\x99\xa4\x9c,\x1b\x11'","{'xmin': -103.40195, 'ymin': 20.600168, 'xmax': -103.40195, 'ymax': 20.600168}",dining and drinking > restaurant > mexican restaurant > taco restaurant,1
51fd1f50498efe7256aad997,Taquería Juanes,19.978912,-102.287018,Dr. Alonso Martínez 36,"Zamora de Hidalgo, MICH",,,,,,MX,2013-08-03,2020-11-22,,351 512 0099,,,,,,['4bf58dd8d48988d151941735'],['Dining and Drinking > Restaurant > Mexican Restaurant > Taco Restaurant'],b'\x00\x00\x00\x00\x01\xc0Y\x92^\x80\xbe\xd7A@3\xfa\x99\xfa\x11\xa9v',"{'xmin': -102.287018, 'ymin': 19.978912, 'xmax': -102.287018, 'ymax': 19.978912}",dining and drinking > restaurant > mexican restaurant > taco restaurant,1
60511584abaca54e05d1aaea,Tortas Y Tacos Morales,18.84819,-97.10587,3pte 3 sur 2 y Madero,Orizaba,Veracruz,94300,,,,MX,2021-03-16,2021-03-16,,,,,,,,['4bf58dd8d48988d151941735'],['Dining and Drinking > Restaurant > Mexican Restaurant > Taco Restaurant'],"b'\x00\x00\x00\x00\x01\xc0XF\xc6\x92\xf6\xe8)@2\xd9""\xfa\xd6\xcbS'","{'xmin': -97.10587, 'ymin': 18.84819, 'xmax': -97.10587, 'ymax': 18.84819}",dining and drinking > restaurant > mexican restaurant > taco restaurant,1
529008aa11d22f9fcadf4a73,Loros Grill,19.136785,-96.142301,Plaza Victoria,,,,,,,MX,2013-11-23,2021-08-16,,,,,,,,['4bf58dd8d48988d151941735'],['Dining and Drinking > Restaurant > Mexican Restaurant > Taco Restaurant'],b'\x00\x00\x00\x00\x01\xc0X\t\x1bu\xa7L\n@3#\x04W}\x95W',"{'xmin': -96.142301, 'ymin': 19.136785, 'xmax': -96.142301, 'ymax': 19.136785}",dining and drinking > restaurant > mexican restaurant > taco restaurant,1
52018a15498e306aeba955af,Taqueria dia y noche,18.918,-99.2371,,,,,,,,MX,2013-08-06,2023-12-21,,777 176 5156,,ruben.canales@gmail.com,,,,['4bf58dd8d48988d151941735'],['Dining and Drinking > Restaurant > Mexican Restaurant > Taco Restaurant'],"b'\x00\x00\x00\x00\x01\xc0X\xcf,\xa5zxl@2\xeb\x02\x0cI\xba^'","{'xmin': -99.2371, 'ymin': 18.918, 'xmax': -99.2371, 'ymax': 18.918}",dining and drinking > restaurant > mexican restaurant > taco restaurant,1
56ca450b498e815bf1ddb2ba,"Pandas, Gatos & Calacas",19.301495,-99.225277,Yobain Mz 15 Lt 26,Popular Santa Teresa,Tlalpan,14160,,,,MX,2016-02-21,2020-11-24,,,,,,,,['4bf58dd8d48988d151941735'],['Dining and Drinking > Restaurant > Mexican Restaurant > Taco Restaurant'],b'\x00\x00\x00\x00\x01\xc0X\xcej\xf08\xe2\xa0@3M.\xc6\xbc\xe8S',"{'xmin': -99.225277, 'ymin': 19.301495, 'xmax': -99.225277, 'ymax': 19.301495}",dining and drinking > restaurant > mexican restaurant > taco restaurant,1
58671a9cc0df7664395684cc,Tacos del Arbol,18.338637,-99.546417,,Iguala,Guerrero,,,,,MX,2016-12-31,2020-11-30,,,,,,,,['4bf58dd8d48988d151941735'],['Dining and Drinking > Restaurant > Mexican Restaurant > Taco Restaurant'],b'\x00\x00\x00\x00\x01\xc0X\xe2\xf8\x7f\x02>\x9f@2V\xb0\xea\x187.',"{'xmin': -99.546417, 'ymin': 18.338637, 'xmax': -99.546417, 'ymax': 18.338637}",dining and drinking > restaurant > mexican restaurant > taco restaurant,1
5511cd16498ea0a616ec0809,Taquerias El Paisa,16.232515,-93.901423,1a Sur,Arriaga,Chiapas,30450,,,,MX,2015-03-24,2020-11-23,2015-05-16,,,,,,,['4bf58dd8d48988d151941735'],['Dining and Drinking > Restaurant > Mexican Restaurant > Taco Restaurant'],b'\x00\x00\x00\x00\x01\xc0Wy\xb0\xea\x187.@0;\x86\x1a`\xd4V',"{'xmin': -93.901423, 'ymin': 16.232515, 'xmax': -93.901423, 'ymax': 16.232515}",dining and drinking > restaurant > mexican restaurant > taco restaurant,1
501206c2e4b001b3384381b2,Jabalin,18.9095114,-103.8662575,Juan Oceguera,Tecoman,Colima,,,,,MX,2012-07-27,2020-11-25,,,,,,,,['4bf58dd8d48988d151941735'],['Dining and Drinking > Restaurant > Mexican Restaurant > Taco Restaurant'],b'\x00\x00\x00\x00\x01\xc0Y\xf7p\xc3L\x1a\x8b@2\xe8\xd5\xbd6V\xd4',"{'xmin': -103.8662575, 'ymin': 18.9095114, 'xmax': -103.8662575, 'ymax': 18.9095114}",dining and drinking > restaurant > mexican restaurant > taco restaurant,1
4fb9c493e4b07e915b20a917,tacos Cristy,18.900662935008675,-96.99786862822904,,,,,,,,MX,2012-05-21,2021-08-15,,,,,,,,['4bf58dd8d48988d151941735'],['Dining and Drinking > Restaurant > Mexican Restaurant > Taco Restaurant'],b'\x00\x00\x00\x00\x01\xc0X?\xdd\x14`\xfc\xae@2\xe6\x91\xd8\x9a\x94\xe6',"{'xmin': -96.99786862822904, 'ymin': 18.900662935008675, 'xmax': -96.99786862822904, 'ymax': 18.900662935008675}",dining and drinking > restaurant > mexican restaurant > taco restaurant,1
51d398ab498e048f4f3d7ae7,Buenas Noches,14.886674,-92.252621,,,,,,,,MX,2013-07-03,2020-11-22,,,,,,,,['4bf58dd8d48988d151941735'],['Dining and Drinking > Restaurant > Mexican Restaurant > Taco Restaurant'],"b'\x00\x00\x00\x00\x01\xc0W\x10*\xf1ER\x1a@-\xc5\xfa""pmP'","{'xmin': -92.252621, 'ymin': 14.886674, 'xmax': -92.252621, 'ymax': 14.886674}",dining and drinking > restaurant > mexican restaurant > taco restaurant,1
594dd3897247500558b1743b,Tacos El Praton,19.317536,-99.088434,,Ciudad de México,CDMX,09890,,,,MX,2017-06-24,2020-11-23,,,,,,,,['4bf58dd8d48988d151941735'],['Dining and Drinking > Restaurant > Mexican Restaurant > Taco Restaurant'],b'\x00\x00\x00\x00\x01\xc0X\xc5\xa8\xe7\x14v\xb0@3QJ\n\x0fM{',"{'xmin': -99.088434, 'ymin': 19.317536, 'xmax': -99.088434, 'ymax': 19.317536}",dining and drinking > restaurant > mexican restaurant > taco restaurant,1
4faf1db7e4b08260e427d085,Tacos Don Flor,19.295485777608313,-99.76931457062089,Aldama,San Francisco Tlalcilalcalpan,México,50940,,,,MX,2012-05-13,2020-11-22,,,,,,,,['4bf58dd8d48988d151941735'],['Dining and Drinking > Restaurant > Mexican Restaurant > Taco Restaurant'],b'\x00\x00\x00\x00\x01\xc0X\xf1<s.I\xcb@3K\xa4\xf4\xb7B\xc6',"{'xmin': -99.76931457062089, 'ymin': 19.295485777608313, 'xmax': -99.76931457062089, 'ymax': 19.295485777608313}",dining and drinking > restaurant > mexican restaurant > taco restaurant,1
534f54a2498ea4bf488a4cce,Los Tarascos,16.86219786252913,-99.91143195550644,Av. Ejido,"Acapulco, GRO",Guerrero,,,,,MX,2014-04-17,2020-11-22,,,,,,,,['4bf58dd8d48988d151941735'],['Dining and Drinking > Restaurant > Mexican Restaurant > Taco Restaurant'],b'\x00\x00\x00\x00\x01\xc0X\xfaT\xe6\xb2[}@0\xdc\xb8\xff\xc6>d',"{'xmin': -99.91143195550644, 'ymin': 16.86219786252913, 'xmax': -99.91143195550644, 'ymax': 16.86219786252913}",dining and drinking > restaurant > mexican restaurant > taco restaurant,1
51900c4e498e757a64ae3fb8,Las Costras,18.461192151908058,-97.39256218823165,,,,,,,,MX,2013-05-12,2021-08-14,,,,,,,,['4bf58dd8d48988d151941735'],['Dining and Drinking > Restaurant > Mexican Restaurant > Taco Restaurant'],b'\x00\x00\x00\x00\x01\xc0XY\x1f\xbd(\x06y@2v\x10\xb0Y\x9d\xf2',"{'xmin': -97.39256218823165, 'ymin': 18.461192151908058, 'xmax': -97.39256218823165, 'ymax': 18.461192151908058}",dining and drinking > restaurant > mexican restaurant > taco restaurant,1
550709da498e843f63a9be74,Tacos Doña Tere,15.31834,-92.662669,,Escuintla,Chiapas,30600,,,,MX,2015-03-16,2020-11-26,,,,,,,,['4bf58dd8d48988d151941735'],['Dining and Drinking > Restaurant > Mexican Restaurant > Taco Restaurant'],b'\x00\x00\x00\x00\x01\xc0W*i+<\xc4\xac@.\xa2\xfdu\xe2\x04l',"{'xmin': -92.662669, 'ymin': 15.31834, 'xmax': -92.662669, 'ymax': 15.31834}",dining and drinking > restaurant > mexican restaurant > taco restaurant,1
51905317498e7bdd2262c496,Taqueria Jazmín.,17.076256720292907,-96.70342325149912,Orquídeas 903,Oaxaca,Oaxaca,68050,,,,MX,2013-05-13,2020-11-23,,,,,,,,['4bf58dd8d48988d151941735'],['Dining and Drinking > Restaurant > Mexican Restaurant > Taco Restaurant'],b'\x00\x00\x00\x00\x01\xc0X-\x04\xe2\xf5\x1b\xd2@1\x13\x85\x8fw\xc2\x1d',"{'xmin': -96.70342325149912, 'ymin': 17.076256720292907, 'xmax': -96.70342325149912, 'ymax': 17.076256720292907}",dining and drinking > restaurant > mexican restaurant > taco restaurant,1
56dba88c498e43e53c843f3c,Tacos de Toño,18.338143,-97.343244,José María Morelos,San Gabriel Chilac,Puebla,75886,,,,MX,2016-03-06,2020-11-30,,,,,,,,['4bf58dd8d48988d151941735'],['Dining and Drinking > Restaurant > Mexican Restaurant > Taco Restaurant'],b'\x00\x00\x00\x00\x01\xc0XU\xf7\xb5\xae\xa3\x16@2V\x90\x8a&_\x0f',"{'xmin': -97.343244, 'ymin': 18.338143, 'xmax': -97.343244, 'ymax': 18.338143}",dining and drinking > restaurant > mexican restaurant > taco restaurant,1
5258586411d2ca1d9f02e324,Carnitas Los Gemelos,19.292309406542472,-99.15562391281128,Fray Pedro De Gante,Tlalpan,DF,,,,,MX,2013-10-11,2020-11-30,,,,,,,,['4bf58dd8d48988d151941735'],['Dining and Drinking > Restaurant > Mexican Restaurant > Taco Restaurant'],b'\x00\x00\x00\x00\x01\xc0X\xc9\xf5\xbe\x00\x00\x00@3J\xd4\xca\ri\xc0',"{'xmin': -99.15562391281128, 'ymin': 19.292309406542472, 'xmax': -99.15562391281128, 'ymax': 19.292309406542472}",dining and drinking > restaurant > mexican restaurant > taco restaurant,1
4ef76fba775b54cdb47b5761,el buen sazon,19.053985595703125,-99.24179077148438,,,,,,,,MX,2011-12-25,2021-08-14,,,,,,,,['4bf58dd8d48988d151941735'],['Dining and Drinking > Restaurant > Mexican Restaurant > Taco Restaurant'],b'\x00\x00\x00\x00\x01\xc0X\xcfy\x80\x00\x00\x00@3\r\xd2\x00\x00\x00\x00',"{'xmin': -99.24179077148438, 'ymin': 19.053985595703125, 'xmax': -99.24179077148438, 'ymax': 19.053985595703125}",dining and drinking > restaurant > mexican restaurant > taco restaurant,1
53364170498e3cecfa0fc3ec,Antojitos Doña Lore,19.285325279264686,-99.66209565854027,Valentín Gómez Farias,"Toluca de Lerdo, MEX",México,50130,,,,MX,2014-03-29,2020-11-22,,,,,,,,['4bf58dd8d48988d151941735'],['Dining and Drinking > Restaurant > Mexican Restaurant > Taco Restaurant'],b'\x00\x00\x00\x00\x01\xc0X\xea_\xc6x\x10B@3I\x0b\x13\xd7)\xf5',"{'xmin': -99.66209565854027, 'ymin': 19.285325279264686, 'xmax': -99.66209565854027, 'ymax': 19.285325279264686}",dining and drinking > restaurant > mexican restaurant > taco restaurant,1
4c833f12d8086dcbc4c77e52,La Poblanita,19.97799914266857,-102.28443503230183,5 de Mayo,"Zamora, MICH",Michoacán de Ocampo,,,,,MX,2010-09-05,2020-11-17,,,,,,,,['4bf58dd8d48988d1c1941735' '4bf58dd8d48988d151941735'],"['Dining and Drinking > Restaurant > Mexican Restaurant'
 'Dining and Drinking > Restaurant > Mexican Restaurant > Taco Restaurant']",b'\x00\x00\x00\x00\x01\xc0Y\x924.\xfed\xad@3\xfa^&\xddG\r',"{'xmin': -102.28443503230183, 'ymin': 19.97799914266857, 'xmax': -102.28443503230183, 'ymax': 19.97799914266857}","dining and drinking > restaurant > mexican restaurant, dining and drinking > restaurant > mexican restaurant > taco restaurant",1
52adf90511d20648bd88a0cc,cochinita mercado de bachilleres,19.324287,-99.12041,,,,,,,,MX,2013-12-15,2021-08-11,,,,,,,,['4bf58dd8d48988d151941735'],['Dining and Drinking > Restaurant > Mexican Restaurant > Taco Restaurant'],b'\x00\x00\x00\x00\x01\xc0X\xc7\xb4\xcc%\x07!@3S\x04y\x0b\x84\x99',"{'xmin': -99.12041, 'ymin': 19.324287, 'xmax': -99.12041, 'ymax': 19.324287}",dining and drinking > restaurant > mexican restaurant > taco restaurant,1
563eb0c0cd10564a7fdc1a8b,Tacos el May,20.199968,-103.309241,,,,,,,,MX,2015-11-08,2021-08-13,,,,,,,,['4bf58dd8d48988d151941735'],['Dining and Drinking > Restaurant > Mexican Restaurant > Taco Restaurant'],b'\x00\x00\x00\x00\x01\xc0Y\xd3\xca\x9a\xc3eE@431\x1aT?\x1c',"{'xmin': -103.309241, 'ymin': 20.199968, 'xmax': -103.309241, 'ymax': 20.199968}",dining and drinking > restaurant > mexican restaurant > taco restaurant,1
4e7d26a29adf3086283e5941,Taqueria Los Hidalguenses,19.260273269450064,-99.64360465318725,José María Pino Suaeez,Metepec,México,,,,,MX,2011-09-24,2020-11-25,,,,,,,,['4bf58dd8d48988d151941735'],['Dining and Drinking > Restaurant > Mexican Restaurant > Taco Restaurant'],b'\x00\x00\x00\x00\x01\xc0X\xe90\xd1\x92?\x88@3B\xa1D\xdcO\x9f',"{'xmin': -99.64360465318725, 'ymin': 19.260273269450064, 'xmax': -99.64360465318725, 'ymax': 19.260273269450064}",dining and drinking > restaurant > mexican restaurant > taco restaurant,1
50cd6f3bf31cb40d8d4195df,Tacos los Gemelos,19.30013689683842,-99.17650222778319,"3 Poniente, Mz.20 Lt.1 Isidro Fabela, Tlalpan",D.F.,Distrito Federal,14030,,,,MX,2012-12-16,2020-11-26,,,,,370102306384468.0,,tacoslosgemelos,['4bf58dd8d48988d151941735'],['Dining and Drinking > Restaurant > Mexican Restaurant > Taco Restaurant'],b'\x00\x00\x00\x00\x01\xc0X\xcbK\xcf\xff\xff\xff@3L\xd5\xc5\x8c>s',"{'xmin': -99.17650222778319, 'ymin': 19.30013689683842, 'xmax': -99.17650222778319, 'ymax': 19.30013689683842}",dining and drinking > restaurant > mexican restaurant > taco restaurant,1
4d2a6f1e849f370494588841,Taquería El Tapatío,18.45412326,-95.21755037,Corona 604,San Andrés Tuxtla,Veracruz-Llave,,,,,MX,2011-01-10,2020-11-23,,,,,,,,['4bf58dd8d48988d151941735'],['Dining and Drinking > Restaurant > Mexican Restaurant > Taco Restaurant'],b'\x00\x00\x00\x00\x01\xc0W\xcd\xecXc\x18~@2tAl\x06\r\x8b',"{'xmin': -95.21755037, 'ymin': 18.45412326, 'xmax': -95.21755037, 'ymax': 18.45412326}",dining and drinking > restaurant > mexican restaurant > taco restaurant,1
5644d269498e93204bfa8fdf,Quecas (las que le cagan a Sergio),19.331797,-99.209199,,,,,,,,MX,2015-11-12,2020-11-22,,,,,,,,['4bf58dd8d48988d151941735'],['Dining and Drinking > Restaurant > Mexican Restaurant > Taco Restaurant'],b'\x00\x00\x00\x00\x01\xc0X\xcdc\x843\xd6\xc7@3T\xf0\xa5\xef\xe92',"{'xmin': -99.209199, 'ymin': 19.331797, 'xmax': -99.209199, 'ymax': 19.331797}",dining and drinking > restaurant > mexican restaurant > taco restaurant,1
56ae6e1b498ec0fd7a8966d5,Las Carnitas Michoacanas,17.076393499095854,-96.75176466015276,,,,,,,,MX,2016-01-31,2021-08-12,,,,,,,,['4bf58dd8d48988d151941735'],['Dining and Drinking > Restaurant > Mexican Restaurant > Taco Restaurant'],b'\x00\x00\x00\x00\x01\xc0X0\x1c\xe9\x85iB@1\x13\x8e\x86<>c',"{'xmin': -96.75176466015276, 'ymin': 17.076393499095854, 'xmax': -96.75176466015276, 'ymax': 17.076393499095854}",dining and drinking > restaurant > mexican restaurant > taco restaurant,1
50d33fb0e4b02a0dbbd2e8b3,"Quesadillas Y Huaraches ""Chucho""",19.33685758341111,-99.07302403837778,Estrella,México DF,,09830,,,,MX,2012-12-20,2020-11-23,,,,,,,,['4bf58dd8d48988d151941735'],['Dining and Drinking > Restaurant > Mexican Restaurant > Taco Restaurant'],b'\x00\x00\x00\x00\x01\xc0X\xc4\xacm\x04)\xe2@3V<Lp)\n',"{'xmin': -99.07302403837778, 'ymin': 19.33685758341111, 'xmax': -99.07302403837778, 'ymax': 19.33685758341111}",dining and drinking > restaurant > mexican restaurant > taco restaurant,1
52210cca11d2a49562caa70d,Tour Gastronomico,19.306119611863195,-99.20854056708576,,,,,,,,MX,2013-08-30,2021-08-14,,,,,,,,['4bf58dd8d48988d1c1941735' '4bf58dd8d48988d151941735'],"['Dining and Drinking > Restaurant > Mexican Restaurant'
 'Dining and Drinking > Restaurant > Mexican Restaurant > Taco Restaurant']",b'\x00\x00\x00\x00\x01\xc0X\xcdX\xba\x88\xe1s@3N]\xda\xd9\x9d\xdc',"{'xmin': -99.20854056708576, 'ymin': 19.306119611863195, 'xmax': -99.20854056708576, 'ymax': 19.306119611863195}","dining and drinking > restaurant > mexican restaurant, dining and drinking > restaurant > mexican restaurant > taco restaurant",1
54bbf401498e8ddf27cf6b20,Celia Bravo Guisados,19.99191771662202,-102.2907553511553,,,,,,,,MX,2015-01-18,2021-08-11,,,,,,,,['4bf58dd8d48988d151941735'],['Dining and Drinking > Restaurant > Mexican Restaurant > Taco Restaurant'],b'\x00\x00\x00\x00\x01\xc0Y\x92\x9b\xbcU\x16V@3\xfd\xeeQ\xc96\xee',"{'xmin': -102.2907553511553, 'ymin': 19.99191771662202, 'xmax': -102.2907553511553, 'ymax': 19.99191771662202}",dining and drinking > restaurant > mexican restaurant > taco restaurant,1
5b8acca7a0215b002c44b3ae,Barbacoa Enrique,19.305708,-99.11109,,Ciudad de México,Ciudad de México,04970,,,,MX,2018-09-01,2023-06-04,,,,,,,,['4bf58dd8d48988d151941735'],['Dining and Drinking > Restaurant > Mexican Restaurant > Taco Restaurant'],b'\x00\x00\x00\x00\x01\xc0X\xc7\x1c\x19;:i@3NB\xe1& %',"{'xmin': -99.11109, 'ymin': 19.305708, 'xmax': -99.11109, 'ymax': 19.305708}",dining and drinking > restaurant > mexican restaurant > taco restaurant,1
51927b03498e9345e7531089,Taquería El Buen Gusto,18.451596906081804,-96.35886780109468,Matamoros,Tierra Blanca,Veracruz-Llave,,,,,MX,2013-05-14,2020-11-24,,,,,,,,['4bf58dd8d48988d151941735'],['Dining and Drinking > Restaurant > Mexican Restaurant > Taco Restaurant'],b'\x00\x00\x00\x00\x01\xc0X\x16\xf7\xb0\xa7R\x80@2s\x9b\xda\xd6\x98\x9c',"{'xmin': -96.35886780109468, 'ymin': 18.451596906081804, 'xmax': -96.35886780109468, 'ymax': 18.451596906081804}",dining and drinking > restaurant > mexican restaurant > taco restaurant,1
573d0145498e2a2f3dae680f,Viva México,15.862002,-97.076154,,,,,,,,MX,2016-05-18,2021-08-10,,,,,,,,['4bf58dd8d48988d151941735'],['Dining and Drinking > Restaurant > Mexican Restaurant > Taco Restaurant'],"b'\x00\x00\x00\x00\x01\xc0XD\xdf\xb5\x06\xddj@/\xb9XS~,V'","{'xmin': -97.076154, 'ymin': 15.862002, 'xmax': -97.076154, 'ymax': 15.862002}",dining and drinking > restaurant > mexican restaurant > taco restaurant,1
58d33151fad9dc2b9278a624,Asadero Campestre La Mexicana,16.851396,-99.84488,Fernando de Magallanes #17,Acapulco de Juárez,GRO,39850,,,,MX,2017-03-23,2020-11-30,,,,,,,,['4bf58dd8d48988d151941735'],['Dining and Drinking > Restaurant > Mexican Restaurant > Taco Restaurant'],b'\x00\x00\x00\x00\x01\xc0X\xf6\x12\x83\x90B\xd9@0\xd9\xf5\x16\x97\xf1\xfa',"{'xmin': -99.84488, 'ymin': 16.851396, 'xmax': -99.84488, 'ymax': 16.851396}",dining and drinking > restaurant > mexican restaurant > taco restaurant,1
4e19d0eae4cd49a7e3f68311,Carnitas Fernanda,19.290636802531022,-99.22189707001804,Acanceh,Ciudad de México,Distrito Federal,14200,,,,MX,2011-07-10,2020-11-24,,,,,,,,['4bf58dd8d48988d151941735'],['Dining and Drinking > Restaurant > Mexican Restaurant > Taco Restaurant'],"b'\x00\x00\x00\x00\x01\xc0X\xce3\x8f\xc4\xb3\x91@3Jg,i\xe2\x7f'","{'xmin': -99.22189707001804, 'ymin': 19.290636802531022, 'xmax': -99.22189707001804, 'ymax': 19.290636802531022}",dining and drinking > restaurant > mexican restaurant > taco restaurant,1
4eca7925e3007199188d425a,Tacos Pepe (desde 1970),19.19015239032471,-96.13644135592895,Calle González Pages,Veracruz,Veracruz-Llave,91700,,,,MX,2011-11-21,2023-12-19,,229 931 2462,,,,,,['4bf58dd8d48988d151941735'],['Dining and Drinking > Restaurant > Mexican Restaurant > Taco Restaurant'],b'\x00\x00\x00\x00\x01\xc0X\x08\xbbt\x86bZ@30\xad\xd3\xb9\xb3k',"{'xmin': -96.13644135592895, 'ymin': 19.19015239032471, 'xmax': -96.13644135592895, 'ymax': 19.19015239032471}",dining and drinking > restaurant > mexican restaurant > taco restaurant,1
5ff660ebf645d159bce08b14,Taquería El Portón,19.267399,-99.22575,Hopelchen,Ciudad de México,Ciudad de México,14748,,,,MX,2021-01-07,2021-01-07,,,,,,,,['4bf58dd8d48988d151941735'],['Dining and Drinking > Restaurant > Mexican Restaurant > Taco Restaurant'],b'\x00\x00\x00\x00\x01\xc0X\xcer\xb0 \xc4\x9c@3DtB\xc7\xfb\xad',"{'xmin': -99.22575, 'ymin': 19.267399, 'xmax': -99.22575, 'ymax': 19.267399}",dining and drinking > restaurant > mexican restaurant > taco restaurant,1
4e5920aad22dfba6f46f58d4,Tacos El Tiburon,19.334702133260283,-99.1236334617097,Escuela Naval Militar 436,Ciudad de México,Distrito Federal,,,,,MX,2011-08-27,2020-11-26,,,,,,,,['4bf58dd8d48988d151941735'],['Dining and Drinking > Restaurant > Mexican Restaurant > Taco Restaurant'],b'\x00\x00\x00\x00\x01\xc0X\xc7\xe9\x9cR\xaf\x01@3U\xaf\t\xfcA\x1d',"{'xmin': -99.1236334617097, 'ymin': 19.334702133260283, 'xmax': -99.1236334617097, 'ymax': 19.334702133260283}",dining and drinking > restaurant > mexican restaurant > taco restaurant,1
506db255e4b02c3dabb0fbcb,Tacos de arrachera,19.1531729,-97.6797268,Refoma,,,,,,,MX,2012-10-04,2020-11-23,,,,,,,,['4bf58dd8d48988d151941735'],['Dining and Drinking > Restaurant > Mexican Restaurant > Taco Restaurant'],"b'\x00\x00\x00\x00\x01\xc0Xk\x80\xa4\xd6\r\xbe@3\'6V\xd4"",'","{'xmin': -97.6797268, 'ymin': 19.1531729, 'xmax': -97.6797268, 'ymax': 19.1531729}",dining and drinking > restaurant > mexican restaurant > taco restaurant,1
5f6c1c9f4cff341d5086d20a,Sr. Asadero,19.21565,-96.17736,av. Rafael Cuervo,Veracruz,Veracruz,91810,,,,MX,2020-09-24,2020-11-22,,,,,,,,['4bf58dd8d48988d151941735'],['Dining and Drinking > Restaurant > Mexican Restaurant > Taco Restaurant'],b'\x00\x00\x00\x00\x01\xc0X\x0bY\xdd\xc1\xe7\x96@374\xd6\xa1a\xe5',"{'xmin': -96.17736, 'ymin': 19.21565, 'xmax': -96.17736, 'ymax': 19.21565}",dining and drinking > restaurant > mexican restaurant > taco restaurant,1
5c8577eb2632ec002cd398b7,Tacos De Res Ponce,19.749395,-101.196089,,Colonia 13 de Abril,MICH,,,,,MX,2019-03-10,2020-11-30,,,,,,,,['4bf58dd8d48988d151941735'],['Dining and Drinking > Restaurant > Mexican Restaurant > Taco Restaurant'],b'\x00\x00\x00\x00\x01\xc0YL\x8c\xb8\xe0\x86\xbe@3\xbf\xd8Y\xc8\xc92',"{'xmin': -101.196089, 'ymin': 19.749395, 'xmax': -101.196089, 'ymax': 19.749395}",dining and drinking > restaurant > mexican restaurant > taco restaurant,1
505bd316e4b0ef5c54a9b195,Las Quecas De La Esquina,19.308764,-99.147459,,,,,,,,MX,2012-09-21,2021-08-13,,,,,,,,['4bf58dd8d48988d151941735'],['Dining and Drinking > Restaurant > Mexican Restaurant > Taco Restaurant'],b'\x00\x00\x00\x00\x01\xc0X\xc9o\xf7\xdf\xa0\x0e@3O\x0b(R.\xa1',"{'xmin': -99.147459, 'ymin': 19.308764, 'xmax': -99.147459, 'ymax': 19.308764}",dining and drinking > restaurant > mexican restaurant > taco restaurant,1
50560b64e4b0e95b0f4bde8a,El Chato,19.192947904499228,-96.14329845258683,Nerzahualcoyotl,Veracruz,,91700,,,,MX,2012-09-16,2020-11-24,,,,,,,,['4bf58dd8d48988d151941735'],['Dining and Drinking > Restaurant > Mexican Restaurant > Taco Restaurant'],b'\x00\x00\x00\x00\x01\xc0X\t+\xcdE\xdbb@31e\x08\xab\xa7\xea',"{'xmin': -96.14329845258683, 'ymin': 19.192947904499228, 'xmax': -96.14329845258683, 'ymax': 19.192947904499228}",dining and drinking > restaurant > mexican restaurant > taco restaurant,1
4e639353d164ddd5e63f835f,Taquería Edy,17.135514833034062,-100.46953343347094,Plaza Galeana,San Jerónimo de Juárez,Guerrero,,,,,MX,2011-09-04,2020-11-23,,,,,,,,['4bf58dd8d48988d151941735'],['Dining and Drinking > Restaurant > Mexican Restaurant > Taco Restaurant'],"b'\x00\x00\x00\x00\x01\xc0Y\x1e\x0c\xd5\xf5H\xb9@1""\xb1\x19\xa0\x01\x13'","{'xmin': -100.46953343347094, 'ymin': 17.135514833034062, 'xmax': -100.46953343347094, 'ymax': 17.135514833034062}",dining and drinking > restaurant > mexican restaurant > taco restaurant,1
4fc8d4b4e4b0adae39cfaada,la cafeteria de la salle,19.156004211165783,-96.11431440525101,,,,,,,,MX,2012-06-01,2020-11-23,,,,,,,,['4bf58dd8d48988d151941735'],['Dining and Drinking > Restaurant > Mexican Restaurant > Taco Restaurant'],"b""\x00\x00\x00\x00\x01\xc0X\x07P\xed^\x00\xf2@3'\xef\xe4X\xfe\xcd""","{'xmin': -96.11431440525101, 'ymin': 19.156004211165783, 'xmax': -96.11431440525101, 'ymax': 19.156004211165783}",dining and drinking > restaurant > mexican restaurant > taco restaurant,1
4f6f57eee4b0e428440f089f,Mi primo de Tijuana,19.26117221424154,-99.63114183714653,,,,,,,,MX,2012-03-25,2020-11-24,,,,,,,,['4bf58dd8d48988d151941735'],['Dining and Drinking > Restaurant > Mexican Restaurant > Taco Restaurant'],b'\x00\x00\x00\x00\x01\xc0X\xe8d\xa0\xbbk\xa1@3B\xdc.\xa6\xca\x94',"{'xmin': -99.63114183714653, 'ymin': 19.26117221424154, 'xmax': -99.63114183714653, 'ymax': 19.26117221424154}",dining and drinking > restaurant > mexican restaurant > taco restaurant,1
5333b040498e1c2a32ce02f6,El Buches,19.253857369439825,-99.10367227485145,,,,,,,,MX,2014-03-27,2021-08-16,,,,,,,,['4bf58dd8d48988d151941735'],['Dining and Drinking > Restaurant > Mexican Restaurant > Taco Restaurant'],b'\x00\x00\x00\x00\x01\xc0X\xc6\xa2\x91\t\x7fJ@3@\xfc\xcb\xeb\x97\xb7',"{'xmin': -99.10367227485145, 'ymin': 19.253857369439825, 'xmax': -99.10367227485145, 'ymax': 19.253857369439825}",dining and drinking > restaurant > mexican restaurant > taco restaurant,1
5858ab4b52a05136fb542f1d,Taqueria Los Hermanos,18.639061,-99.212429,,,,,,,,MX,2016-12-20,2020-11-23,,,,,,,,['4bf58dd8d48988d151941735'],['Dining and Drinking > Restaurant > Mexican Restaurant > Taco Restaurant'],b'\x00\x00\x00\x00\x01\xc0X\xcd\x98o\xcd\xee5@2\xa3\x99\x80o&)',"{'xmin': -99.212429, 'ymin': 18.639061, 'xmax': -99.212429, 'ymax': 18.639061}",dining and drinking > restaurant > mexican restaurant > taco restaurant,1
4d3c5db1d625224bdb6790fa,Barbacoa La Güera Marce,18.921626,-99.209922,Bajada de Chapultepec,Cuernavaca,Morelos,,,,,MX,2011-01-23,2020-11-25,,,,,,,,['4bf58dd8d48988d151941735' '4bf58dd8d48988d1cb941735'],"['Dining and Drinking > Restaurant > Mexican Restaurant > Taco Restaurant'
 'Dining and Drinking > Food Truck']",b'\x00\x00\x00\x00\x01\xc0X\xcdo\\\xaf-\x80@2\xeb\xef\xaey$\xaf',"{'xmin': -99.209922, 'ymin': 18.921626, 'xmax': -99.209922, 'ymax': 18.921626}","dining and drinking > restaurant > mexican restaurant > taco restaurant, dining and drinking > food truck",1
4ee2f3e829c220f97049a334,Tacos Árabes Jhonny,19.274126123655723,-99.68289745864328,Alpinismo,Toluca,Mexico,,,,,MX,2011-12-10,2020-11-22,,,,,,,,['4bf58dd8d48988d151941735'],['Dining and Drinking > Restaurant > Mexican Restaurant > Taco Restaurant'],b'\x00\x00\x00\x00\x01\xc0X\xeb\xb4\x97\x8a\xd9>@3F-!0\x14\xa1',"{'xmin': -99.68289745864328, 'ymin': 19.274126123655723, 'xmax': -99.68289745864328, 'ymax': 19.274126123655723}",dining and drinking > restaurant > mexican restaurant > taco restaurant,1
5a94cda8340a586d5b205713,Taqueria El Delfin,18.085086,-96.128121,Avenida Libertad,San Juan Bautista Tuxtepec,OAX,68310,,,,MX,2018-02-27,2020-11-25,,,,,,,,['4bf58dd8d48988d151941735'],['Dining and Drinking > Restaurant > Mexican Restaurant > Taco Restaurant'],"b'\x00\x00\x00\x00\x01\xc0X\x083""l;\x92@2\x15\xc823X\xf3'","{'xmin': -96.128121, 'ymin': 18.085086, 'xmax': -96.128121, 'ymax': 18.085086}",dining and drinking > restaurant > mexican restaurant > taco restaurant,1
52f7ba2811d2f1ea9ddaaf0f,"Barbacoa ""Doña Chuy""",19.243335202742944,-99.09706342338981,Avenida Cuauhtémoc,Xochimilco,Distrito Federal,,,,,MX,2014-02-09,2020-11-22,,,,,,,,['4bf58dd8d48988d151941735'],['Dining and Drinking > Restaurant > Mexican Restaurant > Taco Restaurant'],b'\x00\x00\x00\x00\x01\xc0X\xc66I\x81F6@3>K7A\xbf\x19',"{'xmin': -99.09706342338981, 'ymin': 19.243335202742944, 'xmax': -99.09706342338981, 'ymax': 19.243335202742944}",dining and drinking > restaurant > mexican restaurant > taco restaurant,1
4ec29901e5fae16465b8e75f,Tacos El Talento,19.276194759212224,-99.12863705557163,,Ciudad de México,Distrito Federal,,,,,MX,2011-11-15,2020-11-23,,,,,,,,['4bf58dd8d48988d151941735' '4bf58dd8d48988d1cb941735'],"['Dining and Drinking > Restaurant > Mexican Restaurant > Taco Restaurant'
