fsq_place_id,name,latitude,longitude,address,locality,region,postcode,admin_region,post_town,po_box,country,date_created,date_refreshed,date_closed,tel,website,email,facebook_id,instagram,twitter,fsq_category_ids,fsq_category_labels,geom,bbox,labels_str,taco_restaurant
5e22598cd50f990008b75826,Tacos Del Koshy,32.520109,-117.029233,,Tijuana,BC,22040,,,,MX,2020-01-18,2020-11-23,,,,,,,,['4bf58dd8d48988d151941735'],['Dining and Drinking > Restaurant > Mexican Restaurant > Taco Restaurant'],b'\x00\x00\x00\x00\x01\xc0]A\xde\xf4\x16\xbd\xb2@@B\x92\xee\x84\xady',"{'xmin': -117.029233, 'ymin': 32.520109, 'xmax': -117.029233, 'ymax': 32.520109}",dining and drinking > restaurant > mexican restaurant > taco restaurant,1
4f925c75e4b0a20c259a5402,Taqueria El Poblano,32.620328,-115.422809,Río Presidio,Mexicali,Baja California,,,,,MX,2012-04-21,2020-11-30,,,,,,,,['4bf58dd8d48988d151941735'],['Dining and Drinking > Restaurant > Mexican Restaurant > Taco Restaurant'],b'\x00\x00\x00\x00\x01\xc0\\\xdb\x0fMz\xdd\x16@@Of\xe8le\x84',"{'xmin': -115.422809, 'ymin': 32.620328, 'xmax': -115.422809, 'ymax': 32.620328}",dining and drinking > restaurant > mexican restaurant > taco restaurant,1
5b9168fbf193c0002cc6e615,Xolo Tacos,32.502247,-116.94179,,Tijuana,Baja California,,,,,MX,2018-09-06,2020-11-24,,,,,,,,['4bf58dd8d48988d151941735' '4bf58dd8d48988d153941735'],"['Dining and Drinking > Restaurant > Mexican Restaurant > Taco Restaurant'
 'Dining and Drinking > Restaurant > Mexican Restaurant > Burrito Restaurant']",b'\x00\x00\x00\x00\x01\xc0]<FI\x90l\xca@@@I\xa13\xc1\xce',"{'xmin': -116.94179, 'ymin': 32.502247, 'xmax': -116.94179, 'ymax': 32.502247}","dining and drinking > restaurant > mexican restaurant > taco restaurant, dining and drinking > restaurant > mexican restaurant > burrito restaurant",1
4e07c81e7d8b2a01805d2281,Pinchez Tacos,32.526736,-117.043052,"Supermanzana 510, Jacinto Pat",Cancún,Quintana Roo,77534,,,,MX,2011-06-27,2022-10-08,,,,,,,,['4bf58dd8d48988d151941735'],['Dining and Drinking > Restaurant > Mexican Restaurant > Taco Restaurant'],b'\x00\x00\x00\x00\x01\xc0]B\xc1]-\x01\xc1@@Cl\x15\xd2\xd0\x1c',"{'xmin': -117.043052, 'ymin': 32.526736, 'xmax': -117.043052, 'ymax': 32.526736}",dining and drinking > restaurant > mexican restaurant > taco restaurant,1
4da9e0bbcda1652a2b7f7808,Tacos de borrego las palmitas,32.630162,-115.490309,Las nubes san marcos,Mexicali,Baja California,,,,,MX,2011-04-16,2020-11-23,,,,,,,,['4bf58dd8d48988d151941735'],['Dining and Drinking > Restaurant > Mexican Restaurant > Taco Restaurant'],b'\x00\x00\x00\x00\x01\xc0\\\xdfa8\xff\xfb\xce@@P\xa9%\xfe\x97J',"{'xmin': -115.490309, 'ymin': 32.630162, 'xmax': -115.490309, 'ymax': 32.630162}",dining and drinking > restaurant > mexican restaurant > taco restaurant,1
4c55a56da724e21e274670f8,Tacos Aaron,32.53143577972361,-117.07176284106988,Colonia Soler,Tijuana,Baja California,,,,,MX,2010-08-01,2023-12-19,,664 630 5688,,,,,,['4bf58dd8d48988d151941735' '4bf58dd8d48988d1cb941735'],"['Dining and Drinking > Restaurant > Mexican Restaurant > Taco Restaurant'
 'Dining and Drinking > Food Truck']",b'\x00\x00\x00\x00\x01\xc0]D\x97\xc3+\xdd\xa5@@D\x06\x16n\xeb(',"{'xmin': -117.07176284106988, 'ymin': 32.53143577972361, 'xmax': -117.07176284106988, 'ymax': 32.53143577972361}","dining and drinking > restaurant > mexican restaurant > taco restaurant, dining and drinking > food truck",1
673a8c45ef2b7965af92065f,Tacos El Rey De Tijuana Zona Rio,32.530483,-117.026924,Blvrd Gral M. Márquez de León 1420,Tijuana,Baja California,22010,,,,MX,2024-11-18,2024-11-18,,,,,,,,['4bf58dd8d48988d151941735'],['Dining and Drinking > Restaurant > Mexican Restaurant > Taco Restaurant'],b'\x00\x00\x00\x00\x01\xc0]A\xb9\x1fp\xde\x8f@@C\xe6\xdd\xf0\n\xbf',"{'xmin': -117.026924, 'ymin': 32.530483, 'xmax': -117.026924, 'ymax': 32.530483}",dining and drinking > restaurant > mexican restaurant > taco restaurant,1
52f94e0a498e08409d4e79d9,Tacos de Pescado y Cabeza,32.57845062042695,-115.46886976005122,,,,,,,,MX,2014-02-10,2021-08-14,,,,,,,,['4bf58dd8d48988d151941735'],['Dining and Drinking > Restaurant > Mexican Restaurant > Taco Restaurant'],b'\x00\x00\x00\x00\x01\xc0\\\xde\x01\xf6O`7@@J\n\xab\x80\x8a\xd6',"{'xmin': -115.46886976005122, 'ymin': 32.57845062042695, 'xmax': -115.46886976005122, 'ymax': 32.57845062042695}",dining and drinking > restaurant > mexican restaurant > taco restaurant,1
4db88bd45da3b5fa68c23a27,Gorditas Doña Vicky,32.50507737378494,-116.97335061852304,,Tijuana,BC,,,,,MX,2011-04-27,2021-06-20,,664 621 6922,,,,,,['4bf58dd8d48988d151941735'],['Dining and Drinking > Restaurant > Mexican Restaurant > Taco Restaurant'],b'\x00\x00\x00\x00\x01\xc0]>K`d\x86C@@@\xa6`\x19-\x8e',"{'xmin': -116.97335061852304, 'ymin': 32.50507737378494, 'xmax': -116.97335061852304, 'ymax': 32.50507737378494}",dining and drinking > restaurant > mexican restaurant > taco restaurant,1
5f5c08d87c8b5a768fd7c52a,Asadero El Flaco,32.584804,-115.57109,,Mexicali,BC,21326,,,,MX,2020-09-11,2020-11-23,,,,,,,,['4bf58dd8d48988d151941735'],['Dining and Drinking > Restaurant > Mexican Restaurant > Taco Restaurant'],b'\x00\x00\x00\x00\x01\xc0\\\xe4\x8c\xbd\x12D\xa6@@J\xda\xdb\x83H\xf5',"{'xmin': -115.57109, 'ymin': 32.584804, 'xmax': -115.57109, 'ymax': 32.584804}",dining and drinking > restaurant > mexican restaurant > taco restaurant,1
4d1161d0b69f224b26c97855,Taqueria la Mexico,31.857514340844208,-116.59311462373384,Calle Mexico,Ensenada,Baja California,,,,,MX,2010-12-22,2020-11-22,,,,,,,,['4bf58dd8d48988d151941735'],['Dining and Drinking > Restaurant > Mexican Restaurant > Taco Restaurant'],b'\x00\x00\x00\x00\x01\xc0]%\xf5\x97\t\xed\xd6@?\xdb\x86\x0fQ\xc6\xe1',"{'xmin': -116.59311462373384, 'ymin': 31.857514340844208, 'xmax': -116.59311462373384, 'ymax': 31.857514340844208}",dining and drinking > restaurant > mexican restaurant > taco restaurant,1
4cd67da9b2a43704e5128544,La Taquiza De Chente,32.659622,-115.46802435,Mariano Arista,Mexicali,,,,,,MX,2010-11-07,2020-11-21,,,,,,,,['4bf58dd8d48988d151941735'],['Dining and Drinking > Restaurant > Mexican Restaurant > Taco Restaurant'],b'\x00\x00\x00\x00\x01\xc0\\\xdd\xf4\x1cg>\xd3@@Tn~b\xdcn',"{'xmin': -115.46802435, 'ymin': 32.659622, 'xmax': -115.46802435, 'ymax': 32.659622}",dining and drinking > restaurant > mexican restaurant > taco restaurant,1
50725879e4b07e253d35d64e,TACOVILLA,31.787554,-116.585618,,,,,,,,MX,2012-10-08,2021-08-10,,,,,,,,['4bf58dd8d48988d151941735'],['Dining and Drinking > Restaurant > Mexican Restaurant > Taco Restaurant'],b'\x00\x00\x00\x00\x01\xc0]%z\xc3\xeb|\xbb@?\xc9\x9d#\x91\xd5\x80',"{'xmin': -116.585618, 'ymin': 31.787554, 'xmax': -116.585618, 'ymax': 31.787554}",dining and drinking > restaurant > mexican restaurant > taco restaurant,1
54714558498e69720287ef01,Parador Cholita,19.678615,-101.194857,,,,,,,,MX,2014-11-23,2021-08-16,,,,,,,,['4bf58dd8d48988d151941735'],['Dining and Drinking > Restaurant > Mexican Restaurant > Taco Restaurant'],b'\x00\x00\x00\x00\x01\xc0YLx\x89~\x99c@3\xad\xb9\xb6o\x936',"{'xmin': -101.194857, 'ymin': 19.678615, 'xmax': -101.194857, 'ymax': 19.678615}",dining and drinking > restaurant > mexican restaurant > taco restaurant,1
521a539411d25b1b2e5a7d6a,Quesadillas Doña Mari,21.159605573574964,-101.65626683579029,,,,,,,,MX,2013-08-25,2021-08-17,,,,,,,,['4bf58dd8d48988d151941735'],['Dining and Drinking > Restaurant > Mexican Restaurant > Taco Restaurant'],b'\x00\x00\x00\x00\x01\xc0Yj\x00F\x9dJ\xcc@5(\xdb\xe9.\xc3\x88',"{'xmin': -101.65626683579029, 'ymin': 21.159605573574964, 'xmax': -101.65626683579029, 'ymax': 21.159605573574964}",dining and drinking > restaurant > mexican restaurant > taco restaurant,1
4e7d619e02d5fc42eb8485e2,Tacos Santa Anita,21.89758081242353,-102.27681460619385,Parque Vía Pte.,Aguascalientes,AGS,,,,,MX,2011-09-24,2020-11-22,,,,,,,,['4bf58dd8d48988d151941735'],['Dining and Drinking > Restaurant > Mexican Restaurant > Taco Restaurant'],b'\x00\x00\x00\x00\x01\xc0Y\x91\xb7T\x9c*\x18@5\xe5\xc7\xdb*\xe0M',"{'xmin': -102.27681460619385, 'ymin': 21.89758081242353, 'xmax': -102.27681460619385, 'ymax': 21.89758081242353}",dining and drinking > restaurant > mexican restaurant > taco restaurant,1
5bf595db5f68b9002d50db6e,Tacos Chabelon,21.09693,-101.649665,,León,GTO,37685,,,,MX,2018-11-21,2020-11-24,,,,,,,,['4bf58dd8d48988d151941735'],['Dining and Drinking > Restaurant > Mexican Restaurant > Taco Restaurant'],b'\x00\x00\x00\x00\x01\xc0Yi\x94\x1c\x82\x16\xc6@5\x18\xd0g\x8c\x00T',"{'xmin': -101.649665, 'ymin': 21.09693, 'xmax': -101.649665, 'ymax': 21.09693}",dining and drinking > restaurant > mexican restaurant > taco restaurant,1
580c21d638fa948f616299f8,Tacos El Bebe,20.623734,-103.334265,Cepillo 1270,Guadalajara,Jalisco,44490,,,,MX,2016-10-23,2021-08-12,,,,,,,,['4bf58dd8d48988d151941735'],['Dining and Drinking > Restaurant > Mexican Restaurant > Taco Restaurant'],b'\x00\x00\x00\x00\x01\xc0Y\xd5d\x99\x06\xcc\xa3@4\x9f\xad\x08\x0bg<',"{'xmin': -103.334265, 'ymin': 20.623734, 'xmax': -103.334265, 'ymax': 20.623734}",dining and drinking > restaurant > mexican restaurant > taco restaurant,1
4e4ebc4eaeb70f128496671b,Tacos Los Tarascos,20.63333170031122,-103.42558670071601,Av. Nicolas Copernico No. 4395,Zapopan,JAL,45070,,,,MX,2011-08-19,2020-11-25,,33 3631 7625,http://lostarascos.com.mx,,,,,['4bf58dd8d48988d151941735'],['Dining and Drinking > Restaurant > Mexican Restaurant > Taco Restaurant'],"b'\x00\x00\x00\x00\x01\xc0Y\xdb<\xd0\x00L\x05@4\xa2""\x06\xbc[U'","{'xmin': -103.42558670071601, 'ymin': 20.63333170031122, 'xmax': -103.42558670071601, 'ymax': 20.63333170031122}",dining and drinking > restaurant > mexican restaurant > taco restaurant,1
4dc36960ae608779d108c7e2,Tacos de la Senectud,20.693174,-103.367769,,,,,,,,MX,2011-05-06,2021-08-13,,,,,,,,['4bf58dd8d48988d151941735'],['Dining and Drinking > Restaurant > Mexican Restaurant > Taco Restaurant'],b'\x00\x00\x00\x00\x01\xc0Y\xd7\x89\x86\xfc\xde\xe3@4\xb1s\xd9\xecp\x00',"{'xmin': -103.367769, 'ymin': 20.693174, 'xmax': -103.367769, 'ymax': 20.693174}",dining and drinking > restaurant > mexican restaurant > taco restaurant,1
4e4556cf143b46f1664f93fe,Tacos Mi Tierra,20.627613,-105.220174,Avenida Tules 178 4L,Puerto Vallarta,Jalisco,,,,,MX,2014-12-05,2023-12-06,,322 293 3245,,,,,,['4bf58dd8d48988d151941735'],['Dining and Drinking > Restaurant > Mexican Restaurant > Taco Restaurant'],b'\x00\x00\x00\x00\x01\xc0ZN\x17T\xb0[}@4\xa0\xab>\xdd\x8ba',"{'xmin': -105.220174, 'ymin': 20.627613, 'xmax': -105.220174, 'ymax': 20.627613}",dining and drinking > restaurant > mexican restaurant > taco restaurant,1
4d956fa82bd6f04d99b21e50,Tacos El Patillas,20.685401309213567,-101.35600072332693,Guerrero,"Irapuato, GTO",Guanajuato,,,,,MX,2011-04-01,2020-11-23,,,,,,,,['4bf58dd8d48988d151941735'],['Dining and Drinking > Restaurant > Mexican Restaurant > Taco Restaurant'],b'\x00\x00\x00\x00\x01\xc0YV\xc8\xb7B\x02\xa8@4\xafvu\xcf\xb56',"{'xmin': -101.35600072332693, 'ymin': 20.685401309213567, 'xmax': -101.35600072332693, 'ymax': 20.685401309213567}",dining and drinking > restaurant > mexican restaurant > taco restaurant,1
529d5775498e88d33effb3c3,"Taqueria Vazquez, Desde 1971!",20.67029710054014,-103.27640645456555,Presa Osorio 3738,Guadalajara,Jalisco,,,,,MX,2013-12-03,2023-12-20,,33 3608 4691,,,,,,['4bf58dd8d48988d151941735'],['Dining and Drinking > Restaurant > Mexican Restaurant > Taco Restaurant'],b'\x00\x00\x00\x00\x01\xc0Y\xd1\xb0\xa4\xb2\xb0\xca@4\xab\x98\x97=ll',"{'xmin': -103.27640645456555, 'ymin': 20.67029710054014, 'xmax': -103.27640645456555, 'ymax': 20.67029710054014}",dining and drinking > restaurant > mexican restaurant > taco restaurant,1
502876d2e4b0352ef9f51e0e,Tacos Los Juanes,20.02984834010459,-100.72514093455702,,,,,,,,MX,2012-08-13,2021-08-12,,,,,,,,['4bf58dd8d48988d151941735'],['Dining and Drinking > Restaurant > Mexican Restaurant > Taco Restaurant'],b'\x00\x00\x00\x00\x01\xc0Y.h\xb5\x85\xbas@4\x07\xa4$\x0c\x96\xcf',"{'xmin': -100.72514093455702, 'ymin': 20.02984834010459, 'xmax': -100.72514093455702, 'ymax': 20.02984834010459}",dining and drinking > restaurant > mexican restaurant > taco restaurant,1
599317f49e0d5466cfdbaf22,Tacos Al Vapor Don Dany,20.679043,-103.421159,Av. Vallarta 5060-P,Zapopan,JAL,45111,,,,MX,2017-08-15,2020-11-23,,,,,,,,['4bf58dd8d48988d151941735'],['Dining and Drinking > Restaurant > Mexican Restaurant > Taco Restaurant'],b'\x00\x00\x00\x00\x01\xc0Y\xda\xf4D\xe0\xda\xa1@4\xad\xd5\xc3\x15\x93\xe6',"{'xmin': -103.421159, 'ymin': 20.679043, 'xmax': -103.421159, 'ymax': 20.679043}",dining and drinking > restaurant > mexican restaurant > taco restaurant,1
508c47a4e4b0ad933c0d8797,Carnes Asadas Mode,20.681057917490815,-103.32175196566024,Esteban Loera,Guadalajara,,,,,,MX,2012-10-27,2021-08-16,,,,,,,,['4bf58dd8d48988d151941735'],['Dining and Drinking > Restaurant > Mexican Restaurant > Taco Restaurant'],b'\x00\x00\x00\x00\x01\xc0Y\xd4\x97\x95\x8e{\xce@4\xaeY\xcf\xcaN\x0f',"{'xmin': -103.32175196566024, 'ymin': 20.681057917490815, 'xmax': -103.32175196566024, 'ymax': 20.681057917490815}",dining and drinking > restaurant > mexican restaurant > taco restaurant,1
56a11c2c498e8525b6fcef9f,Tortas La Michoacana,20.657248749802175,-103.32872183428596,,,,,,,,MX,2016-01-21,2021-08-14,,,,,,,,['4bf58dd8d48988d151941735'],['Dining and Drinking > Restaurant > Mexican Restaurant > Taco Restaurant'],b'\x00\x00\x00\x00\x01\xc0Y\xd5\t\xc7M\xefQ@4\xa8At=\xbc\xbb',"{'xmin': -103.32872183428596, 'ymin': 20.657248749802175, 'xmax': -103.32872183428596, 'ymax': 20.657248749802175}",dining and drinking > restaurant > mexican restaurant > taco restaurant,1
52c63729498e92724795602b,Taquería las brasas de oaxaca,21.0941106874617,-101.64459755701155,Blvd San Pedro,León,Guanajuato,,,,,MX,2014-01-03,2020-11-21,,,,,,,,['4bf58dd8d48988d151941735'],['Dining and Drinking > Restaurant > Mexican Restaurant > Taco Restaurant'],"b'\x00\x00\x00\x00\x01\xc0YiA\x16\x1c\x9c\x8d@5\x18\x17\xa3T\xda""'","{'xmin': -101.64459755701155, 'ymin': 21.0941106874617, 'xmax': -101.64459755701155, 'ymax': 21.0941106874617}",dining and drinking > restaurant > mexican restaurant > taco restaurant,1
4fb48f99e4b023886a40d95e,Tacos el Gallo,20.62755013759654,-105.22857423294828,Avila Camacho 251,Puerto Vallarta,Jalisco,,,,,MX,2012-05-17,2020-11-30,,322 118 6474,,,,,,['4bf58dd8d48988d151941735'],['Dining and Drinking > Restaurant > Mexican Restaurant > Taco Restaurant'],"b""\x00\x00\x00\x00\x01\xc0ZN\xa0\xf5\xd1\xce'@4\xa0\xa7 5\x93\xd3""","{'xmin': -105.22857423294828, 'ymin': 20.62755013759654, 'xmax': -105.22857423294828, 'ymax': 20.62755013759654}",dining and drinking > restaurant > mexican restaurant > taco restaurant,1
56f02601498ed31b246d5166,Tacos de Canasta Genesis del Rosario,21.163077,-101.683804,,,,,,,,MX,2016-03-21,2021-08-12,,,,,,,,['4bf58dd8d48988d151941735'],['Dining and Drinking > Restaurant > Mexican Restaurant > Taco Restaurant'],b'\x00\x00\x00\x00\x01\xc0Yk\xc3q\xda7\xef@5)\xbfj\r\xba\xd4',"{'xmin': -101.683804, 'ymin': 21.163077, 'xmax': -101.683804, 'ymax': 21.163077}",dining and drinking > restaurant > mexican restaurant > taco restaurant,1
501169e9e4b0c8f1ec8789be,Tacos al vapor el 22,20.581381,-101.194317,,,,,,,,MX,2012-07-26,2021-08-16,,,,,,,,['4bf58dd8d48988d151941735'],['Dining and Drinking > Restaurant > Mexican Restaurant > Taco Restaurant'],b'\x00\x00\x00\x00\x01\xc0YLo\xb0\x92\x03\xa3@4\x94\xd5b\x9d\x84\n',"{'xmin': -101.194317, 'ymin': 20.581381, 'xmax': -101.194317, 'ymax': 20.581381}",dining and drinking > restaurant > mexican restaurant > taco restaurant,1
5640029bcd10022bea4b1d35,Tacos La Obrera,20.54966559732885,-100.68223024804227,,,,,,,,MX,2015-11-09,2021-08-15,,,,,,,,['4bf58dd8d48988d151941735'],['Dining and Drinking > Restaurant > Mexican Restaurant > Taco Restaurant'],b'\x00\x00\x00\x00\x01\xc0Y+\xa9\xa9\x0e\xeb\xbf@4\x8c\xb6\xe2tC\x83',"{'xmin': -100.68223024804227, 'ymin': 20.54966559732885, 'xmax': -100.68223024804227, 'ymax': 20.54966559732885}",dining and drinking > restaurant > mexican restaurant > taco restaurant,1
64fbd20bd1a94d5250302c4a,Taqueria La Plaza,21.043578,-103.429194,,San Cristóbal de la Barranca,Jal.,45250,,,,MX,2023-09-09,2023-09-09,,,,,,,,['4bf58dd8d48988d151941735'],['Dining and Drinking > Restaurant > Mexican Restaurant > Taco Restaurant'],"b""\x00\x00\x00\x00\x01\xc0Y\xdbw\xea\x1ch\xec@5\x0b'\xed\x84\xd39""","{'xmin': -103.429194, 'ymin': 21.043578, 'xmax': -103.429194, 'ymax': 21.043578}",dining and drinking > restaurant > mexican restaurant > taco restaurant,1
51c52796498e5d4dead5c254,Tacos El Chavalon,20.372802,-102.025572,,,,,,,,MX,2013-06-22,2021-08-13,,,,,,,,['4bf58dd8d48988d151941735'],['Dining and Drinking > Restaurant > Mexican Restaurant > Taco Restaurant'],b'\x00\x00\x00\x00\x01\xc0Y\x81\xa2\xf8\xbd\xec_@4_o\xf3\xad\xe2&',"{'xmin': -102.025572, 'ymin': 20.372802, 'xmax': -102.025572, 'ymax': 20.372802}",dining and drinking > restaurant > mexican restaurant > taco restaurant,1
4f2af22de4b09f4f37e47cbf,Tacos Don Jose,20.681184010652363,-103.4463592591721,Circunvalación Poniente,,,,,,,MX,2012-02-02,2021-08-16,,,,,,,,['4bf58dd8d48988d151941735'],['Dining and Drinking > Restaurant > Mexican Restaurant > Taco Restaurant'],b'\x00\x00\x00\x00\x01\xc0Y\xdc\x91&m\x1aM@4\xaeb\x13HO]',"{'xmin': -103.4463592591721, 'ymin': 20.681184010652363, 'xmax': -103.4463592591721, 'ymax': 20.681184010652363}",dining and drinking > restaurant > mexican restaurant > taco restaurant,1
541487ca498e05d0b8b429ba,Dos Salsas Asadas,20.745861,-103.370175,Jardines De Los Claveles 1545,Zapopan,Jalisco,,,,,MX,2014-09-13,2020-11-30,,,,,,,,['4bf58dd8d48988d151941735'],['Dining and Drinking > Restaurant > Mexican Restaurant > Taco Restaurant'],b'\x00\x00\x00\x00\x01\xc0Y\xd7\xb0\xf2{\xb2\xff@4\xbe\xf0\xbf\x1a\\\xa3',"{'xmin': -103.370175, 'ymin': 20.745861, 'xmax': -103.370175, 'ymax': 20.745861}",dining and drinking > restaurant > mexican restaurant > taco restaurant,1
51dced68498ecadfaff03043,"Taqueria "" La chiquita """,21.501535971775983,-104.89122875733545,,,,,,,,MX,2013-07-10,2021-08-15,,,,,,,,['4bf58dd8d48988d151941735'],['Dining and Drinking > Restaurant > Mexican Restaurant > Taco Restaurant'],b'\x00\x00\x00\x00\x01\xc0Z9\t\xe4W\x80\xac@5\x80d\xa9T\x8b\xa1',"{'xmin': -104.89122875733545, 'ymin': 21.501535971775983, 'xmax': -104.89122875733545, 'ymax': 21.501535971775983}",dining and drinking > restaurant > mexican restaurant > taco restaurant,1
58975bceb792071c9e257e1c,el primo,20.347541,-102.028288,,,,,,,,MX,2017-02-05,2021-08-16,,,,,,,,['4bf58dd8d48988d151941735'],['Dining and Drinking > Restaurant > Mexican Restaurant > Taco Restaurant'],b'\x00\x00\x00\x00\x01\xc0Y\x81\xcfxx\xb7\xa2@4X\xf8rm\x04\xe6',"{'xmin': -102.028288, 'ymin': 20.347541, 'xmax': -102.028288, 'ymax': 20.347541}",dining and drinking > restaurant > mexican restaurant > taco restaurant,1
4e50642cd164978659d905bd,Tacos El Titi,20.70103,-103.338689,,Guadalajara,Jalisco,,,,,MX,2011-08-21,2021-08-11,,,,,,,,['4bf58dd8d48988d151941735'],['Dining and Drinking > Restaurant > Mexican Restaurant > Taco Restaurant'],b'\x00\x00\x00\x00\x01\xc0Y\xd5\xad\x14\xa0\xa0\xf5@4\xb3v\xb3\xbb\x83\xcf',"{'xmin': -103.338689, 'ymin': 20.70103, 'xmax': -103.338689, 'ymax': 20.70103}",dining and drinking > restaurant > mexican restaurant > taco restaurant,1
5792e302498e08d5cd649c61,"Taquería ""El Gallito""",20.915569,-100.759372,Calz. de La Estación,San Miguel de Allende,Guanajuato,,,,,MX,2016-07-23,2023-12-21,,415 150 7012,,,,,,['4bf58dd8d48988d151941735'],['Dining and Drinking > Restaurant > Mexican Restaurant > Taco Restaurant'],b'\x00\x00\x00\x00\x01\xc0Y0\x99\x8d\x04_\xe1@4\xeab\xba\xe0;?',"{'xmin': -100.759372, 'ymin': 20.915569, 'xmax': -100.759372, 'ymax': 20.915569}",dining and drinking > restaurant > mexican restaurant > taco restaurant,1
4d62a979e4fe5481a3f0989e,Tacos De Canasta Sí Señor,21.924605215316184,-102.30420111868571,Blvd Luis Donaldo Colosio,Aguascalientes,AGS,,,,,MX,2011-02-21,2020-11-30,,,http://tacosdecanastasisenor.com.mx,,,,,['4bf58dd8d48988d151941735'],['Dining and Drinking > Restaurant > Mexican Restaurant > Taco Restaurant'],b'\x00\x00\x00\x00\x01\xc0Y\x93x\x07\xf8\nZ@5\xec\xb2\xedi~z',"{'xmin': -102.30420111868571, 'ymin': 21.924605215316184, 'xmax': -102.30420111868571, 'ymax': 21.924605215316184}",dining and drinking > restaurant > mexican restaurant > taco restaurant,1
56fc0f25498e0190e56703ff,Birrieria El Fundador,21.8801,-102.29437,,,,,,,,MX,2016-03-30,2021-08-16,,,,,,,,['4bf58dd8d48988d151941735'],['Dining and Drinking > Restaurant > Mexican Restaurant > Taco Restaurant'],b'\x00\x00\x00\x00\x01\xc0Y\x92\xd6\xf5D\xbb\x1b@5\xe1N;\xcd5\xa8',"{'xmin': -102.29437, 'ymin': 21.8801, 'xmax': -102.29437, 'ymax': 21.8801}",dining and drinking > restaurant > mexican restaurant > taco restaurant,1
5d085d7d2d2fd9002ca95ea5,Taqueria Mixes,22.186024,-100.941507,,Soledad de Graciano Sánchez,S.L.P.,78430,,,,MX,2019-06-18,2020-11-26,,,,,,,,['4bf58dd8d48988d151941735'],['Dining and Drinking > Restaurant > Mexican Restaurant > Taco Restaurant'],b'\x00\x00\x00\x00\x01\xc0Y<A\xa6\x93} @6/\x9fD\xd4Eg',"{'xmin': -100.941507, 'ymin': 22.186024, 'xmax': -100.941507, 'ymax': 22.186024}",dining and drinking > restaurant > mexican restaurant > taco restaurant,1
52da0418498e5fbb9c9e8c59,"Taco ""H""",21.0820255279541,-101.6188735961914,,,,,,,,MX,2014-01-18,2021-08-13,,,,,,,,['4bf58dd8d48988d151941735'],['Dining and Drinking > Restaurant > Mexican Restaurant > Taco Restaurant'],b'\x00\x00\x00\x00\x01\xc0Yg\x9b\xa0\x00\x00\x00@5\x14\xff\xa0\x00\x00\x00',"{'xmin': -101.6188735961914, 'ymin': 21.0820255279541, 'xmax': -101.6188735961914, 'ymax': 21.0820255279541}",dining and drinking > restaurant > mexican restaurant > taco restaurant,1
50cfb89be4b04dd3b1376b84,Takoketon,20.64752,-103.359096,,,,,,,,MX,2012-12-18,2021-08-12,,,,,,,,['4bf58dd8d48988d151941735'],['Dining and Drinking > Restaurant > Mexican Restaurant > Taco Restaurant'],b'\x00\x00\x00\x00\x01\xc0Y\xd6\xfbm\xca\x07\xf6@4\xa5\xc3\xde\xe7\x81\x84',"{'xmin': -103.359096, 'ymin': 20.64752, 'xmax': -103.359096, 'ymax': 20.64752}",dining and drinking > restaurant > mexican restaurant > taco restaurant,1
523f27c1498e86b4a69f232a,Carnitas Chambery,21.495790204005253,-104.87810881147502,Avenida Principal 113,,Nayarit,63000,,,,MX,2013-09-22,2021-08-11,,,,,,,,['4bf58dd8d48988d151941735'],['Dining and Drinking > Restaurant > Mexican Restaurant > Taco Restaurant'],b'\x00\x00\x00\x00\x01\xc0Z82\xefL\xe7V@5~\xec\x1bW\xe16',"{'xmin': -104.87810881147502, 'ymin': 21.495790204005253, 'xmax': -104.87810881147502, 'ymax': 21.495790204005253}",dining and drinking > restaurant > mexican restaurant > taco restaurant,1
581ead2ed22e7b0ffe09a976,Ricos Tacos De Asada,20.756702,-103.40019,Avenida Valdepeñas 8686,Nuevo México,Jalisco,,,,,MX,2016-11-06,2020-11-23,,,,,,,,['4bf58dd8d48988d151941735'],['Dining and Drinking > Restaurant > Mexican Restaurant > Taco Restaurant'],b'\x00\x00\x00\x00\x01\xc0Y\xd9\x9c\xb6\x84\x8b\xeb@4\xc1\xb78\xe6\xd1[',"{'xmin': -103.40019, 'ymin': 20.756702, 'xmax': -103.40019, 'ymax': 20.756702}",dining and drinking > restaurant > mexican restaurant > taco restaurant,1
525cb41411d29b683dfe0121,tacos mario,20.640254974365234,-103.40251922607422,,,,,,,,MX,2013-10-15,2021-08-14,,,,,,,,['4bf58dd8d48988d151941735'],['Dining and Drinking > Restaurant > Mexican Restaurant > Taco Restaurant'],b'\x00\x00\x00\x00\x01\xc0Y\xd9\xc2\xe0\x00\x00\x00@4\xa3\xe7\xc0\x00\x00\x00',"{'xmin': -103.40251922607422, 'ymin': 20.640254974365234, 'xmax': -103.40251922607422, 'ymax': 20.640254974365234}",dining and drinking > restaurant > mexican restaurant > taco restaurant,1
4f04aef830f8dd7f43670b78,Quesadillas Gaspe,20.543145106573487,-100.82071578644748,"Av Tecnológico, Celaya, GTO",Celaya,Guanajuato,,,,,MX,2012-01-04,2023-02-23,,,,,,,,['4bf58dd8d48988d151941735'],['Dining and Drinking > Restaurant > Mexican Restaurant > Taco Restaurant'],b'\x00\x00\x00\x00\x01\xc0Y4\x86\x9b\x81\x86\x95@4\x8b\x0b\x8e\xc5\xb7/',"{'xmin': -100.82071578644748, 'ymin': 20.543145106573487, 'xmax': -100.82071578644748, 'ymax': 20.543145106573487}",dining and drinking > restaurant > mexican restaurant > taco restaurant,1
5504ee0c498e4fa986e0532f,tacos moy ciudad granja,20.680069,-103.453166,,,,,,,,MX,2015-03-15,2021-08-13,,,,,,,,['4bf58dd8d48988d151941735'],['Dining and Drinking > Restaurant > Mexican Restaurant > Taco Restaurant'],b'\x00\x00\x00\x00\x01\xc0Y\xdd\x00\xab\xf7j/@4\xae\x19\x00\x82\x05\xff',"{'xmin': -103.453166, 'ymin': 20.680069, 'xmax': -103.453166, 'ymax': 20.680069}",dining and drinking > restaurant > mexican restaurant > taco restaurant,1
4f4d2ccee4b087ae22cc88d2,Tacos de Cochinita,21.86388847441859,-102.26971634169561,,,,,,,,MX,2012-02-28,2021-08-13,,,,,,,,['4bf58dd8d48988d151941735'],['Dining and Drinking > Restaurant > Mexican Restaurant > Taco Restaurant'],"b""\x00\x00\x00\x00\x01\xc0Y\x91C\x08T\xb1\xe2@5\xdd'\xcb\x89\x04\xe9""","{'xmin': -102.26971634169561, 'ymin': 21.86388847441859, 'xmax': -102.26971634169561, 'ymax': 21.86388847441859}",dining and drinking > restaurant > mexican restaurant > taco restaurant,1
4e74abee88775d593d98a30a,La Barbacha,20.68030811184015,-103.3881534257531,Av. México 2830,,,,,,,MX,2011-09-17,2023-12-21,,33 3640 3443,,,,,,['4bf58dd8d48988d151941735'],['Dining and Drinking > Restaurant > Mexican Restaurant > Taco Restaurant'],b'\x00\x00\x00\x00\x01\xc0Y\xd8\xd7\x81w\\(@4\xae(\xac#\x8e\x95',"{'xmin': -103.3881534257531, 'ymin': 20.68030811184015, 'xmax': -103.3881534257531, 'ymax': 20.68030811184015}",dining and drinking > restaurant > mexican restaurant > taco restaurant,1
4f5d5b6ee4b0ea859a607537,tacos el paisa alamos,20.528390282439684,-100.85035825192647,,,,,,,,MX,2012-03-12,2021-08-12,,,,,,,,['4bf58dd8d48988d151941735'],['Dining and Drinking > Restaurant > Mexican Restaurant > Taco Restaurant'],b'\x00\x00\x00\x00\x01\xc0Y6lE\x04z\x1b@4\x87D\x95\xe6\x9aG',"{'xmin': -100.85035825192647, 'ymin': 20.528390282439684, 'xmax': -100.85035825192647, 'ymax': 20.528390282439684}",dining and drinking > restaurant > mexican restaurant > taco restaurant,1
56673a88498ebdf35860e984,Tacos y Gorditas,20.693818172194717,-103.37834527600003,,,,,,,,MX,2015-12-08,2021-08-14,,,,,,,,['4bf58dd8d48988d151941735'],['Dining and Drinking > Restaurant > Mexican Restaurant > Taco Restaurant'],b'\x00\x00\x00\x00\x01\xc0Y\xd86\xcf\x1a\xc1\n@4\xb1\x9e\x11V\xf2b',"{'xmin': -103.37834527600003, 'ymin': 20.693818172194717, 'xmax': -103.37834527600003, 'ymax': 20.693818172194717}",dining and drinking > restaurant > mexican restaurant > taco restaurant,1
5044e9dfe4b06c0c2d33e8a7,Tacos Zaragoza Pedro Moreno,20.67542762944809,-103.37008652046121,Pedro Moreno 1545,Guadalajara,Jalisco,,,,,MX,2012-09-03,2021-08-14,,,,,,,,['4bf58dd8d48988d151941735'],['Dining and Drinking > Restaurant > Mexican Restaurant > Taco Restaurant'],b'\x00\x00\x00\x00\x01\xc0Y\xd7\xaf\x7f_\x84\x91@4\xac\xe8\xd3;K[',"{'xmin': -103.37008652046121, 'ymin': 20.67542762944809, 'xmax': -103.37008652046121, 'ymax': 20.67542762944809}",dining and drinking > restaurant > mexican restaurant > taco restaurant,1
6322070c2633d331fe435cf0,Tacos dorados Cancino,20.683089,-103.365026,,Guadalajara,JAL,44600,,,,MX,2022-09-14,2022-09-14,,,,,,,,['4bf58dd8d48988d151941735'],['Dining and Drinking > Restaurant > Mexican Restaurant > Taco Restaurant'],b'\x00\x00\x00\x00\x01\xc0Y\xd7\\\x96\x03\x0c$@4\xae\xde\xeb\xb3A\xe1',"{'xmin': -103.365026, 'ymin': 20.683089, 'xmax': -103.365026, 'ymax': 20.683089}",dining and drinking > restaurant > mexican restaurant > taco restaurant,1
4cde08f170bba1cd8ef75dc4,Los Arandenses,22.17059014139145,-101.0026808894606,,,,,,,,MX,2010-11-13,2021-08-15,,,,,,,,['4bf58dd8d48988d151941735'],['Dining and Drinking > Restaurant > Mexican Restaurant > Taco Restaurant'],b'\x00\x00\x00\x00\x01\xc0Y@+\xecw#\xae@6+\xab\xcb\xa6K\xda',"{'xmin': -101.0026808894606, 'ymin': 22.17059014139145, 'xmax': -101.0026808894606, 'ymax': 22.17059014139145}",dining and drinking > restaurant > mexican restaurant > taco restaurant,1
535ab913498e0759a47a96a6,El taconazo,20.729373931884766,-103.38896179199219,,,,,,,,MX,2014-04-25,2021-08-13,,,,,,,,['4bf58dd8d48988d151941735'],['Dining and Drinking > Restaurant > Mexican Restaurant > Taco Restaurant'],b'\x00\x00\x00\x00\x01\xc0Y\xd8\xe4\xc0\x00\x00\x00@4\xba\xb8@\x00\x00\x00',"{'xmin': -103.38896179199219, 'ymin': 20.729373931884766, 'xmax': -103.38896179199219, 'ymax': 20.729373931884766}",dining and drinking > restaurant > mexican restaurant > taco restaurant,1
4ef7f02d490124bf99e258e7,Tacos Telefonicos,20.0371275705236,-100.72278493115249,1ro De Mayo,,,,,,,MX,2011-12-26,2021-08-16,,,,,,,,['4bf58dd8d48988d151941735'],['Dining and Drinking > Restaurant > Mexican Restaurant > Taco Restaurant'],b'\x00\x00\x00\x00\x01\xc0Y.B\x1b\xbaU\xdc@4\t\x811E-\xc6',"{'xmin': -100.72278493115249, 'ymin': 20.0371275705236, 'xmax': -100.72278493115249, 'ymax': 20.0371275705236}",dining and drinking > restaurant > mexican restaurant > taco restaurant,1
6594d9e0eaeae405ce2e51a2,Ascencio Taco,20.633953,-105.229413,,Puerto Vallarta,Jal.,48310,,,,MX,2024-01-03,2024-10-16,,322 160 4270,,,,,,['4bf58dd8d48988d151941735'],['Dining and Drinking > Restaurant > Mexican Restaurant > Taco Restaurant'],b'\x00\x00\x00\x00\x01\xc0ZN\xae\xb3\xdd\x11\xbe@4\xa2J\xbej3{',"{'xmin': -105.229413, 'ymin': 20.633953, 'xmax': -105.229413, 'ymax': 20.633953}",dining and drinking > restaurant > mexican restaurant > taco restaurant,1
5f6ccd6b4b658e2faabc26db,Cocina Del Valle,21.484981,-104.882919,Avenida De La Cultura 92,Tepic,NAY,63199,,,,MX,2020-09-24,2023-09-13,,,,,,,,"['52e81612bcbc57f1066b7a00' '4bf58dd8d48988d151941735'
 '4bf58dd8d48988d1c1941735']","['Dining and Drinking > Restaurant > Comfort Food Restaurant'
 'Dining and Drinking > Restaurant > Mexican Restaurant > Taco Restaurant'
 'Dining and Drinking > Restaurant > Mexican Restaurant']","b""\x00\x00\x00\x00\x01\xc0Z8\x81\xbe\xb1\x81\x17@5|'\xb6\xfe.o""","{'xmin': -104.882919, 'ymin': 21.484981, 'xmax': -104.882919, 'ymax': 21.484981}","dining and drinking > restaurant > comfort food restaurant, dining and drinking > restaurant > mexican restaurant > taco restaurant, dining and drinking > restaurant > mexican restaurant",1
53f3f2c1498ed6c7c68462b7,Tacos al Carbon Don Francisco,20.62714006074928,-103.48203119046151,,,,,,,,MX,2014-08-20,2021-08-12,,,,,,,,['4bf58dd8d48988d151941735'],['Dining and Drinking > Restaurant > Mexican Restaurant > Taco Restaurant'],b'\x00\x00\x00\x00\x01\xc0Y\xde\xd9\x99Y\xab\xc9@4\xa0\x8c@B\xed\xfb',"{'xmin': -103.48203119046151, 'ymin': 20.62714006074928, 'xmax': -103.48203119046151, 'ymax': 20.62714006074928}",dining and drinking > restaurant > mexican restaurant > taco restaurant,1
5431a0ec498e0f6206ec4999,La Cocina de Yoyis,20.665217513265187,-103.4367810604463,,,,,,,,MX,2012-05-23,2021-11-29,,,,,,,,['4bf58dd8d48988d151941735'],['Dining and Drinking > Restaurant > Mexican Restaurant > Taco Restaurant'],b'\x00\x00\x00\x00\x01\xc0Y\xdb\xf48\x8c\x88B@4\xaaK\xb1\xe83O',"{'xmin': -103.4367810604463, 'ymin': 20.665217513265187, 'xmax': -103.4367810604463, 'ymax': 20.665217513265187}",dining and drinking > restaurant > mexican restaurant > taco restaurant,1
57e36092498e97d86c7dcffe,Tacos Los 3 Toños,20.63365,-103.33932,,Guadalajara,Jalisco,,,,,MX,2016-09-22,2021-08-12,,,,,,,,['4bf58dd8d48988d151941735'],['Dining and Drinking > Restaurant > Mexican Restaurant > Taco Restaurant'],b'\x00\x00\x00\x00\x01\xc0Y\xd5\xb7k;\xb8=@4\xa26\xe2\xeb\x1cC',"{'xmin': -103.33932, 'ymin': 20.63365, 'xmax': -103.33932, 'ymax': 20.63365}",dining and drinking > restaurant > mexican restaurant > taco restaurant,1
4c1eda2c131c9c743667f808,Tacos de Barbacoa Arturo,20.676204667065477,-103.35881485344157,Morelos 957,"Guadalajara, Jalisco",México,44160,,,,MX,2010-06-21,2021-08-14,,33 3826 9105,,,,,,['4bf58dd8d48988d151941735'],['Dining and Drinking > Restaurant > Mexican Restaurant > Taco Restaurant'],b'\x00\x00\x00\x00\x01\xc0Y\xd6\xf6\xd2\x936p@4\xad\x1b\xbf\xc2r\xe4',"{'xmin': -103.35881485344157, 'ymin': 20.676204667065477, 'xmax': -103.35881485344157, 'ymax': 20.676204667065477}",dining and drinking > restaurant > mexican restaurant > taco restaurant,1
4ef12b6a0aaf411421eea44f,Tacos Del Tunel,20.60418017546817,-105.23072839092124,,Puerto Vallarta,Jalisco,,,,,MX,2011-12-21,2020-11-25,,,,,,,,['4bf58dd8d48988d151941735' '4bf58dd8d48988d1c1941735'],"['Dining and Drinking > Restaurant > Mexican Restaurant > Taco Restaurant'
 'Dining and Drinking > Restaurant > Mexican Restaurant']",b'\x00\x00\x00\x00\x01\xc0ZN\xc4A\x03P\xfd@4\x9a\xab\x8dN\x86\xff',"{'xmin': -105.23072839092124, 'ymin': 20.60418017546817, 'xmax': -105.23072839092124, 'ymax': 20.60418017546817}","dining and drinking > restaurant > mexican restaurant > taco restaurant, dining and drinking > restaurant > mexican restaurant",1
64910965b524e76deae2dcef,Tacos Checo,20.655018,-103.293898,,Guadalajara,JAL,44810,,,,MX,2023-06-20,2023-06-20,,,,,,,,['4bf58dd8d48988d151941735'],['Dining and Drinking > Restaurant > Mexican Restaurant > Taco Restaurant'],b'\x00\x00\x00\x00\x01\xc0Y\xd2\xcf9\x8e\x97\x07@4\xa7\xafBxJ\x94',"{'xmin': -103.293898, 'ymin': 20.655018, 'xmax': -103.293898, 'ymax': 20.655018}",dining and drinking > restaurant > mexican restaurant > taco restaurant,1
4e5310ca1495a46b65b34ada,Tacos Compayes,20.682044,-103.412023,,Zapopan,Jalisco,,,,,MX,2011-08-23,2020-11-25,,,,,,,,['4bf58dd8d48988d151941735'],['Dining and Drinking > Restaurant > Mexican Restaurant > Taco Restaurant'],b'\x00\x00\x00\x00\x01\xc0Y\xda^\x95\xb7\x8c\xca@4\xae\x9ao\x82n\xdb',"{'xmin': -103.412023, 'ymin': 20.682044, 'xmax': -103.412023, 'ymax': 20.682044}",dining and drinking > restaurant > mexican restaurant > taco restaurant,1
4e50d7f718a8af30fd99111c,El Tacón de Zapata,20.66673608477436,-103.43176929980194,Rafael Sanzio,Guadalajara,Jalisco,45035,,,,MX,2011-08-21,2020-11-25,2017-01-10,,,,,,,['4bf58dd8d48988d151941735'],['Dining and Drinking > Restaurant > Mexican Restaurant > Taco Restaurant'],b'\x00\x00\x00\x00\x01\xc0Y\xdb\xa2\x1b\xb3\x84<@4\xaa\xaf7O+A',"{'xmin': -103.43176929980194, 'ymin': 20.66673608477436, 'xmax': -103.43176929980194, 'ymax': 20.66673608477436}",dining and drinking > restaurant > mexican restaurant > taco restaurant,1
53bdf9df498e6cded94c00ce,tacos el torito,20.68532371520996,-103.42031860351562,Av Patria,,jalisco,,,,,MX,2014-07-10,2021-08-13,,,,,,,,['4bf58dd8d48988d151941735'],['Dining and Drinking > Restaurant > Mexican Restaurant > Taco Restaurant'],b'\x00\x00\x00\x00\x01\xc0Y\xda\xe6\x80\x00\x00\x00@4\xafq`\x00\x00\x00',"{'xmin': -103.42031860351562, 'ymin': 20.68532371520996, 'xmax': -103.42031860351562, 'ymax': 20.68532371520996}",dining and drinking > restaurant > mexican restaurant > taco restaurant,1
5093ef71e4b0f17ed49e22cf,Taqueria el pastorcito,20.67412,-103.35452,,Guadalajara,,,,,,MX,2012-11-02,2021-08-15,,,,,,,,['4bf58dd8d48988d151941735'],['Dining and Drinking > Restaurant > Mexican Restaurant > Taco Restaurant'],b'\x00\x00\x00\x00\x01\xc0Y\xd6\xb0t\xa7q\xc9@4\xac\x93 \xd9\x94[',"{'xmin': -103.35452, 'ymin': 20.67412, 'xmax': -103.35452, 'ymax': 20.67412}",dining and drinking > restaurant > mexican restaurant > taco restaurant,1
61c4a064643b1d1999a3806d,Carnitas El Serrucho,20.757792,-105.34018,,Bucerías,Nayarit,63732,,,,MX,2021-12-23,2021-12-23,,,,,,,,['4bf58dd8d48988d1c1941735' '4bf58dd8d48988d151941735'],"['Dining and Drinking > Restaurant > Mexican Restaurant'
 'Dining and Drinking > Restaurant > Mexican Restaurant > Taco Restaurant']",b'\x00\x00\x00\x00\x01\xc0ZU\xc5\x82U\xb06@4\xc1\xfe\xa8\x11+\xa1',"{'xmin': -105.34018, 'ymin': 20.757792, 'xmax': -105.34018, 'ymax': 20.757792}","dining and drinking > restaurant > mexican restaurant, dining and drinking > restaurant > mexican restaurant > taco restaurant",1
5a887941a2c00b33c0a06f3c,Taco Jhon,20.628849,-103.420121,Av Copernico,Zapopan,JAL,45070,,,,MX,2018-02-17,2020-11-22,,,,,,,,['4bf58dd8d48988d151941735'],['Dining and Drinking > Restaurant > Mexican Restaurant > Taco Restaurant'],b'\x00\x00\x00\x00\x01\xc0Y\xda\xe3C0\xd78@4\xa0\xfc?\x81\x1fO',"{'xmin': -103.420121, 'ymin': 20.628849, 'xmax': -103.420121, 'ymax': 20.628849}",dining and drinking > restaurant > mexican restaurant > taco restaurant,1
4d4d8dcefe7fb1f7db945d42,Omar Carlos,20.656377738580282,-103.42401369738708,Av. Manuel J. Clouthier 1682,Zapopan,JAL,,,,,MX,2011-02-05,2024-05-05,,33 3125 2492,http://omarcarlos.com,,353565751348590.0,,,['4bf58dd8d48988d151941735'],['Dining and Drinking > Restaurant > Mexican Restaurant > Taco Restaurant'],b'\x00\x00\x00\x00\x01\xc0Y\xdb#\nX\xd5Y@4\xa8\x08_\x19\x06V',"{'xmin': -103.42401369738708, 'ymin': 20.656377738580282, 'xmax': -103.42401369738708, 'ymax': 20.656377738580282}",dining and drinking > restaurant > mexican restaurant > taco restaurant,1
500b1ab5e4b098bae2dbab83,Tacos y Tortas Matty,19.118242263793945,-104.35261535644531,,,,,,,,MX,2012-07-21,2021-08-15,,,,,,,,['4bf58dd8d48988d151941735'],['Dining and Drinking > Restaurant > Mexican Restaurant > Taco Restaurant'],b'\x00\x00\x00\x00\x01\xc0Z\x16\x91@\x00\x00\x00@3\x1eE \x00\x00\x00',"{'xmin': -104.35261535644531, 'ymin': 19.118242263793945, 'xmax': -104.35261535644531, 'ymax': 19.118242263793945}",dining and drinking > restaurant > mexican restaurant > taco restaurant,1
4d8432ee11da6a31dc81b662,Taqueria La Flor de Michoacan,20.638191210706836,-103.37552564180996,Lopez de Legaspi 1725,Guadalajara,Jalisco,,,,,MX,2011-03-19,2021-08-12,,,,,,,,['4bf58dd8d48988d151941735'],['Dining and Drinking > Restaurant > Mexican Restaurant > Taco Restaurant'],b'\x00\x00\x00\x00\x01\xc0Y\xd8\x08\x9c\xb3\x98\x86@4\xa3`\x7f\xca\x94\x9c',"{'xmin': -103.37552564180996, 'ymin': 20.638191210706836, 'xmax': -103.37552564180996, 'ymax': 20.638191210706836}",dining and drinking > restaurant > mexican restaurant > taco restaurant,1
4e3191e518380c94acac5e12,Tacos Los De Arrachera De Vic,20.53244947252302,-100.82841938820451,Calle Las Américas,Celaya,Guanajuato,,,,,MX,2011-07-28,2020-11-30,,,,,,,,['4bf58dd8d48988d151941735'],['Dining and Drinking > Restaurant > Mexican Restaurant > Taco Restaurant'],b'\x00\x00\x00\x00\x01\xc0Y5\x04\xd2\xc0\xed|@4\x88N\x9b\xcfBB',"{'xmin': -100.82841938820451, 'ymin': 20.53244947252302, 'xmax': -100.82841938820451, 'ymax': 20.53244947252302}",dining and drinking > restaurant > mexican restaurant > taco restaurant,1
5157b29de4b0ddfa2babc5d2,tacos beto,20.141965866088867,-101.1781997680664,Benito Juarez,Uriangato,guanajuato,,,,,MX,2013-03-31,2020-11-22,,,,,,,,['4bf58dd8d48988d151941735'],['Dining and Drinking > Restaurant > Mexican Restaurant > Taco Restaurant'],b'\x00\x00\x00\x00\x01\xc0YKg\xa0\x00\x00\x00@4$W\xe0\x00\x00\x00',"{'xmin': -101.1781997680664, 'ymin': 20.141965866088867, 'xmax': -101.1781997680664, 'ymax': 20.141965866088867}",dining and drinking > restaurant > mexican restaurant > taco restaurant,1
50aed391e4b03ce490ab2404,Taquería los volcanes,21.157172602912034,-101.63472415298384,Blvd. Prisma 1208,León,Guanajuato,,,,,MX,2012-11-23,2020-11-23,,,,,,,,['4bf58dd8d48988d151941735'],['Dining and Drinking > Restaurant > Mexican Restaurant > Taco Restaurant'],b'\x00\x00\x00\x00\x01\xc0Yh\x9fR\r\xc3\x00@5(<v\xb5U\x9a',"{'xmin': -101.63472415298384, 'ymin': 21.157172602912034, 'xmax': -101.63472415298384, 'ymax': 21.157172602912034}",dining and drinking > restaurant > mexican restaurant > taco restaurant,1
56632859498e2a6486b64944,"Gorditas ""El Recreo""",22.14461371468095,-101.01399199433027,,,,,,,,MX,2015-12-05,2021-08-14,,,,,,,,['4bf58dd8d48988d151941735'],['Dining and Drinking > Restaurant > Mexican Restaurant > Taco Restaurant'],b'\x00\x00\x00\x00\x01\xc0Y@\xe5>\xad\x83z@6%\x05g\x87\x1b\x96',"{'xmin': -101.01399199433027, 'ymin': 22.14461371468095, 'xmax': -101.01399199433027, 'ymax': 22.14461371468095}",dining and drinking > restaurant > mexican restaurant > taco restaurant,1
51a8ca87498e148e40964dd8,Barbacoa De Horno De Don Dario,21.863915,-102.232019,,,,,,,,MX,2013-05-31,2021-08-11,,,,,,,,['4bf58dd8d48988d151941735'],['Dining and Drinking > Restaurant > Mexican Restaurant > Taco Restaurant'],b'\x00\x00\x00\x00\x01\xc0Y\x8e\xd9f8C=@5\xdd)\x88\x8f\x86\x1a',"{'xmin': -102.232019, 'ymin': 21.863915, 'xmax': -102.232019, 'ymax': 21.863915}",dining and drinking > restaurant > mexican restaurant > taco restaurant,1
5666498e498eb7243311fbfe,Sonora Taco,20.658763261555425,-103.44328001227557,Av. Guadalupe 6481,Zapopan,Jalisco,45036,,,,MX,2015-12-08,2021-12-20,,,,,,,,['4bf58dd8d48988d151941735'],['Dining and Drinking > Restaurant > Mexican Restaurant > Taco Restaurant'],b'\x00\x00\x00\x00\x01\xc0Y\xdc^\xb3 \xeck@4\xa8\xa4\xb5\x88/\xd5',"{'xmin': -103.44328001227557, 'ymin': 20.658763261555425, 'xmax': -103.44328001227557, 'ymax': 20.658763261555425}",dining and drinking > restaurant > mexican restaurant > taco restaurant,1
55bd25da498e0546ea8a0e4a,Tacos Don Guma,21.13227375323565,-101.65977881661092,Cuzco,Leon,Guanajuato,37000,,,,MX,2015-08-01,2020-11-25,,,,,,,,['4bf58dd8d48988d151941735'],['Dining and Drinking > Restaurant > Mexican Restaurant > Taco Restaurant'],"b'\x00\x00\x00\x00\x01\xc0Yj9\xd0\xed\xfc\x00@5!\xdc\xb1TD,'","{'xmin': -101.65977881661092, 'ymin': 21.13227375323565, 'xmax': -101.65977881661092, 'ymax': 21.13227375323565}",dining and drinking > restaurant > mexican restaurant > taco restaurant,1
51bbbcf5498e3f5f54c581eb,Tacos Las Piñas,20.64230309557524,-103.39297993049884,Lapislazulli,Guadalajara,Jalisco,,,,,MX,2013-06-15,2021-08-14,,,,,,,,['4bf58dd8d48988d151941735'],['Dining and Drinking > Restaurant > Mexican Restaurant > Taco Restaurant'],b'\x00\x00\x00\x00\x01\xc0Y\xd9&\x95K^\x85@4\xa4m\xf9\xc5\x9d\x7f',"{'xmin': -103.39297993049884, 'ymin': 20.64230309557524, 'xmax': -103.39297993049884, 'ymax': 20.64230309557524}",dining and drinking > restaurant > mexican restaurant > taco restaurant,1
563da23bcd10e4161cb0c140,Transilvania Vampiros,20.712654,-103.383416,Hacienda Altamira,Zapopan,Jalisco,45160,,,,MX,2015-11-07,2020-11-30,,,,,,,,['4bf58dd8d48988d151941735'],['Dining and Drinking > Restaurant > Mexican Restaurant > Taco Restaurant'],b'\x00\x00\x00\x00\x01\xc0Y\xd8\x89\xe3C0\xd7@4\xb6p~\x17]\x14',"{'xmin': -103.383416, 'ymin': 20.712654, 'xmax': -103.383416, 'ymax': 20.712654}",dining and drinking > restaurant > mexican restaurant > taco restaurant,1
50ca4c37e4b0bd908c140850,"Tacos De Carnitas ""El Caido""",19.105712890625,-104.33427429199219,Blvd. Miguel De La Madrid,Manzanillo,Colima,,,,,MX,2012-12-13,2020-11-22,,,,,,,,['4bf58dd8d48988d151941735'],['Dining and Drinking > Restaurant > Mexican Restaurant > Taco Restaurant'],b'\x00\x00\x00\x00\x01\xc0Z\x15d\xc0\x00\x00\x00@3\x1b\x10\x00\x00\x00\x00',"{'xmin': -104.33427429199219, 'ymin': 19.105712890625, 'xmax': -104.33427429199219, 'ymax': 19.105712890625}",dining and drinking > restaurant > mexican restaurant > taco restaurant,1
4ecc4d7f30f845849f7db18a,Tacos Al Pastor Sahuayo,20.66284793821249,-103.4028482672141,,,,,,,,MX,2011-11-23,2021-08-14,,,,,,,,['4bf58dd8d48988d151941735'],['Dining and Drinking > Restaurant > Mexican Restaurant > Taco Restaurant'],b'\x00\x00\x00\x00\x01\xc0Y\xd9\xc8D\x19;\xd4@4\xa9\xb0g\x08\xd7\xfb',"{'xmin': -103.4028482672141, 'ymin': 20.66284793821249, 'xmax': -103.4028482672141, 'ymax': 20.66284793821249}",dining and drinking > restaurant > mexican restaurant > taco restaurant,1
5f205b7a650cf80202becf1a,Loncheria Guille,21.443896,-102.570475,Calle Herreria Y Cairo,Teocaltiche,JAL,47202,,,,MX,2020-07-28,2020-11-20,,,,,,,,['4bf58dd8d48988d151941735' '4bf58dd8d48988d1c5941735'],"['Dining and Drinking > Restaurant > Mexican Restaurant > Taco Restaurant'
 'Dining and Drinking > Restaurant > Sandwich Spot']",b'\x00\x00\x00\x00\x01\xc0Y\xa4\x82\xa9\x93\x0b\xe1@5q\xa3+\x12\xd3A',"{'xmin': -102.570475, 'ymin': 21.443896, 'xmax': -102.570475, 'ymax': 21.443896}","dining and drinking > restaurant > mexican restaurant > taco restaurant, dining and drinking > restaurant > sandwich spot",1
55580557498ec84f717dba6e,El Catorce Taquerías,21.11867904663086,-101.69547271728516,Nicaragua Esq Algeciras,León,Guanajuato,,,,,MX,2015-05-17,2020-11-23,,,,,,,,['4bf58dd8d48988d151941735'],['Dining and Drinking > Restaurant > Mexican Restaurant > Taco Restaurant'],b'\x00\x00\x00\x00\x01\xc0Yl\x82\xa0\x00\x00\x00@5\x1ea\xc0\x00\x00\x00',"{'xmin': -101.69547271728516, 'ymin': 21.11867904663086, 'xmax': -101.69547271728516, 'ymax': 21.11867904663086}",dining and drinking > restaurant > mexican restaurant > taco restaurant,1
5b1d48efe96d0c002c13d01d,Taquería Don Pepe,21.158173,-101.65081,,León,Guanajuato,37205,,,,MX,2018-06-10,2020-11-24,,,,,,,,['4bf58dd8d48988d151941735'],['Dining and Drinking > Restaurant > Mexican Restaurant > Taco Restaurant'],b'\x00\x00\x00\x00\x01\xc0Yi\xa6\xde\xfcz:@5(~\x06\x96\x1c7',"{'xmin': -101.65081, 'ymin': 21.158173, 'xmax': -101.65081, 'ymax': 21.158173}",dining and drinking > restaurant > mexican restaurant > taco restaurant,1
4ed6e1b90e6145a390394163,Tacos 'El pollo loco',30.73298454284668,-115.99174499511719,,,,,,,,MX,2011-12-01,2021-08-14,,,,,,,,['4bf58dd8d48988d151941735'],['Dining and Drinking > Restaurant > Mexican Restaurant > Taco Restaurant'],b'\x00\x00\x00\x00\x01\xc0\\\xffx\xc0\x00\x00\x00@>\xbb\xa4\xe0\x00\x00\x00',"{'xmin': -115.99174499511719, 'ymin': 30.73298454284668, 'xmax': -115.99174499511719, 'ymax': 30.73298454284668}",dining and drinking > restaurant > mexican restaurant > taco restaurant,1
5625b415498e9282a7705560,Tacos El Carnicero,21.530180804973032,-104.878114513084,Tepic,Tepic,Nayarit,63038,,,,MX,2015-10-20,2020-11-22,,,,,,,,['4bf58dd8d48988d151941735'],['Dining and Drinking > Restaurant > Mexican Restaurant > Taco Restaurant'],b'\x00\x00\x00\x00\x01\xc0Z83\x076\xf5\xae@5\x87\xb9\xed\xe2S}',"{'xmin': -104.878114513084, 'ymin': 21.530180804973032, 'xmax': -104.878114513084, 'ymax': 21.530180804973032}",dining and drinking > restaurant > mexican restaurant > taco restaurant,1
4f29a159e4b0abca06f6bd2d,Tacos Al Pastor,20.681826574180093,-103.35704509537962,Ángulo 841,Guadalajara,Jalisco,,,,,MX,2012-02-01,2021-08-16,,,,,,,,['4bf58dd8d48988d151941735'],['Dining and Drinking > Restaurant > Mexican Restaurant > Taco Restaurant'],b'\x00\x00\x00\x00\x01\xc0Y\xd6\xd9\xd3\xab\xf6\x92@4\xae\x8c/\xb5\xa5\xb0',"{'xmin': -103.35704509537962, 'ymin': 20.681826574180093, 'xmax': -103.35704509537962, 'ymax': 20.681826574180093}",dining and drinking > restaurant > mexican restaurant > taco restaurant,1
649cf0920ecae104134e390b,Soona De Tacos,20.781982,-103.431192,,Zapopan,JAL,45134,,,,MX,2023-06-29,2023-06-29,,,,,,,,['4bf58dd8d48988d151941735'],['Dining and Drinking > Restaurant > Mexican Restaurant > Taco Restaurant'],b'\x00\x00\x00\x00\x01\xc0Y\xdb\x98\xa6T\x92\xff@4\xc8/\xf8\xec\x0f\x88',"{'xmin': -103.431192, 'ymin': 20.781982, 'xmax': -103.431192, 'ymax': 20.781982}",dining and drinking > restaurant > mexican restaurant > taco restaurant,1
0b5296e7e302466dbefd614e,Tuper Tacos Toby,20.654837,-103.321387,Olimpica 683,Guadalajara,Jalisco,44840,,,,MX,2013-03-24,2024-09-02,,33 3650 2877,,,,,,['4bf58dd8d48988d151941735'],['Dining and Drinking > Restaurant > Mexican Restaurant > Taco Restaurant'],b'\x00\x00\x00\x00\x01\xc0Y\xd4\x91\x9a\xc7\x97\x03@4\xa7\xa3e\xcb5\xf4',"{'xmin': -103.321387, 'ymin': 20.654837, 'xmax': -103.321387, 'ymax': 20.654837}",dining and drinking > restaurant > mexican restaurant > taco restaurant,1
4ec95400e30071991748d415,Tacos De Barbacoa El Pasito,20.72656146022554,-103.45310124994104,,Valle Real,Jalisco,,,,,MX,2011-11-20,2021-08-14,,,,,,,,['4bf58dd8d48988d151941735'],['Dining and Drinking > Restaurant > Mexican Restaurant > Taco Restaurant'],b'\x00\x00\x00\x00\x01\xc0Y\xdc\xff\x9cb\x91\x81@4\xb9\xff\xee\x8e3\xe4',"{'xmin': -103.45310124994104, 'ymin': 20.72656146022554, 'xmax': -103.45310124994104, 'ymax': 20.72656146022554}",dining and drinking > restaurant > mexican restaurant > taco restaurant,1
592f8200a4b51b0a4e644027,Los Parientes,22.095158,-100.879524,,San Luis Potosí,San Luis Potosí,,,,,MX,2017-06-01,2020-11-26,,,,,,,,['4bf58dd8d48988d151941735'],['Dining and Drinking > Restaurant > Mexican Restaurant > Taco Restaurant'],b'\x00\x00\x00\x00\x01\xc0Y8J\x1f\x08\x03\x04@6\x18\\FQ\xf3\xe9',"{'xmin': -100.879524, 'ymin': 22.095158, 'xmax': -100.879524, 'ymax': 22.095158}",dining and drinking > restaurant > mexican restaurant > taco restaurant,1
531b4f87498eba29ad7fc625,Tacos El Navegante,20.54004543573923,-100.80253658923318,,,,,,,,MX,2014-03-08,2021-08-22,,,,,,,,['4bf58dd8d48988d151941735'],['Dining and Drinking > Restaurant > Mexican Restaurant > Taco Restaurant'],b'\x00\x00\x00\x00\x01\xc0Y3\\\xc2m&e@4\x8a@j\xec\xda\xa4',"{'xmin': -100.80253658923318, 'ymin': 20.54004543573923, 'xmax': -100.80253658923318, 'ymax': 20.54004543573923}",dining and drinking > restaurant > mexican restaurant > taco restaurant,1
51672d9ee4b0856bababd67e,Tacos Don Chino,20.620066,-105.226225,Calle San Salvador 537,Puerto Vallarta,Jalisco,,,,,MX,2013-04-11,2020-11-25,,322 109 9028,,,,,,['4bf58dd8d48988d151941735'],['Dining and Drinking > Restaurant > Mexican Restaurant > Taco Restaurant'],"b'\x00\x00\x00\x00\x01\xc0ZNzxl""h@4\x9e\xbc\xa57\\\x8e'","{'xmin': -105.226225, 'ymin': 20.620066, 'xmax': -105.226225, 'ymax': 20.620066}",dining and drinking > restaurant > mexican restaurant > taco restaurant,1
50cc1a08e4b0aceb5173a764,Tacos Arandas,21.679448471621612,-102.58675189620608,,,,,,,,MX,2012-12-15,2021-08-17,,,,,,,,['4bf58dd8d48988d151941735'],['Dining and Drinking > Restaurant > Mexican Restaurant > Taco Restaurant'],b'\x00\x00\x00\x00\x01\xc0Y\xa5\x8dW\xd3D\x8d@5\xad\xf0U\xc4\xee\x98',"{'xmin': -102.58675189620608, 'ymin': 21.679448471621612, 'xmax': -102.58675189620608, 'ymax': 21.679448471621612}",dining and drinking > restaurant > mexican restaurant > taco restaurant,1
55ab3b5b498eed291dd51d6a,Tacos El Paisa,20.525009460923126,-100.83721838870153,,,,,,,,MX,2015-07-19,2021-08-13,,,,,,,,['4bf58dd8d48988d151941735'],['Dining and Drinking > Restaurant > Mexican Restaurant > Taco Restaurant'],b'\x00\x00\x00\x00\x01\xc0Y5\x94\xfco\xc5N@4\x86g\x05 \xc1c',"{'xmin': -100.83721838870153, 'ymin': 20.525009460923126, 'xmax': -100.83721838870153, 'ymax': 20.525009460923126}",dining and drinking > restaurant > mexican restaurant > taco restaurant,1
556a973c498e5bcca789952a,Rosa Mexicano Asador,21.879817,-102.299818,,,,,,,,MX,2015-05-31,2021-08-16,,,,,,,,['4bf58dd8d48988d151941735'],['Dining and Drinking > Restaurant > Mexican Restaurant > Taco Restaurant'],b'\x00\x00\x00\x00\x01\xc0Y\x9307\xd60#@5\xe1;\xaf\xd9v\xff',"{'xmin': -102.299818, 'ymin': 21.879817, 'xmax': -102.299818, 'ymax': 21.879817}",dining and drinking > restaurant > mexican restaurant > taco restaurant,1
532382f2498e419ef2a4091d,Gorditas Doña Pelos,20.91526984566268,-100.74980546099135,,,,,,,,MX,2014-03-14,2021-08-14,,,,,,,,['4bf58dd8d48988d151941735'],['Dining and Drinking > Restaurant > Mexican Restaurant > Taco Restaurant'],"b'\x00\x00\x00\x00\x01\xc0Y/\xfc\xd0\x0bT|@4\xeaO\x1f\xe6""\xdd'","{'xmin': -100.74980546099135, 'ymin': 20.91526984566268, 'xmax': -100.74980546099135, 'ymax': 20.91526984566268}",dining and drinking > restaurant > mexican restaurant > taco restaurant,1
50084a30e4b0b2967f6b146c,tacos mexico,20.675962647956723,-103.34863543907954,pedro moreno,giadalajara,jalisco,,,,,MX,2012-07-19,2021-08-13,,,,,,,,['4bf58dd8d48988d151941735'],['Dining and Drinking > Restaurant > Mexican Restaurant > Taco Restaurant'],b'\x00\x00\x00\x00\x01\xc0Y\xd6P\x0b\x04D\xb0@4\xad\x0b\xe3ZJ\xac',"{'xmin': -103.34863543907954, 'ymin': 20.675962647956723, 'xmax': -103.34863543907954, 'ymax': 20.675962647956723}",dining and drinking > restaurant > mexican restaurant > taco restaurant,1
4f6be175e4b09530acdcaeb1,Tacos Dona Chuy,21.250313,-102.337592,,,,,,,,MX,2012-03-23,2021-08-15,,,,,,,,['4bf58dd8d48988d151941735'],['Dining and Drinking > Restaurant > Mexican Restaurant > Taco Restaurant'],b'\x00\x00\x00\x00\x01\xc0Y\x95\x9b\x1by\xd9\n@5@\x14\x83D\xc3~',"{'xmin': -102.337592, 'ymin': 21.250313, 'xmax': -102.337592, 'ymax': 21.250313}",dining and drinking > restaurant > mexican restaurant > taco restaurant,1
4ef774ac2c5b044500e3c979,Tacos y Tortas Ahogadas El Cuñado,21.923281264278017,-102.29867675249928,Montes Himalaya #906,Aguascalientes,AGS,,,,,MX,2011-12-25,2020-11-23,,,,,,,,['4bf58dd8d48988d151941735'],['Dining and Drinking > Restaurant > Mexican Restaurant > Taco Restaurant'],b'\x00\x00\x00\x00\x01\xc0Y\x93\x1d\x85\x19\x03\xd5@5\xec\\)3\x15h',"{'xmin': -102.29867675249928, 'ymin': 21.923281264278017, 'xmax': -102.29867675249928, 'ymax': 21.923281264278017}",dining and drinking > restaurant > mexican restaurant > taco restaurant,1
590636edcab41002196b1640,Taquería Rigo's,20.677813396291317,-103.34919239946503,,Centro,JAL,44100,,,,MX,2017-04-30,2020-11-30,,,,,,,,['4bf58dd8d48988d151941735'],['Dining and Drinking > Restaurant > Mexican Restaurant > Taco Restaurant'],b'\x00\x00\x00\x00\x01\xc0Y\xd6Y+\x13\xed\xb3@4\xad\x85-\xc1\xdc\xa5',"{'xmin': -103.34919239946503, 'ymin': 20.677813396291317, 'xmax': -103.34919239946503, 'ymax': 20.677813396291317}",dining and drinking > restaurant > mexican restaurant > taco restaurant,1
4c8705c6d8086dcbbe409f52,Tacos La Ford,19.22981855876416,-103.723708,Rey Colimam,Colima,COL,,,,,MX,2010-09-08,2020-11-30,,,,,,,,['4bf58dd8d48988d151941735'],['Dining and Drinking > Restaurant > Mexican Restaurant > Taco Restaurant'],b'\x00\x00\x00\x00\x01\xc0Y\xeeQ;[\xf6\xa1@3:\xd5c\x99\xe7\xea',"{'xmin': -103.723708, 'ymin': 19.22981855876416, 'xmax': -103.723708, 'ymax': 19.22981855876416}",dining and drinking > restaurant > mexican restaurant > taco restaurant,1
56f72cde498ef94a965018c7,Tacos La Tolva,21.236472353665953,-104.90138448957428,,,,,,,,MX,2016-03-27,2021-08-12,,,,,,,,['4bf58dd8d48988d151941735'],['Dining and Drinking > Restaurant > Mexican Restaurant > Taco Restaurant'],b'\x00\x00\x00\x00\x01\xc0Z9\xb0H\x91\xf5\xf7@5<\x89s\xc1gF',"{'xmin': -104.90138448957428, 'ymin': 21.236472353665953, 'xmax': -104.90138448957428, 'ymax': 21.236472353665953}",dining and drinking > restaurant > mexican restaurant > taco restaurant,1
621a962f4876a57fa870b50a,Tacos Rubergas,21.908841964716746,-102.29359136464609,Tepezala 337,Aguascalientes,Aguascalientes,20135,,,,MX,2022-02-26,2023-09-13,,449 344 5956,,,,,,['4bf58dd8d48988d151941735'],['Dining and Drinking > Restaurant > Mexican Restaurant > Taco Restaurant'],b'\x00\x00\x00\x00\x01\xc0Y\x92\xca3ob\xc0@5\xe8\xa9\xdd\xf3\xb0\xd9',"{'xmin': -102.29359136464609, 'ymin': 21.908841964716746, 'xmax': -102.29359136464609, 'ymax': 21.908841964716746}",dining and drinking > restaurant > mexican restaurant > taco restaurant,1
4dfeae62ae60a0d2f4d919fd,Naranja Tacos,20.631635427726952,-103.42890890598558,Galileo Galilei 4412,Zapopan,JAL,45070,,,,MX,2010-04-09,2021-12-15,,,,,,,,['4bf58dd8d48988d151941735'],['Dining and Drinking > Restaurant > Mexican Restaurant > Taco Restaurant'],b'\x00\x00\x00\x00\x01\xc0Y\xdbs>W\n\xf5@4\xa1\xb2\xdc\x01\x15\r',"{'xmin': -103.42890890598558, 'ymin': 20.631635427726952, 'xmax': -103.42890890598558, 'ymax': 20.631635427726952}",dining and drinking > restaurant > mexican restaurant > taco restaurant,1
510e04b5e4b0ab88a2a84a67,Tacos Arandas,21.250649532163596,-102.32772297539769,,,,,,,,MX,2013-02-03,2021-08-17,,,,,,,,['4bf58dd8d48988d151941735'],['Dining and Drinking > Restaurant > Mexican Restaurant > Taco Restaurant'],b'\x00\x00\x00\x00\x01\xc0Y\x94\xf9i\xc9^\xc7@5@*\x91Wf}',"{'xmin': -102.32772297539769, 'ymin': 21.250649532163596, 'xmax': -102.32772297539769, 'ymax': 21.250649532163596}",dining and drinking > restaurant > mexican restaurant > taco restaurant,1
56dba6aa498e337ce50d5198,Tacos El Cuñdito,21.181112,-101.66695,,,,,,,,MX,2016-03-06,2021-08-11,,,,,,,,['4bf58dd8d48988d151941735'],['Dining and Drinking > Restaurant > Mexican Restaurant > Taco Restaurant'],b'\x00\x00\x00\x00\x01\xc0Yj\xafO\r\x84M@5.][$\xe9\xc4',"{'xmin': -101.66695, 'ymin': 21.181112, 'xmax': -101.66695, 'ymax': 21.181112}",dining and drinking > restaurant > mexican restaurant > taco restaurant,1
570f106d498e7d402f26fe50,Los Volcanes de Monze,19.663574,-101.200536,,,,,,,,MX,2016-04-14,2021-08-15,,,,,,,,['4bf58dd8d48988d151941735'],['Dining and Drinking > Restaurant > Mexican Restaurant > Taco Restaurant'],b'\x00\x00\x00\x00\x01\xc0YL\xd5\x94\xf2j\xec@3\xa9\xdf\xfcTy\xd5',"{'xmin': -101.200536, 'ymin': 19.663574, 'xmax': -101.200536, 'ymax': 19.663574}",dining and drinking > restaurant > mexican restaurant > taco restaurant,1
4dcf3df57d8b975f18e45a0d,El Patron Tacos,20.66244087772703,-105.23145001333259,,Puerto Vallarta,JAL,,,,,MX,2011-05-15,2020-11-24,,,,,,,,['4bf58dd8d48988d151941735' '4bf58dd8d48988d1cb941735'],"['Dining and Drinking > Restaurant > Mexican Restaurant > Taco Restaurant'
 'Dining and Drinking > Food Truck']",b'\x00\x00\x00\x00\x01\xc0ZN\xd0\x13\xb7{\x06@4\xa9\x95\xb9\xb1_\x02',"{'xmin': -105.23145001333259, 'ymin': 20.66244087772703, 'xmax': -105.23145001333259, 'ymax': 20.66244087772703}","dining and drinking > restaurant > mexican restaurant > taco restaurant, dining and drinking > food truck",1
52aca457498e621e98dc7353,Tacos De Barbacos De Carne De Perro,20.64283041385198,-103.42023396342672,,,,,,,,MX,2013-12-14,2021-08-12,,,,,,,,['4bf58dd8d48988d151941735'],['Dining and Drinking > Restaurant > Mexican Restaurant > Taco Restaurant'],b'\x00\x00\x00\x00\x01\xc0Y\xda\xe5\x1c\xfee\x85@4\xa4\x90\x88\xb4^O',"{'xmin': -103.42023396342672, 'ymin': 20.64283041385198, 'xmax': -103.42023396342672, 'ymax': 20.64283041385198}",dining and drinking > restaurant > mexican restaurant > taco restaurant,1
51f90fe6498ebf7b9808b9c8,Birria Victor's,20.64841270749414,-103.4055742836646,,,,,,,,MX,2013-07-31,2021-08-14,,,,,,,,['4bf58dd8d48988d151941735'],['Dining and Drinking > Restaurant > Mexican Restaurant > Taco Restaurant'],b'\x00\x00\x00\x00\x01\xc0Y\xd9\xf4\xed\xd7\x1c\n@4\xa5\xfe`\x0c\xff\x86',"{'xmin': -103.4055742836646, 'ymin': 20.64841270749414, 'xmax': -103.4055742836646, 'ymax': 20.64841270749414}",dining and drinking > restaurant > mexican restaurant > taco restaurant,1
4e30332b45ddcf0f5c8a3602,Tacos Famsa,19.69291185117324,-101.18113367849888,,Morelia,Michoacán de Ocampo,,,,,MX,2011-07-27,2020-11-25,,,,,,,,['4bf58dd8d48988d151941735'],['Dining and Drinking > Restaurant > Mexican Restaurant > Taco Restaurant'],b'\x00\x00\x00\x00\x01\xc0YK\x97\xb1\xb6V\xd7@3\xb1b\xab\xcb\xcc\xc5',"{'xmin': -101.18113367849888, 'ymin': 19.69291185117324, 'xmax': -101.18113367849888, 'ymax': 19.69291185117324}",dining and drinking > restaurant > mexican restaurant > taco restaurant,1
57475044498e651f7a6cc618,Las Gorditas de Versalles,20.632499,-105.227741,Berlín 122,,,,,,,MX,2016-05-26,2021-08-12,,,,,,,,['4bf58dd8d48988d151941735'],['Dining and Drinking > Restaurant > Mexican Restaurant > Taco Restaurant'],b'\x00\x00\x00\x00\x01\xc0ZN\x93N\xfc\xbdU@4\xa1\xebtW\xc0\xb1',"{'xmin': -105.227741, 'ymin': 20.632499, 'xmax': -105.227741, 'ymax': 20.632499}",dining and drinking > restaurant > mexican restaurant > taco restaurant,1
607a4ba067b55175074357bd,Los Tlacuaches,20.545156,-100.692764,,Apaseo el Grande,Guanajuato,38160,,,,MX,2021-04-17,2021-04-17,,,,,,,,['4bf58dd8d48988d151941735'],['Dining and Drinking > Restaurant > Mexican Restaurant > Taco Restaurant'],"b""\x00\x00\x00\x00\x01\xc0Y,V>\xd0\xf6'@4\x8b\x8fW\xf77\xda""","{'xmin': -100.692764, 'ymin': 20.545156, 'xmax': -100.692764, 'ymax': 20.545156}",dining and drinking > restaurant > mexican restaurant > taco restaurant,1
4f373cb7e4b0d26ba0dcd780,El Taco Asesino,20.531116,-100.805011,Guillermo Prieto 705,Celaya,Guanajuato,38050,,,,MX,2012-02-12,2020-11-22,,,,,,,,['4bf58dd8d48988d151941735'],['Dining and Drinking > Restaurant > Mexican Restaurant > Taco Restaurant'],b'\x00\x00\x00\x00\x01\xc0Y3\x85L\xdbz\xe5@4\x87\xf77\xdaa\xe1',"{'xmin': -100.805011, 'ymin': 20.531116, 'xmax': -100.805011, 'ymax': 20.531116}",dining and drinking > restaurant > mexican restaurant > taco restaurant,1
57a5f003498eefe2db54e853,Tacos El Güero,22.069792,-102.274511,Carretera Aguascalientes-San Francisco de los Romo,San Francisco de los Romo,Aguascalientes,20309,,,,MX,2016-08-06,2020-11-22,,,,,,,,['4bf58dd8d48988d151941735'],['Dining and Drinking > Restaurant > Mexican Restaurant > Taco Restaurant'],b'\x00\x00\x00\x00\x01\xc0Y\x91\x91\x96\x95\xd9\x1b@6\x11\xdd\xe3u\x85\xbe',"{'xmin': -102.274511, 'ymin': 22.069792, 'xmax': -102.274511, 'ymax': 22.069792}",dining and drinking > restaurant > mexican restaurant > taco restaurant,1
5ee5a7ffbaaeab00079f4350,Tacos De Carnaza Yorchs,20.730801,-103.406602,,Zapopan,JAL,45140,,,,MX,2020-06-14,2020-11-30,,,,,,,,['4bf58dd8d48988d151941735'],['Dining and Drinking > Restaurant > Mexican Restaurant > Taco Restaurant'],b'\x00\x00\x00\x00\x01\xc0Y\xda\x05\xc4e\x1f?@4\xbb\x15\xc6:\xe2T',"{'xmin': -103.406602, 'ymin': 20.730801, 'xmax': -103.406602, 'ymax': 20.730801}",dining and drinking > restaurant > mexican restaurant > taco restaurant,1
4d926b2af4992c0f09dc8897,Tacos Genesis,21.151976039318896,-101.67418851836928,Blvd. Las Torres #225,Leon,Guanajuato,,,,,MX,2011-03-29,2020-11-30,,,,,,,,['4bf58dd8d48988d151941735' '4bf58dd8d48988d1c1941735'],"['Dining and Drinking > Restaurant > Mexican Restaurant > Taco Restaurant'
 'Dining and Drinking > Restaurant > Mexican Restaurant']",b'\x00\x00\x00\x00\x01\xc0Yk%\xe7\x99o\x06@5&\xe7\xe6\xd6\xa6x',"{'xmin': -101.67418851836928, 'ymin': 21.151976039318896, 'xmax': -101.67418851836928, 'ymax': 21.151976039318896}","dining and drinking > restaurant > mexican restaurant > taco restaurant, dining and drinking > restaurant > mexican restaurant",1
65c5a612a757883165823c2f,Quiero tacos pv,20.632854,-105.222973,296 Viena,Puerto Vallarta,Jal.,48320,,,,MX,2024-02-09,2024-10-17,,322 153 1733,,,,,,['4bf58dd8d48988d151941735'],['Dining and Drinking > Restaurant > Mexican Restaurant > Taco Restaurant'],b'\x00\x00\x00\x00\x01\xc0ZNE0\x8b\xb9\x06@4\xa2\x02\xb8A$\x8d',"{'xmin': -105.222973, 'ymin': 20.632854, 'xmax': -105.222973, 'ymax': 20.632854}",dining and drinking > restaurant > mexican restaurant > taco restaurant,1
53b23e5d498eaa800d4cdd00,"Taqueria ""Los Arandenses",22.141773,-100.933111,,,,,,,,MX,2014-07-01,2023-12-21,,444 825 0219,,,,,,['4bf58dd8d48988d151941735'],['Dining and Drinking > Restaurant > Mexican Restaurant > Taco Restaurant'],"b'\x00\x00\x00\x00\x01\xc0Y;\xb8\x173""l@6$K<>t\xb0'","{'xmin': -100.933111, 'ymin': 22.141773, 'xmax': -100.933111, 'ymax': 22.141773}",dining and drinking > restaurant > mexican restaurant > taco restaurant,1
5d864667029a4a00072503db,Chepa Tacos,20.603163,-103.43364,Independencia 1393,Zapopan,Jalisco,45235,,,,MX,2019-09-21,2020-11-23,,,,,,,,['4bf58dd8d48988d151941735'],['Dining and Drinking > Restaurant > Mexican Restaurant > Taco Restaurant'],b'\x00\x00\x00\x00\x01\xc0Y\xdb\xc0\xc1\xfc\x8f2@4\x9ah\xe3\xef(A',"{'xmin': -103.43364, 'ymin': 20.603163, 'xmax': -103.43364, 'ymax': 20.603163}",dining and drinking > restaurant > mexican restaurant > taco restaurant,1
5f9772458c77aa08cca4d7d9,Pinedas’s Prime Tacos Y Hamburguesa,21.159375,-101.683365,,León,GTO,37170,,,,MX,2020-10-27,2021-03-26,,,,,,,,['4bf58dd8d48988d151941735'],['Dining and Drinking > Restaurant > Mexican Restaurant > Taco Restaurant'],b'\x00\x00\x00\x00\x01\xc0Yk\xbc@\x8d\x8e\xc9@5(\xcc\xcc\xcc\xcc\xcd',"{'xmin': -101.683365, 'ymin': 21.159375, 'xmax': -101.683365, 'ymax': 21.159375}",dining and drinking > restaurant > mexican restaurant > taco restaurant,1
5ca02ea2dd12f8002c3c941f,Tacos Beto’s,19.783303,-104.367068,,Autlán de Navarro,JAL,48904,,,,MX,2019-03-31,2020-11-24,,,,,,,,['4bf58dd8d48988d151941735'],['Dining and Drinking > Restaurant > Mexican Restaurant > Taco Restaurant'],b'\x00\x00\x00\x00\x01\xc0Z\x17~\n\xc7\xda\x1f@3\xc8\x86\x8b\x9f\xdb\xd3',"{'xmin': -104.367068, 'ymin': 19.783303, 'xmax': -104.367068, 'ymax': 19.783303}",dining and drinking > restaurant > mexican restaurant > taco restaurant,1
5168cc2ae4b0d275dbf99ebd,Ksabrosas (Quesadillas estilo DF),20.555704985692504,-100.8347603783356,Camino De Las Torres,Celaya,GTO,38013,,,,MX,2013-04-13,2020-11-23,,,,,,,,['4bf58dd8d48988d151941735'],['Dining and Drinking > Restaurant > Mexican Restaurant > Taco Restaurant'],b'\x00\x00\x00\x00\x01\xc0Y5l\xb6\xcb<\xac@4\x8eB\xae\x93\xc6\x01',"{'xmin': -100.8347603783356, 'ymin': 20.555704985692504, 'xmax': -100.8347603783356, 'ymax': 20.555704985692504}",dining and drinking > restaurant > mexican restaurant > taco restaurant,1
4eeea84346907303c06e2159,Tacos Arandenses,20.740597923956653,-103.41154076908965,Arco Trajano 1398,,,,,,,MX,2011-12-19,2021-08-11,,,,,,,,['4bf58dd8d48988d151941735'],['Dining and Drinking > Restaurant > Mexican Restaurant > Taco Restaurant'],b'\x00\x00\x00\x00\x01\xc0Y\xdaV\xaf\x18\r}@4\xbd\x97\xd3V\xe1\x1b',"{'xmin': -103.41154076908965, 'ymin': 20.740597923956653, 'xmax': -103.41154076908965, 'ymax': 20.740597923956653}",dining and drinking > restaurant > mexican restaurant > taco restaurant,1
5243a25611d2fa8a09c85321,Tacos Gaviota,20.649438,-103.355241,,Guadalajara,Jalisco,,,,,MX,2013-09-26,2021-08-16,,,,,,,,['4bf58dd8d48988d151941735'],['Dining and Drinking > Restaurant > Mexican Restaurant > Taco Restaurant'],b'\x00\x00\x00\x00\x01\xc0Y\xd6\xbcD\xbfL\xb2@4\xa6A\x91\x9a\xc7\x97',"{'xmin': -103.355241, 'ymin': 20.649438, 'xmax': -103.355241, 'ymax': 20.649438}",dining and drinking > restaurant > mexican restaurant > taco restaurant,1
547e7841498e6fbd3f93beab,tacos yaz,21.526068415898642,-104.92165798034965,,,,,,,,MX,2014-12-03,2021-08-10,,,,,,,,['4bf58dd8d48988d151941735'],['Dining and Drinking > Restaurant > Mexican Restaurant > Taco Restaurant'],b'\x00\x00\x00\x00\x01\xc0Z:\xfcq\xc0\xec\xbf@5\x86\xackq\xbeB',"{'xmin': -104.92165798034965, 'ymin': 21.526068415898642, 'xmax': -104.92165798034965, 'ymax': 21.526068415898642}",dining and drinking > restaurant > mexican restaurant > taco restaurant,1
569c57d1498eb005fda8748f,tacos arabes,20.672276,-103.368346,,,,,,,,MX,2016-01-18,2021-08-15,,,,,,,,['4bf58dd8d48988d151941735'],['Dining and Drinking > Restaurant > Mexican Restaurant > Taco Restaurant'],b'\x00\x00\x00\x00\x01\xc0Y\xd7\x92\xfb\x19\xe72@4\xac\x1aG\xa9\xe2\xbd',"{'xmin': -103.368346, 'ymin': 20.672276, 'xmax': -103.368346, 'ymax': 20.672276}",dining and drinking > restaurant > mexican restaurant > taco restaurant,1
bfa3ae768af445b41c210a9b,Tortas y Tacos Tavo,20.520358,-100.815505,Lopez Mateos 1205,Celaya,Guanajuato,38000,,,,MX,2010-11-04,2023-12-06,,461 613 6989,,,,,,"['5454152e498ef71e2b9132c6' '4bf58dd8d48988d16e941735'
 '4bf58dd8d48988d151941735']","['Business and Professional Services > Event Service'
 'Dining and Drinking > Restaurant > Fast Food Restaurant'
 'Dining and Drinking > Restaurant > Mexican Restaurant > Taco Restaurant']",b'\x00\x00\x00\x00\x01\xc0Y41;\xe2.^@4\x856.\x906D',"{'xmin': -100.815505, 'ymin': 20.520358, 'xmax': -100.815505, 'ymax': 20.520358}","business and professional services > event service, dining and drinking > restaurant > fast food restaurant, dining and drinking > restaurant > mexican restaurant > taco restaurant",1
57f85fa5498e19f14271cb08,El Güero Alteño,20.74717395941392,-103.38557616395532,,Zapopan,,,,,,MX,2016-10-08,2020-11-25,,,,,,,,['4bf58dd8d48988d151941735'],['Dining and Drinking > Restaurant > Mexican Restaurant > Taco Restaurant'],b'\x00\x00\x00\x00\x01\xc0Y\xd8\xadG\xa5\x93\x89@4\xbfF\xca\xe8\x1b\n',"{'xmin': -103.38557616395532, 'ymin': 20.74717395941392, 'xmax': -103.38557616395532, 'ymax': 20.74717395941392}",dining and drinking > restaurant > mexican restaurant > taco restaurant,1
52fed885498e74fef34eb8c9,Tacos Los Cuñados,20.7437744140625,-103.35948181152344,,,,,,,,MX,2014-02-15,2021-08-11,,,,,,,,['4bf58dd8d48988d151941735'],['Dining and Drinking > Restaurant > Mexican Restaurant > Taco Restaurant'],b'\x00\x00\x00\x00\x01\xc0Y\xd7\x01\xc0\x00\x00\x00@4\xbeh\x00\x00\x00\x00',"{'xmin': -103.35948181152344, 'ymin': 20.7437744140625, 'xmax': -103.35948181152344, 'ymax': 20.7437744140625}",dining and drinking > restaurant > mexican restaurant > taco restaurant,1
5b23d0da1543c7002c2abc5e,Taqueria Fuentes 299,19.671418,-101.204025,,,,,,,,MX,2018-06-15,2021-08-12,,,,,,,,['4bf58dd8d48988d151941735'],['Dining and Drinking > Restaurant > Mexican Restaurant > Taco Restaurant'],b'\x00\x00\x00\x00\x01\xc0YM\x0e\xbe\xdf\xa4@@3\xab\xe2\x0c\xcf\xf2\x1b',"{'xmin': -101.204025, 'ymin': 19.671418, 'xmax': -101.204025, 'ymax': 19.671418}",dining and drinking > restaurant > mexican restaurant > taco restaurant,1
510ae419e4b03676f4f4f44a,"Tacos Al Pastor ""Pompeyos""",20.354456272720963,-102.01477886743223,Av Padre Hidalgo,Santa Ana Pacueco,Guanajuato,,,,,MX,2013-01-31,2020-11-21,,,,,,,,['4bf58dd8d48988d151941735'],['Dining and Drinking > Restaurant > Mexican Restaurant > Taco Restaurant'],b'\x00\x00\x00\x00\x01\xc0Y\x80\xf2#\x10\x12\xc6@4Z\xbd\xa5s2\xd7',"{'xmin': -102.01477886743223, 'ymin': 20.354456272720963, 'xmax': -102.01477886743223, 'ymax': 20.354456272720963}",dining and drinking > restaurant > mexican restaurant > taco restaurant,1
55d7c542498edc33c000d675,tacos El Chaires,20.639354112586688,-100.98825417608515,,,,,,,,MX,2015-08-22,2021-08-16,,,,,,,,['4bf58dd8d48988d151941735'],['Dining and Drinking > Restaurant > Mexican Restaurant > Taco Restaurant'],b'\x00\x00\x00\x00\x01\xc0Y??\x8eq\x9a\xf4@4\xa3\xac\xb6\x0c\x1fx',"{'xmin': -100.98825417608515, 'ymin': 20.639354112586688, 'xmax': -100.98825417608515, 'ymax': 20.639354112586688}",dining and drinking > restaurant > mexican restaurant > taco restaurant,1
50de656ee4b019f634f0e744,"Tacos ""El Rober's""",22.18133443303645,-100.95700484426429,Aves Mexico,Soledad De Graciano Sánchez,SLP,78340,,,,MX,2012-12-29,2020-11-24,,,,,,,,['4bf58dd8d48988d151941735'],['Dining and Drinking > Restaurant > Mexican Restaurant > Taco Restaurant'],b'\x00\x00\x00\x00\x01\xc0Y=?\x91?\x0e\xa3@6.k\xee\xf3\x87\xbf',"{'xmin': -100.95700484426429, 'ymin': 22.18133443303645, 'xmax': -100.95700484426429, 'ymax': 22.18133443303645}",dining and drinking > restaurant > mexican restaurant > taco restaurant,1
51a0eb9f498e45f575b5a99a,Tacos Al Vapor El Guero,20.604946,-103.435672,,,,,,,,MX,2013-05-25,2021-08-11,,,,,,,,['4bf58dd8d48988d151941735'],['Dining and Drinking > Restaurant > Mexican Restaurant > Taco Restaurant'],b'\x00\x00\x00\x00\x01\xc0Y\xdb\xe2\x0c\xcf\xf2\x1b@4\x9a\xdd\xbd\xb5\xd8\x95',"{'xmin': -103.435672, 'ymin': 20.604946, 'xmax': -103.435672, 'ymax': 20.604946}",dining and drinking > restaurant > mexican restaurant > taco restaurant,1
6210166c32a815218441ee52,Tacos Don Manolito,21.171637,-101.733025,,León,Guanajuato,37669,,,,MX,2022-02-18,2022-02-18,,,,,,,,['4bf58dd8d48988d151941735'],['Dining and Drinking > Restaurant > Mexican Restaurant > Taco Restaurant'],b'\x00\x00\x00\x00\x01\xc0Yn\xe9\xe1\xb0\x89\xa0@5+\xf0g\x05\xc8\x97',"{'xmin': -101.733025, 'ymin': 21.171637, 'xmax': -101.733025, 'ymax': 21.171637}",dining and drinking > restaurant > mexican restaurant > taco restaurant,1
59bcd2df86bc49168bc5d437,La 1Ra Parada,20.870209,-105.44187,,Sayulita,NAY,,,,,MX,2017-09-16,2020-11-30,,,,,,,,['4bf58dd8d48988d151941735'],['Dining and Drinking > Restaurant > Mexican Restaurant > Taco Restaurant'],b'\x00\x00\x00\x00\x01\xc0Z\\G\x99\x1b\xc5X@4\xde\xc6\x04[\xafS',"{'xmin': -105.44187, 'ymin': 20.870209, 'xmax': -105.44187, 'ymax': 20.870209}",dining and drinking > restaurant > mexican restaurant > taco restaurant,1
5016a48de4b08516d34bc200,Mariano El Quesadillero,21.256952772656415,-102.33195054302644,,,,,,,,MX,2012-07-30,2021-08-11,,,,,,,,['4bf58dd8d48988d151941735'],['Dining and Drinking > Restaurant > Mexican Restaurant > Taco Restaurant'],b'\x00\x00\x00\x00\x01\xc0Y\x95>\xad}\x8c\x08@5A\xc7\xa8+-\x03',"{'xmin': -102.33195054302644, 'ymin': 21.256952772656415, 'xmax': -102.33195054302644, 'ymax': 21.256952772656415}",dining and drinking > restaurant > mexican restaurant > taco restaurant,1
56e531ed498e40be57252cbb,Los Cuñados,21.19176241080535,-101.66034027953764,,,,,,,,MX,2016-03-13,2021-08-11,,,,,,,,['4bf58dd8d48988d151941735'],['Dining and Drinking > Restaurant > Mexican Restaurant > Taco Restaurant'],b'\x00\x00\x00\x00\x01\xc0YjC\x03\xe06\x1f@51\x17Wc\x02\xd7',"{'xmin': -101.66034027953764, 'ymin': 21.19176241080535, 'xmax': -101.66034027953764, 'ymax': 21.19176241080535}",dining and drinking > restaurant > mexican restaurant > taco restaurant,1
c29d1f418e024ccb65bed3fc,Tacos Carlos,20.651671,-103.448033,Tepeyac 331,Zapopan,Jalisco,45069,,,,MX,2013-03-24,2023-12-06,,33 3180 1609,,,,,,['4bf58dd8d48988d151941735'],['Dining and Drinking > Restaurant > Mexican Restaurant > Taco Restaurant'],b'\x00\x00\x00\x00\x01\xc0Y\xdc\xac\x92\x9a\xa1\xd7@4\xa6\xd3\xe9 \xc0j',"{'xmin': -103.448033, 'ymin': 20.651671, 'xmax': -103.448033, 'ymax': 20.651671}",dining and drinking > restaurant > mexican restaurant > taco restaurant,1
77919af461354487d8833eba,Potzollcalli,22.170156,-100.956687,Carretera Central 32,San Luis Potosí,San Luis Potosí,78390,,,,MX,2013-05-03,2023-12-06,,444 822 6696,http://www.potzollcalli.com.mx,,,,,['4bf58dd8d48988d16e941735' '4bf58dd8d48988d151941735'],"['Dining and Drinking > Restaurant > Fast Food Restaurant'
 'Dining and Drinking > Restaurant > Mexican Restaurant > Taco Restaurant']",b'\x00\x00\x00\x00\x01\xc0Y=:\\\x1c`\x89@6+\x8fW\xf77\xda',"{'xmin': -100.956687, 'ymin': 22.170156, 'xmax': -100.956687, 'ymax': 22.170156}","dining and drinking > restaurant > fast food restaurant, dining and drinking > restaurant > mexican restaurant > taco restaurant",1
68c555532b4442330514abff,Carnes en su Jugo,20.71424,-105.214925,Francisco Medina 4594,Puerto Vallarta,Jalisco,48335,,,,MX,2013-07-02,2023-12-06,,322 209 1138,,,,,,['4bf58dd8d48988d151941735' '63be6904847c3692a84b9bf0'],"['Dining and Drinking > Restaurant > Mexican Restaurant > Taco Restaurant'
 'Retail > Food and Beverage Retail > Meat and Seafood Store']",b'\x00\x00\x00\x00\x01\xc0ZM\xc1T\xc9\x85\xf0@4\xb6\xd8n\xc1~\xbb',"{'xmin': -105.214925, 'ymin': 20.71424, 'xmax': -105.214925, 'ymax': 20.71424}","dining and drinking > restaurant > mexican restaurant > taco restaurant, retail > food and beverage retail > meat and seafood store",1
4ec874539a52756c56eab381,Tacos Ruth,20.723064033591932,-103.56544891483998,,,,,,,,MX,2011-11-20,2020-11-25,,,,,,,,['4bf58dd8d48988d151941735'],['Dining and Drinking > Restaurant > Mexican Restaurant > Taco Restaurant'],b'\x00\x00\x00\x00\x01\xc0Y\xe40P\xa52\xf8@4\xb9\x1a\xb9y0\xf2',"{'xmin': -103.56544891483998, 'ymin': 20.723064033591932, 'xmax': -103.56544891483998, 'ymax': 20.723064033591932}",dining and drinking > restaurant > mexican restaurant > taco restaurant,1
580d548438faf62197e75679,cenaduria celso,20.565514,-101.192931,,,,,,,,MX,2016-10-24,2021-08-13,,,,,,,,['4bf58dd8d48988d151941735'],['Dining and Drinking > Restaurant > Mexican Restaurant > Taco Restaurant'],b'\x00\x00\x00\x00\x01\xc0YLX\xfbC\xd8\x9d@4\x90\xc5\x86\x87n\x1e',"{'xmin': -101.192931, 'ymin': 20.565514, 'xmax': -101.192931, 'ymax': 20.565514}",dining and drinking > restaurant > mexican restaurant > taco restaurant,1
57410bdc498e8a0625bb1594,Los Tacos,20.669237,-103.30381,,,,,,,,MX,2016-05-22,2023-12-19,,33 3345 3439,,,,,,['4bf58dd8d48988d151941735'],['Dining and Drinking > Restaurant > Mexican Restaurant > Taco Restaurant'],b'\x00\x00\x00\x00\x01\xc0Y\xd3q\x9f\x7f\x8c\xa8@4\xabS\x1d\xb4E\xed',"{'xmin': -103.30381, 'ymin': 20.669237, 'xmax': -103.30381, 'ymax': 20.669237}",dining and drinking > restaurant > mexican restaurant > taco restaurant,1
4dfd780bc65b31579b322d70,Tacos Don Juanito,22.14156042376513,-100.93329079116376,Ricardo B. Anaya,San Luis Potosí,San Luis Potosí,78390,,,,MX,2011-06-19,2024-01-03,,444 828 2938,http://www.tacosdonjuanito.com.mx,,,,,['4bf58dd8d48988d151941735'],['Dining and Drinking > Restaurant > Mexican Restaurant > Taco Restaurant'],b'\x00\x00\x00\x00\x01\xc0Y;\xbb\tLm4@6$=M\xcez\xa9',"{'xmin': -100.93329079116376, 'ymin': 22.14156042376513, 'xmax': -100.93329079116376, 'ymax': 22.14156042376513}",dining and drinking > restaurant > mexican restaurant > taco restaurant,1
5db9b9daf0a6ce000871c32e,Tacos Los Nanos,22.202015,-101.02429,,La Cabra,San Luis Potosí,,,,,MX,2019-10-30,2020-11-23,,,,,,,,['4bf58dd8d48988d151941735'],['Dining and Drinking > Restaurant > Mexican Restaurant > Taco Restaurant'],b'\x00\x00\x00\x00\x01\xc0YA\x8d\xf7\xa4\xe7\xab@63\xb7AJM+',"{'xmin': -101.02429, 'ymin': 22.202015, 'xmax': -101.02429, 'ymax': 22.202015}",dining and drinking > restaurant > mexican restaurant > taco restaurant,1
5525a294498eaa8f040c21c1,"Los Danieles ""Carnitas""",18.35707,-99.547215,,,,,,,,MX,2015-04-08,2021-08-13,,,,,,,,['4bf58dd8d48988d151941735'],['Dining and Drinking > Restaurant > Mexican Restaurant > Taco Restaurant'],b'\x00\x00\x00\x00\x01\xc0X\xe3\x05\x92\x108\\@2[h\xf0\x84a\xfa',"{'xmin': -99.547215, 'ymin': 18.35707, 'xmax': -99.547215, 'ymax': 18.35707}",dining and drinking > restaurant > mexican restaurant > taco restaurant,1
51818b50498e5a1a6e83511f,La michoacana,19.27837040757731,-99.68293554196332,Lago Caimanero,,,,,,,MX,2013-05-01,2021-08-14,,,,,,,,['4bf58dd8d48988d151941735'],['Dining and Drinking > Restaurant > Mexican Restaurant > Taco Restaurant'],b'\x00\x00\x00\x00\x01\xc0X\xeb\xb57F\x80\x8b@3GCHt\xb7\xff',"{'xmin': -99.68293554196332, 'ymin': 19.27837040757731, 'xmax': -99.68293554196332, 'ymax': 19.27837040757731}",dining and drinking > restaurant > mexican restaurant > taco restaurant,1
566a40aa498eba8f2c123a25,"Tacos ""El Sabor de la Noche""",19.269442,-99.658872,,,,,,,,MX,2015-12-11,2021-08-16,,,,,,,,['4bf58dd8d48988d151941735'],['Dining and Drinking > Restaurant > Mexican Restaurant > Taco Restaurant'],b'\x00\x00\x00\x00\x01\xc0X\xea*\xf5w\x10\x02@3D\xfa&\xa2+9',"{'xmin': -99.658872, 'ymin': 19.269442, 'xmax': -99.658872, 'ymax': 19.269442}",dining and drinking > restaurant > mexican restaurant > taco restaurant,1
5152571de4b0ba9d0a5dc3fc,Taqueria El Chambelan,16.477264,-94.83431,,,,,,,,MX,2013-03-27,2021-08-16,,,,,,,,['4bf58dd8d48988d151941735'],['Dining and Drinking > Restaurant > Mexican Restaurant > Taco Restaurant'],b'\x00\x00\x00\x00\x01\xc0W\xb5eU\xc5.s@0z-\xf97\x8e\xe3',"{'xmin': -94.83431, 'ymin': 16.477264, 'xmax': -94.83431, 'ymax': 16.477264}",dining and drinking > restaurant > mexican restaurant > taco restaurant,1
53ae51a3498e1da25de20261,Taqueria de Ramón,19.699119,-101.149119,,,,,,,,MX,2014-06-28,2021-08-13,,,,,,,,['4bf58dd8d48988d151941735'],['Dining and Drinking > Restaurant > Mexican Restaurant > Taco Restaurant'],b'\x00\x00\x00\x00\x01\xc0YI\x8b*k\r\x95@3\xb2\xf9vy\x03!',"{'xmin': -101.149119, 'ymin': 19.699119, 'xmax': -101.149119, 'ymax': 19.699119}",dining and drinking > restaurant > mexican restaurant > taco restaurant,1
505dd64ee4b0084c409e2911,Taqueria Los Martinez,17.05064,-96.713397,,,,,,,,MX,2012-09-22,2021-08-16,,,,,,,,['4bf58dd8d48988d151941735'],['Dining and Drinking > Restaurant > Mexican Restaurant > Taco Restaurant'],b'\x00\x00\x00\x00\x01\xc0X-\xa8K\xe4\x04!@1\x0c\xf6\xbe7\xde\x94',"{'xmin': -96.713397, 'ymin': 17.05064, 'xmax': -96.713397, 'ymax': 17.05064}",dining and drinking > restaurant > mexican restaurant > taco restaurant,1
53c561c3498e7f0131f6e953,Barbacoa Vick,19.69590464925104,-101.1664444676007,,,,,,,,MX,2014-07-15,2021-08-16,,,,,,,,['4bf58dd8d48988d151941735'],['Dining and Drinking > Restaurant > Mexican Restaurant > Taco Restaurant'],b'\x00\x00\x00\x00\x01\xc0YJ\xa7\x06\xb2<}@3\xb2&\xce\x9d\xaa\xe6',"{'xmin': -101.1664444676007, 'ymin': 19.69590464925104, 'xmax': -101.1664444676007, 'ymax': 19.69590464925104}",dining and drinking > restaurant > mexican restaurant > taco restaurant,1
521a97ca11d27d4e2873207d,La Gran Torta,18.849457,-97.103578,,,,,,,,MX,2013-08-25,2021-08-17,,,,,,,,['4bf58dd8d48988d151941735'],['Dining and Drinking > Restaurant > Mexican Restaurant > Taco Restaurant'],b'\x00\x00\x00\x00\x01\xc0XF\xa1\x05\x9e\xa5r@2\xd9v\x03\x92[\xb8',"{'xmin': -97.103578, 'ymin': 18.849457, 'xmax': -97.103578, 'ymax': 18.849457}",dining and drinking > restaurant > mexican restaurant > taco restaurant,1
52756b9d11d28b23ff4c25ad,Tacos Taurinos El Torito,19.399678131633138,-102.04992455579422,Honduras 38,Uruapan,Michoacán,60160,,,,MX,2013-11-02,2023-12-20,,452 131 2496,,,,,,['4bf58dd8d48988d151941735'],['Dining and Drinking > Restaurant > Mexican Restaurant > Taco Restaurant'],b'\x00\x00\x00\x00\x01\xc0Y\x831\xf6\xc3\x99\xd3@3fQNXJl',"{'xmin': -102.04992455579422, 'ymin': 19.399678131633138, 'xmax': -102.04992455579422, 'ymax': 19.399678131633138}",dining and drinking > restaurant > mexican restaurant > taco restaurant,1
58e999b74ca49b527d145cca,taquería ledesma,19.516296,-101.607543,,,,,,,,MX,2017-04-09,2021-08-12,,,,,,,,['4bf58dd8d48988d151941735'],['Dining and Drinking > Restaurant > Mexican Restaurant > Taco Restaurant'],b'\x00\x00\x00\x00\x01\xc0Yf\xe1\xfc\x08\xfa{@3\x84+\xf9\x83\x0e=',"{'xmin': -101.607543, 'ymin': 19.516296, 'xmax': -101.607543, 'ymax': 19.516296}",dining and drinking > restaurant > mexican restaurant > taco restaurant,1
540b7513498e86f0e4cb85f1,"Taqueria ""El Gato""",14.900081634521484,-92.26351928710938,,,,,,,,MX,2014-09-06,2021-08-14,,,,,,,,['4bf58dd8d48988d151941735'],['Dining and Drinking > Restaurant > Mexican Restaurant > Taco Restaurant'],b'\x00\x00\x00\x00\x01\xc0W\x10\xdd\x80\x00\x00\x00@-\xcc\xd7\x80\x00\x00\x00',"{'xmin': -92.26351928710938, 'ymin': 14.900081634521484, 'xmax': -92.26351928710938, 'ymax': 14.900081634521484}",dining and drinking > restaurant > mexican restaurant > taco restaurant,1
557b98b3498e3fc4d8630ae0,Tacos El Bigos,19.311608,-99.124299,,,,,,,,MX,2015-06-13,2021-08-17,,,,,,,,['4bf58dd8d48988d151941735'],['Dining and Drinking > Restaurant > Mexican Restaurant > Taco Restaurant'],"b'\x00\x00\x00\x00\x01\xc0X\xc7\xf4\x83\xca\xfb;@3O\xc5\x8a\xb9,\x06'","{'xmin': -99.124299, 'ymin': 19.311608, 'xmax': -99.124299, 'ymax': 19.311608}",dining and drinking > restaurant > mexican restaurant > taco restaurant,1
55207f04498e56215646b4e7,Taquería Donga,18.085571944065105,-96.11918735373042,,,,,,,,MX,2015-04-05,2021-08-14,,,,,,,,['4bf58dd8d48988d151941735'],['Dining and Drinking > Restaurant > Mexican Restaurant > Taco Restaurant'],b'\x00\x00\x00\x00\x01\xc0X\x07\xa0\xc3\xfe\x97\x9d@2\x15\xe8\n\xfd6\xfb',"{'xmin': -96.11918735373042, 'ymin': 18.085571944065105, 'xmax': -96.11918735373042, 'ymax': 18.085571944065105}",dining and drinking > restaurant > mexican restaurant > taco restaurant,1
506e3937e4b0ebbd342fbfdd,Tacos Archi's,19.27275109451619,-99.62094784763795,Fuente de Faunos Esquina con Paseo San Gabriel. Inf. San Gabriel,Metepec,Edo De Mex.,52159,,,,MX,2012-10-05,2023-01-02,,722 225 4016,https://rappi.app.link/Archis_Tacos_Arabes?af_adset=pa-copy,,,,,['4bf58dd8d48988d151941735'],['Dining and Drinking > Restaurant > Mexican Restaurant > Taco Restaurant'],b'\x00\x00\x00\x00\x01\xc0X\xe7\xbd\x9c\n\x88\x1a@3E\xd3\x04\x06\xe5/',"{'xmin': -99.62094784763795, 'ymin': 19.27275109451619, 'xmax': -99.62094784763795, 'ymax': 19.27275109451619}",dining and drinking > restaurant > mexican restaurant > taco restaurant,1
52890ed2498eae126af86e9f,Barbacoa El Güero.,19.24857134476267,-99.66545710751846,,,,,,,,MX,2013-11-17,2023-12-19,,722 180 6060,,,,,,['4bf58dd8d48988d151941735'],['Dining and Drinking > Restaurant > Mexican Restaurant > Taco Restaurant'],b'\x00\x00\x00\x00\x01\xc0X\xea\x96\xd9hk\xaf@3?\xa2_$zy',"{'xmin': -99.66545710751846, 'ymin': 19.24857134476267, 'xmax': -99.66545710751846, 'ymax': 19.24857134476267}",dining and drinking > restaurant > mexican restaurant > taco restaurant,1
56889192498e2d8461b8af40,"Taqueria ""Juan De Dios""",18.680464,-103.67024,,,,,,,,MX,2016-01-03,2020-11-22,,,,,,,,['4bf58dd8d48988d151941735'],['Dining and Drinking > Restaurant > Mexican Restaurant > Taco Restaurant'],b'\x00\x00\x00\x00\x01\xc0Y\xea\xe56P\x1e&@2\xae2\xe3\x82\x1a\xf8',"{'xmin': -103.67024, 'ymin': 18.680464, 'xmax': -103.67024, 'ymax': 18.680464}",dining and drinking > restaurant > mexican restaurant > taco restaurant,1
4f1f7118e4b01a2ba1773205,Taqueria Lourdes,19.184909778676044,-96.1518622909058,Calle 9,VERACRUZ,VERACRUZ,,,,,MX,2012-01-25,2020-11-25,,,,,,,,['4bf58dd8d48988d151941735'],['Dining and Drinking > Restaurant > Mexican Restaurant > Taco Restaurant'],b'\x00\x00\x00\x00\x01\xc0X\t\xb8\x1c\x9d;\xe8@3/V?L\x1f\xcc',"{'xmin': -96.1518622909058, 'ymin': 19.184909778676044, 'xmax': -96.1518622909058, 'ymax': 19.184909778676044}",dining and drinking > restaurant > mexican restaurant > taco restaurant,1
56ff2759cd10b36af91684b9,"Tacos De Cabeza De Res ""La Curva De Cuauhtémoc""",18.92046,-99.21183,,,,,,,,MX,2016-04-02,2021-08-17,,,,,,,,['56aa371be4b08b9a8d57350b' '4bf58dd8d48988d151941735'],"['Dining and Drinking > Food Stand'
 'Dining and Drinking > Restaurant > Mexican Restaurant > Taco Restaurant']",b'\x00\x00\x00\x00\x01\xc0X\xcd\x8e\x9fj\x93\xf3@2\xeb\xa3D=F\xb2',"{'xmin': -99.21183, 'ymin': 18.92046, 'xmax': -99.21183, 'ymax': 18.92046}","dining and drinking > food stand, dining and drinking > restaurant > mexican restaurant > taco restaurant",1
4d7b11a70be2721e4401a196,Taquería Don Charly,19.988799882684603,-102.28523921331518,Juárez,Zamora de Hidalgo,Michoacán de Ocampo,59600,,,,MX,2011-03-12,2020-11-25,,,,,,,,['4bf58dd8d48988d151941735' '4bf58dd8d48988d1cb941735'],"['Dining and Drinking > Restaurant > Mexican Restaurant > Taco Restaurant'
 'Dining and Drinking > Food Truck']",b'\x00\x00\x00\x00\x01\xc0Y\x92A[\xf9.n@3\xfd!\xfd6kD',"{'xmin': -102.28523921331518, 'ymin': 19.988799882684603, 'xmax': -102.28523921331518, 'ymax': 19.988799882684603}","dining and drinking > restaurant > mexican restaurant > taco restaurant, dining and drinking > food truck",1
531d2bd3498ee39582aa6a78,"Taquería, Las Delicias de Morelos",18.867116928100586,-99.22543334960938,,,,,,,,MX,2014-03-10,2021-08-15,,,,,,,,['4bf58dd8d48988d151941735'],['Dining and Drinking > Restaurant > Mexican Restaurant > Taco Restaurant'],b'\x00\x00\x00\x00\x01\xc0X\xcem\x80\x00\x00\x00@2\xdd\xfb`\x00\x00\x00',"{'xmin': -99.22543334960938, 'ymin': 18.867116928100586, 'xmax': -99.22543334960938, 'ymax': 18.867116928100586}",dining and drinking > restaurant > mexican restaurant > taco restaurant,1
54f9cd47498e2cca2f24ec72,Tacos Las Cazuelitas,18.913534,-103.87903,,,,,,,,MX,2015-03-06,2023-12-21,,313 324 2633,,,,,,['4bf58dd8d48988d151941735'],['Dining and Drinking > Restaurant > Mexican Restaurant > Taco Restaurant'],b'\x00\x00\x00\x00\x01\xc0Y\xf8B\x07\x0b\x8c\xfc@2\xe9\xdd]=\xc8\xb8',"{'xmin': -103.87903, 'ymin': 18.913534, 'xmax': -103.87903, 'ymax': 18.913534}",dining and drinking > restaurant > mexican restaurant > taco restaurant,1
50611e72e4b0034de52f2a96,Que Ricos Tacos,17.534081,-99.495802,,,,,,,,MX,2012-09-25,2021-08-15,,,,,,,,['4bf58dd8d48988d151941735'],['Dining and Drinking > Restaurant > Mexican Restaurant > Taco Restaurant'],b'\x00\x00\x00\x00\x01\xc0X\xdf\xbb8O\xd2\xa6@1\x88\xb9\x88Lj<',"{'xmin': -99.495802, 'ymin': 17.534081, 'xmax': -99.495802, 'ymax': 17.534081}",dining and drinking > restaurant > mexican restaurant > taco restaurant,1
4e90f0fa49013919db0d26fa,Takos al pastor el guero,19.203288729116945,-96.19031068151365,,,,,,,,MX,2011-10-09,2021-08-16,,,,,,,,['4bf58dd8d48988d151941735'],['Dining and Drinking > Restaurant > Mexican Restaurant > Taco Restaurant'],b'\x00\x00\x00\x00\x01\xc0X\x0c.\x0c\xdaK\x8f@34\n\xba\xeb3\xe3',"{'xmin': -96.19031068151365, 'ymin': 19.203288729116945, 'xmax': -96.19031068151365, 'ymax': 19.203288729116945}",dining and drinking > restaurant > mexican restaurant > taco restaurant,1
4ea0c9cf4690104bb2e215d2,Taqueria El Pastor,17.031254199227117,-96.7291283695197,,,,,,,,MX,2011-10-21,2023-12-19,,844 412 2121,,,,,,['4bf58dd8d48988d151941735'],['Dining and Drinking > Restaurant > Mexican Restaurant > Taco Restaurant'],b'\x00\x00\x00\x00\x01\xc0X.\xaa\n\tk\x11@1\x08\x00Fs\x8b\x0b',"{'xmin': -96.7291283695197, 'ymin': 17.031254199227117, 'xmax': -96.7291283695197, 'ymax': 17.031254199227117}",dining and drinking > restaurant > mexican restaurant > taco restaurant,1
4edad92b7ee5e8e3e775c85e,Taqueria el amigo,17.059504213276455,-96.72708516946041,,,,,,,,MX,2011-12-04,2021-08-11,,,,,,,,['4bf58dd8d48988d151941735'],['Dining and Drinking > Restaurant > Mexican Restaurant > Taco Restaurant'],b'\x00\x00\x00\x00\x01\xc0X.\x88\x90<\x0fM@1\x0f;\xab\t\xff ',"{'xmin': -96.72708516946041, 'ymin': 17.059504213276455, 'xmax': -96.72708516946041, 'ymax': 17.059504213276455}",dining and drinking > restaurant > mexican restaurant > taco restaurant,1
ad45c18d04a4438301caf11f,Taqueria,20.303118,-103.26345,Calle Juarez 72A,Ajijic,Jalisco,45920,,,,MX,2010-11-04,2023-12-08,,,,,,,,['4bf58dd8d48988d151941735'],['Dining and Drinking > Restaurant > Mexican Restaurant > Taco Restaurant'],b'\x00\x00\x00\x00\x01\xc0Y\xd0\xdc]c\x88f@4M\x99$(\xd45',"{'xmin': -103.26345, 'ymin': 20.303118, 'xmax': -103.26345, 'ymax': 20.303118}",dining and drinking > restaurant > mexican restaurant > taco restaurant,1
610f5c0bd73b3a36bd666ee1,Tacos,18.985976,-99.102024,2 Calle De Buenavista,Tepoztlán,MOR,62520,,,,MX,2021-08-08,2021-08-08,,,,,,,,['4bf58dd8d48988d151941735' '4bf58dd8d48988d1c1941735'],"['Dining and Drinking > Restaurant > Mexican Restaurant > Taco Restaurant'
 'Dining and Drinking > Restaurant > Mexican Restaurant']",b'\x00\x00\x00\x00\x01\xc0X\xc6\x87\x8f\xab\xda\x0e@2\xfch\xecR\xa4\x12',"{'xmin': -99.102024, 'ymin': 18.985976, 'xmax': -99.102024, 'ymax': 18.985976}","dining and drinking > restaurant > mexican restaurant > taco restaurant, dining and drinking > restaurant > mexican restaurant",1
50832e5ae4b00dbb9daa5cbb,Dona mary,16.955486681754028,-96.4789266500107,,,,,,,,MX,2012-10-20,2023-12-19,,477 167 5116,,,,,,['4bf58dd8d48988d151941735'],['Dining and Drinking > Restaurant > Mexican Restaurant > Taco Restaurant'],b'\x00\x00\x00\x00\x01\xc0X\x1e\xa6\xbb\xf6\xbe\xa5@0\xf4\x9a\xc6q\xe5\xa9',"{'xmin': -96.4789266500107, 'ymin': 16.955486681754028, 'xmax': -96.4789266500107, 'ymax': 16.955486681754028}",dining and drinking > restaurant > mexican restaurant > taco restaurant,1
50209333e4b0cffa2ac5ad58,Taqueria Los Compadres,17.557847,-99.505565,,,,,,,,MX,2012-08-07,2023-12-20,,747 472 3621,,,,,,['4bf58dd8d48988d151941735'],['Dining and Drinking > Restaurant > Mexican Restaurant > Taco Restaurant'],b'\x00\x00\x00\x00\x01\xc0X\xe0[-M@%@1\x8e\xcf\x0f\x9d+\xf5',"{'xmin': -99.505565, 'ymin': 17.557847, 'xmax': -99.505565, 'ymax': 17.557847}",dining and drinking > restaurant > mexican restaurant > taco restaurant,1
66d4e2a3e6c2530c19a1f705,Taqueria Güeros De La Naval,19.32906,-99.124566,,Coyoacán,CDMX,04470,,,,MX,2024-09-01,2024-09-01,,,,,,,,['4bf58dd8d48988d151941735'],['Dining and Drinking > Restaurant > Mexican Restaurant > Taco Restaurant'],b'\x00\x00\x00\x00\x01\xc0X\xc7\xf8\xe3\xac\x0cc@3T=F\xb2k\xf8',"{'xmin': -99.124566, 'ymin': 19.32906, 'xmax': -99.124566, 'ymax': 19.32906}",dining and drinking > restaurant > mexican restaurant > taco restaurant,1
58269cc57448d2404b3fd4cd,"Tacos al pastor ""Rabit""",19.708814,-101.210997,Av Michoacán,,,,,,,MX,2016-11-12,2021-08-11,,,,,,,,['4bf58dd8d48988d151941735'],['Dining and Drinking > Restaurant > Mexican Restaurant > Taco Restaurant'],b'\x00\x00\x00\x00\x01\xc0YM\x80\xf9\x8f\xa3w@3\xb5t\xd5\x94\xf2k',"{'xmin': -101.210997, 'ymin': 19.708814, 'xmax': -101.210997, 'ymax': 19.708814}",dining and drinking > restaurant > mexican restaurant > taco restaurant,1
5279bacc498eb96ac5f3763c,El Suaderito,18.864426,-97.104709,,,,,,,,MX,2013-11-06,2021-08-13,,,,,,,,['4bf58dd8d48988d151941735'],['Dining and Drinking > Restaurant > Mexican Restaurant > Taco Restaurant'],b'\x00\x00\x00\x00\x01\xc0XF\xb3\x8d`\xa63@2\xddK\x05\xb7\xcf\xe6',"{'xmin': -97.104709, 'ymin': 18.864426, 'xmax': -97.104709, 'ymax': 18.864426}",dining and drinking > restaurant > mexican restaurant > taco restaurant,1
4cd46fada5b34688d0eb8750,Tacos Don Max,19.294730709504012,-99.1821700276156,Av. de los Insurgentes Sur,México,DF,,,,,MX,2010-11-05,2020-11-22,,,,,,,,['4bf58dd8d48988d151941735'],['Dining and Drinking > Restaurant > Mexican Restaurant > Taco Restaurant'],b'\x00\x00\x00\x00\x01\xc0X\xcb\xa8\xacy\xba\xe8@3Ksx\xc6rU',"{'xmin': -99.1821700276156, 'ymin': 19.294730709504012, 'xmax': -99.1821700276156, 'ymax': 19.294730709504012}",dining and drinking > restaurant > mexican restaurant > taco restaurant,1
4e90f5c1cc2127f5dac71553,Tacos El Chay,18.951854,-99.217637,Nva Dinamarca,Cuernavaca,Morelos,,,,,MX,2011-10-09,2020-11-25,,,,,,,,['4bf58dd8d48988d151941735'],['Dining and Drinking > Restaurant > Mexican Restaurant > Taco Restaurant'],b'\x00\x00\x00\x00\x01\xc0X\xcd\xed\xc3\xbdY\x92@2\xf3\xac\xb4(\x91\x19',"{'xmin': -99.217637, 'ymin': 18.951854, 'xmax': -99.217637, 'ymax': 18.951854}",dining and drinking > restaurant > mexican restaurant > taco restaurant,1
531a9a4c498ea337353efdd1,taqueria el cuñado,19.33223101897749,-99.17093221780846,,Coyoacán,,,,,,MX,2014-03-08,2020-11-30,,,,,,,,['4bf58dd8d48988d151941735'],['Dining and Drinking > Restaurant > Mexican Restaurant > Taco Restaurant'],b'\x00\x00\x00\x00\x01\xc0X\xca\xf0\x8d\xafT|@3U\r\x17\x919\x9f',"{'xmin': -99.17093221780846, 'ymin': 19.33223101897749, 'xmax': -99.17093221780846, 'ymax': 19.33223101897749}",dining and drinking > restaurant > mexican restaurant > taco restaurant,1
52bbad6411d24e0c8883abac,Taquería Tiganá,18.367541,-100.676536,,,,,,,,MX,2013-12-26,2021-10-15,,,,,,,,['4bf58dd8d48988d151941735'],['Dining and Drinking > Restaurant > Mexican Restaurant > Taco Restaurant'],b'\x00\x00\x00\x00\x01\xc0Y+L]\xa6\xa4D@2^\x17*\xbe\xf0k',"{'xmin': -100.676536, 'ymin': 18.367541, 'xmax': -100.676536, 'ymax': 18.367541}",dining and drinking > restaurant > mexican restaurant > taco restaurant,1
4f69e825e4b0401846917cf4,TAKIXXAS,20.370092187407497,-102.76876054056595,,,,,,,,MX,2012-03-21,2021-08-14,2014-01-28,,,,,,,['4bf58dd8d48988d151941735'],['Dining and Drinking > Restaurant > Mexican Restaurant > Taco Restaurant'],b'\x00\x00\x00\x00\x01\xc0Y\xb13_i\x0b\xe8@4^\xbe\\\x91k\x99',"{'xmin': -102.76876054056595, 'ymin': 20.370092187407497, 'xmax': -102.76876054056595, 'ymax': 20.370092187407497}",dining and drinking > restaurant > mexican restaurant > taco restaurant,1
4f08a108e4b0ca3a5c7c0d3c,RICOS HUARACHES,19.295668705477613,-99.22919025429404,Opichen,Mexico D. F,,,,,,MX,2012-01-07,2020-11-30,,,,,,,,['4bf58dd8d48988d151941735'],['Dining and Drinking > Restaurant > Mexican Restaurant > Taco Restaurant'],b'\x00\x00\x00\x00\x01\xc0X\xce\xab\r\x99\xb0O@3K\xb0\xf1\xbcz\x1d',"{'xmin': -99.22919025429404, 'ymin': 19.295668705477613, 'xmax': -99.22919025429404, 'ymax': 19.295668705477613}",dining and drinking > restaurant > mexican restaurant > taco restaurant,1
6689d325cde520058c211e78,Taquería Distrito 1,19.304825,-99.081955,"Calle 10. 
Colonia José López Portillo.
Alcaldía Iztapalapa.",Ciudad de México,Ciudad de México,09920,,,,MX,2024-07-06,2024-07-06,,,,,,,,['4bf58dd8d48988d151941735'],['Dining and Drinking > Restaurant > Mexican Restaurant > Taco Restaurant'],b'\x00\x00\x00\x00\x01\xc0X\xc5>\xc0//\x98@3N\t\x02\xde\x00\xd2',"{'xmin': -99.081955, 'ymin': 19.304825, 'xmax': -99.081955, 'ymax': 19.304825}",dining and drinking > restaurant > mexican restaurant > taco restaurant,1
5e6c535547c379000860dfaa,Taqueria Robles,16.949396,-96.75039,Tiboot 208,Villa de Zaachila,OAX,71313,,,,MX,2020-03-14,2020-11-22,,,,,,,,['4bf58dd8d48988d151941735'],['Dining and Drinking > Restaurant > Mexican Restaurant > Taco Restaurant'],b'\x00\x00\x00\x00\x01\xc0X0\x06c\xc7O\xb5@0\xf3\x0b\x9d\xc2\xf4\x06',"{'xmin': -96.75039, 'ymin': 16.949396, 'xmax': -96.75039, 'ymax': 16.949396}",dining and drinking > restaurant > mexican restaurant > taco restaurant,1
5617d72c498e1ee7f5263e3f,Chuy 🇲🇽,19.285642,-99.134792,,,,,,,,MX,2015-10-09,2021-08-12,,,,,,,,['4bf58dd8d48988d151941735'],['Dining and Drinking > Restaurant > Mexican Restaurant > Taco Restaurant'],b'\x00\x00\x00\x00\x01\xc0X\xc8\xa0n\x9f\xf0\xcc@3I\x1f\xd5\x88]1',"{'xmin': -99.134792, 'ymin': 19.285642, 'xmax': -99.134792, 'ymax': 19.285642}",dining and drinking > restaurant > mexican restaurant > taco restaurant,1
66cea9c7347ce6103b1414af,Tacos Arabes El Camello,19.342882,-99.042117,,Iztapalapa,CDMX,09700,,,,MX,2024-08-28,2024-08-28,,,,,,,,['4bf58dd8d48988d151941735'],['Dining and Drinking > Restaurant > Mexican Restaurant > Taco Restaurant'],b'\x00\x00\x00\x00\x01\xc0X\xc2\xb2\x0b\x80f\xc3@3W\xc7\x1d`c\x17',"{'xmin': -99.042117, 'ymin': 19.342882, 'xmax': -99.042117, 'ymax': 19.342882}",dining and drinking > restaurant > mexican restaurant > taco restaurant,1
50077b2ee4b01a0b00f264c7,"Tacos ""El Bajio""",19.30055348106265,-99.62503616812529,,,,,,,,MX,2012-07-19,2021-08-12,,,,,,,,['4bf58dd8d48988d151941735'],['Dining and Drinking > Restaurant > Mexican Restaurant > Taco Restaurant'],b'\x00\x00\x00\x00\x01\xc0X\xe8\x00\x97\xb3:\x94@3L\xf1\x12\xab\xdc\xf0',"{'xmin': -99.62503616812529, 'ymin': 19.30055348106265, 'xmax': -99.62503616812529, 'ymax': 19.30055348106265}",dining and drinking > restaurant > mexican restaurant > taco restaurant,1
57d81e71498e2092f98256f1,Tacos Jhony Estilo GDL,18.906997,-103.869711,,,,,,,,MX,2016-09-13,2021-08-16,,,,,,,,['4bf58dd8d48988d151941735'],['Dining and Drinking > Restaurant > Mexican Restaurant > Taco Restaurant'],"b'\x00\x00\x00\x00\x01\xc0Y\xf7\xa9XS~,@2\xe80\xf4\x94\x91\xf3'","{'xmin': -103.869711, 'ymin': 18.906997, 'xmax': -103.869711, 'ymax': 18.906997}",dining and drinking > restaurant > mexican restaurant > taco restaurant,1
566c5215498e6c10237b38d1,Tlacoyos y Quesadillas Yacatecutli,19.267955,-99.204781,,,,,,,,MX,2015-12-12,2021-08-15,,,,,,,,['4bf58dd8d48988d151941735'],['Dining and Drinking > Restaurant > Mexican Restaurant > Taco Restaurant'],b'\x00\x00\x00\x00\x01\xc0X\xcd\x1b!\xc4u\xe6@3D\x98\xb2\xe9\xcc\xb8',"{'xmin': -99.204781, 'ymin': 19.267955, 'xmax': -99.204781, 'ymax': 19.267955}",dining and drinking > restaurant > mexican restaurant > taco restaurant,1
5714eb5ecd10bf62545d486f,tacos la chica y manolo,19.7036,-101.177773,,,,,,,,MX,2016-04-18,2021-08-16,,,,,,,,['4bf58dd8d48988d151941735'],['Dining and Drinking > Restaurant > Mexican Restaurant > Taco Restaurant'],b'\x00\x00\x00\x00\x01\xc0YK`\xa2\x01G(@3\xb4\x1f!-w2',"{'xmin': -101.177773, 'ymin': 19.7036, 'xmax': -101.177773, 'ymax': 19.7036}",dining and drinking > restaurant > mexican restaurant > taco restaurant,1
5168d255e4b0f3013c2d1711,Antojitos Rancho Acapulco,16.877527877387887,-99.8631359242353,,,,,,,,MX,2013-04-13,2021-08-13,,,,,,,,['4bf58dd8d48988d151941735'],['Dining and Drinking > Restaurant > Mexican Restaurant > Taco Restaurant'],b'\x00\x00\x00\x00\x01\xc0X\xf7=\x9eu\xa5\xf9@0\xe0\xa5\xaa\xbe\xb5\x93',"{'xmin': -99.8631359242353, 'ymin': 16.877527877387887, 'xmax': -99.8631359242353, 'ymax': 16.877527877387887}",dining and drinking > restaurant > mexican restaurant > taco restaurant,1
642235d8af39757993f76b26,El Rey Del Machete,19.330711,-99.044395,"Guadalupe Victoria Mz 28 Lt 11, Carlos Carlos Hank González",Ciudad de México,Ciudad de México,09700,,,,MX,2023-03-28,2023-09-13,,,,,,,,['4bf58dd8d48988d151941735'],['Dining and Drinking > Restaurant > Mexican Restaurant > Taco Restaurant'],b'\x00\x00\x00\x00\x01\xc0X\xc2\xd7^ F\xc7@3T\xa9y\xe1mn',"{'xmin': -99.044395, 'ymin': 19.330711, 'xmax': -99.044395, 'ymax': 19.330711}",dining and drinking > restaurant > mexican restaurant > taco restaurant,1
512662a2e4b028180538a05c,Tacos Maruca,19.991256,-102.291397,,,,,,,,MX,2013-02-21,2021-08-12,,,,,,,,['4bf58dd8d48988d151941735'],['Dining and Drinking > Restaurant > Mexican Restaurant > Taco Restaurant'],b'\x00\x00\x00\x00\x01\xc0Y\x92\xa6?\x9aI\xc3@3\xfd\xc2\xf4\x05\xf6\xba',"{'xmin': -102.291397, 'ymin': 19.991256, 'xmax': -102.291397, 'ymax': 19.991256}",dining and drinking > restaurant > mexican restaurant > taco restaurant,1
