fsq_place_id,name,latitude,longitude,address,locality,region,postcode,admin_region,post_town,po_box,country,date_created,date_refreshed,date_closed,tel,website,email,facebook_id,instagram,twitter,fsq_category_ids,fsq_category_labels,geom,bbox,labels_str,taco_restaurant
4e7906f352b1fc6a4aaf8998,Tacos al vapor,31.8725,-116.6217,,,,,,,,MX,2011-09-20,2021-08-12,,,,,,,,['4bf58dd8d48988d151941735'],['Dining and Drinking > Restaurant > Mexican Restaurant > Taco Restaurant'],"b""\x00\x00\x00\x00\x01\xc0]'\xc9\xee\xcb\xfb\x16@?\xdf\\(\xf5\xc2\x8f""","{'xmin': -116.6217, 'ymin': 31.8725, 'xmax': -116.6217, 'ymax': 31.8725}",dining and drinking > restaurant > mexican restaurant > taco restaurant,1
574a9b14498edfad302e9e5f,Tacos de Cabeza La Fama,32.491804,-116.92079,,,,,,,,MX,2016-05-29,2020-11-26,,,,,,,,['4bf58dd8d48988d151941735'],['Dining and Drinking > Restaurant > Mexican Restaurant > Taco Restaurant'],b'\x00\x00\x00\x00\x01\xc0]:\xee9.\x1e\xf7@@>\xf3n\xf8\x05`',"{'xmin': -116.92079, 'ymin': 32.491804, 'xmax': -116.92079, 'ymax': 32.491804}",dining and drinking > restaurant > mexican restaurant > taco restaurant,1
56e12979498e3fbab566c2e2,Tacos el Apa,32.511490118515475,-116.99802984821835,Boulevard General Rodolfo Sánchez Taboada,Tijuana,Baja California,22010,,,,MX,2016-03-10,2020-11-22,,,,,,,,['4bf58dd8d48988d151941735'],['Dining and Drinking > Restaurant > Mexican Restaurant > Taco Restaurant'],b'\x00\x00\x00\x00\x01\xc0]?\xdf\xb8\x95\xa1\xe6@@Ax\x82\x19\xa0%',"{'xmin': -116.99802984821835, 'ymin': 32.511490118515475, 'xmax': -116.99802984821835, 'ymax': 32.511490118515475}",dining and drinking > restaurant > mexican restaurant > taco restaurant,1
4fa1766ce4b0ac13aecd5450,Tacos de Guisado Nena,32.62396196580635,-115.48313582558373,Blvd Lazaro Cardenas 617,Mexicali,,,,,,MX,2011-09-22,2023-12-21,,686 157 3875,,,,,,['4bf58dd8d48988d151941735'],['Dining and Drinking > Restaurant > Mexican Restaurant > Taco Restaurant'],b'\x00\x00\x00\x00\x01\xc0\\\xde\xeb\xb2\x86\x9a\x1e@@O\xdd\xfcV\x8b\x07',"{'xmin': -115.48313582558373, 'ymin': 32.62396196580635, 'xmax': -115.48313582558373, 'ymax': 32.62396196580635}",dining and drinking > restaurant > mexican restaurant > taco restaurant,1
658b433f78f75427a5402bd9,Tacos La Aviacion,32.6588,-115.435327,,Mexicali,B.C.,21200,,,,MX,2023-12-26,2023-12-26,,,,,,,,['4bf58dd8d48988d151941735'],['Dining and Drinking > Restaurant > Mexican Restaurant > Taco Restaurant'],b'\x00\x00\x00\x00\x01\xc0\\\xdb\xdce\xc7\x046@@TS\x8e\xf3Mj',"{'xmin': -115.435327, 'ymin': 32.6588, 'xmax': -115.435327, 'ymax': 32.6588}",dining and drinking > restaurant > mexican restaurant > taco restaurant,1
636c309e43266a33a591b731,Le Taquié,31.862751,-116.623581,,Ensenada,Baja California,22800,,,,MX,2022-11-09,2022-11-09,,,,,,,,['4bf58dd8d48988d151941735' '4bf58dd8d48988d1c1941735'],"['Dining and Drinking > Restaurant > Mexican Restaurant > Taco Restaurant'
 'Dining and Drinking > Restaurant > Mexican Restaurant']","b""\x00\x00\x00\x00\x01\xc0]'\xe8\xc0HZ\x0c@?\xdc\xdd?\xe1\x97_""","{'xmin': -116.623581, 'ymin': 31.862751, 'xmax': -116.623581, 'ymax': 31.862751}","dining and drinking > restaurant > mexican restaurant > taco restaurant, dining and drinking > restaurant > mexican restaurant",1
511c628de4b080885b569f81,Tacos El Chino,32.467650160377104,-117.00488200628888,,Tijuana,,22670,,,,MX,2013-02-14,2020-11-22,,,,,,,,['4bf58dd8d48988d151941735'],['Dining and Drinking > Restaurant > Mexican Restaurant > Taco Restaurant'],b'\x00\x00\x00\x00\x01\xc0]@O\xfc\x9eV`@@;\xdb\xf5\xe0d\xf8',"{'xmin': -117.00488200628888, 'ymin': 32.467650160377104, 'xmax': -117.00488200628888, 'ymax': 32.467650160377104}",dining and drinking > restaurant > mexican restaurant > taco restaurant,1
4d3cf20914aa8cfa78e2ae5e,La Taquiza de Mario #2,32.65864269632008,-115.425305107342,Calz Cuauhtemoc,Mexicali,BC,,,,,MX,2011-01-24,2020-11-25,,,,,,,,['4bf58dd8d48988d151941735'],['Dining and Drinking > Restaurant > Mexican Restaurant > Taco Restaurant'],b'\x00\x00\x00\x00\x01\xc0\\\xdb82\xe9\xb6\xc3@@TNgd8\xd5',"{'xmin': -115.425305107342, 'ymin': 32.65864269632008, 'xmax': -115.425305107342, 'ymax': 32.65864269632008}",dining and drinking > restaurant > mexican restaurant > taco restaurant,1
4e1824077d8b8af9138a5a62,Tres Pablos,32.662761708032136,-115.44319773394544,De Las Americas,Mexicali,CA,,,,,MX,2011-07-09,2023-12-21,,686 160 4449,,,,,,['4bf58dd8d48988d151941735'],['Dining and Drinking > Restaurant > Mexican Restaurant > Taco Restaurant'],b'\x00\x00\x00\x00\x01\xc0\\\xdc]Z\x07=?@@T\xd5`*\x85\x02',"{'xmin': -115.44319773394544, 'ymin': 32.662761708032136, 'xmax': -115.44319773394544, 'ymax': 32.662761708032136}",dining and drinking > restaurant > mexican restaurant > taco restaurant,1
4d1d6af986e154817242a03a,Tacos Angelito,31.86044846539127,-116.60519395521355,Calzada Cortez 143,Ensenada,BC,22840,,,,MX,2010-12-31,2020-11-23,,,,,,,,['4bf58dd8d48988d151941735'],['Dining and Drinking > Restaurant > Mexican Restaurant > Taco Restaurant'],b'\x00\x00\x00\x00\x01\xc0]&\xbb\x7fmXC@?\xdcFY\xc2\xbf\xb7',"{'xmin': -116.60519395521355, 'ymin': 31.86044846539127, 'xmax': -116.60519395521355, 'ymax': 31.86044846539127}",dining and drinking > restaurant > mexican restaurant > taco restaurant,1
4f41afc3e4b0f4d09ccfed06,"Taqueria  ""Mi Ranchito""",31.865198968495875,-116.61549881024972,,,,,,,,MX,2012-02-20,2021-08-11,,,,,,,,['4bf58dd8d48988d151941735'],['Dining and Drinking > Restaurant > Mexican Restaurant > Taco Restaurant'],"b""\x00\x00\x00\x00\x01\xc0]'dU\x1f/\xf7@?\xdd}\xad\xfa9\x04""","{'xmin': -116.61549881024972, 'ymin': 31.865198968495875, 'xmax': -116.61549881024972, 'ymax': 31.865198968495875}",dining and drinking > restaurant > mexican restaurant > taco restaurant,1
6ee33ac26b0f46d9bd880d41,Bar la Cita de Ricardo,21.149935,-101.655411,Antonio Madrazo s/n,León,Guanajuato,37205,,,,MX,2013-03-07,2023-12-06,,477 776 6140,,,,,,"['4bf58dd8d48988d151941735' '4bf58dd8d48988d1c7941735'
 '5370f356bcbc57f1066c94c2']","['Dining and Drinking > Restaurant > Mexican Restaurant > Taco Restaurant'
 'Dining and Drinking > Snack Place'
 'Retail > Food and Beverage Retail > Beer Store']",b'\x00\x00\x00\x00\x01\xc0Yi\xf2@\xfa\x9c\x13@5&b#\xe1\x86\x98',"{'xmin': -101.655411, 'ymin': 21.149935, 'xmax': -101.655411, 'ymax': 21.149935}","dining and drinking > restaurant > mexican restaurant > taco restaurant, dining and drinking > snack place, retail > food and beverage retail > beer store",1
58e07152113efc6e1915a4be,Tacolgado,20.659327,-103.37538,Calle Fresno 2244,Guadalajara,Jalisco,,,,,MX,2017-04-02,2021-08-21,,,,,,,,['4bf58dd8d48988d151941735'],['Dining and Drinking > Restaurant > Mexican Restaurant > Taco Restaurant'],b'\x00\x00\x00\x00\x01\xc0Y\xd8\x069\xd5\xe4\xa4@4\xa8\xc9\xa7~^\xab',"{'xmin': -103.37538, 'ymin': 20.659327, 'xmax': -103.37538, 'ymax': 20.659327}",dining and drinking > restaurant > mexican restaurant > taco restaurant,1
5ceaf32b535d6f002cca9acf,Los Full Taco fish,21.865822,-102.287528,,Aguascalientes,AGS,20270,,,,MX,2019-05-26,2023-12-19,,449 332 2809,,,,,,['4bf58dd8d48988d151941735' '4bf58dd8d48988d1ce941735'],"['Dining and Drinking > Restaurant > Mexican Restaurant > Taco Restaurant'
 'Dining and Drinking > Restaurant > Seafood Restaurant']",b'\x00\x00\x00\x00\x01\xc0Y\x92f\xdb\xd7+\xcb@5\xdd\xa6\x82\xb6(F',"{'xmin': -102.287528, 'ymin': 21.865822, 'xmax': -102.287528, 'ymax': 21.865822}","dining and drinking > restaurant > mexican restaurant > taco restaurant, dining and drinking > restaurant > seafood restaurant",1
5384c02c498eec2ff9e9f183,Tacodeli,19.673120498657227,-101.2114486694336,Granada # 20. Fracc. La Huerta,Morelia,Michoacán,,,,,MX,2014-05-27,2020-11-23,,,,,,,,['4bf58dd8d48988d151941735'],['Dining and Drinking > Restaurant > Mexican Restaurant > Taco Restaurant'],b'\x00\x00\x00\x00\x01\xc0YM\x88`\x00\x00\x00@3\xacQ\xa0\x00\x00\x00',"{'xmin': -101.2114486694336, 'ymin': 19.673120498657227, 'xmax': -101.2114486694336, 'ymax': 19.673120498657227}",dining and drinking > restaurant > mexican restaurant > taco restaurant,1
506a4796e4b034070c3f34a0,Tacos Los Cuñados,20.636599055565878,-103.37165740454951,Miguel Lopez De Legaspi,Guadalajara,Jalisco,,,,,MX,2012-10-02,2021-08-17,,,,,,,,['4bf58dd8d48988d151941735'],['Dining and Drinking > Restaurant > Mexican Restaurant > Taco Restaurant'],"b""\x00\x00\x00\x00\x01\xc0Y\xd7\xc9<#v\xcf@4\xa2\xf8'\xdcQ\xe7""","{'xmin': -103.37165740454951, 'ymin': 20.636599055565878, 'xmax': -103.37165740454951, 'ymax': 20.636599055565878}",dining and drinking > restaurant > mexican restaurant > taco restaurant,1
4d0ce9c93905b1f7d433974b,Tacos Miguelon,20.676833105815057,-103.31391414140715,,,,,,,,MX,2010-12-18,2021-08-14,,,,,,,,['4bf58dd8d48988d151941735'],['Dining and Drinking > Restaurant > Mexican Restaurant > Taco Restaurant'],b'\x00\x00\x00\x00\x01\xc0Y\xd4\x17+V\xc6\x1f@4\xadD\xef6Sf',"{'xmin': -103.31391414140715, 'ymin': 20.676833105815057, 'xmax': -103.31391414140715, 'ymax': 20.676833105815057}",dining and drinking > restaurant > mexican restaurant > taco restaurant,1
65ea5303e3ff08639b691287,Entre Carbon,20.68279,-103.44559,Calzada Norte #14 Local 10,Zapopan,Jalisco,45010,,,,MX,2024-03-07,2024-03-07,,,,,,,,['4bf58dd8d48988d151941735'],['Dining and Drinking > Restaurant > Mexican Restaurant > Taco Restaurant'],b'\x00\x00\x00\x00\x01\xc0Y\xdc\x84\x8b\xeb[-@4\xae\xcbSP\t-',"{'xmin': -103.44559, 'ymin': 20.68279, 'xmax': -103.44559, 'ymax': 20.68279}",dining and drinking > restaurant > mexican restaurant > taco restaurant,1
51d44de3498ebdf65d9de744,Barbacoa Pedritos tacos y más,20.68505096435547,-103.36986541748047,,,,,,,,MX,2013-07-03,2021-08-11,,,,,,,,['4bf58dd8d48988d151941735'],['Dining and Drinking > Restaurant > Mexican Restaurant > Taco Restaurant'],b'\x00\x00\x00\x00\x01\xc0Y\xd7\xab\xe0\x00\x00\x00@4\xaf_\x80\x00\x00\x00',"{'xmin': -103.36986541748047, 'ymin': 20.68505096435547, 'xmax': -103.36986541748047, 'ymax': 20.68505096435547}",dining and drinking > restaurant > mexican restaurant > taco restaurant,1
6709e8c1187a493750ba3aea,Taquería El Imperio Velazquez,20.628919,-103.360124,,Guadalajara,Jal.,44940,,,,MX,2024-10-12,2024-10-12,,,,,,,,['4bf58dd8d48988d151941735' '4bf58dd8d48988d1cb941735'],"['Dining and Drinking > Restaurant > Mexican Restaurant > Taco Restaurant'
 'Dining and Drinking > Food Truck']",b'\x00\x00\x00\x00\x01\xc0Y\xd7\x0cE\x88\xa0M@4\xa1\x00\xd5\xe8\xd5A',"{'xmin': -103.360124, 'ymin': 20.628919, 'xmax': -103.360124, 'ymax': 20.628919}","dining and drinking > restaurant > mexican restaurant > taco restaurant, dining and drinking > food truck",1
5f51a7a5ef76153d7f0d273c,Tacos Los 3 Limones,21.891791,-102.308778,Carlos Barron 508,Aguascalientes,AGS,20040,,,,MX,2020-09-04,2020-11-22,,,,,,,,['4bf58dd8d48988d151941735'],['Dining and Drinking > Restaurant > Mexican Restaurant > Taco Restaurant'],b'\x00\x00\x00\x00\x01\xc0Y\x93\xc3\x04\xcc\xee[@5\xe4Lj;\xdd\xfd',"{'xmin': -102.308778, 'ymin': 21.891791, 'xmax': -102.308778, 'ymax': 21.891791}",dining and drinking > restaurant > mexican restaurant > taco restaurant,1
4f0b325ae4b00a2754c1a873,Eco Taco,20.70524901143415,-105.29807547024951,Nuevo Vallarta,,,,,,,MX,2012-01-09,2021-08-14,,,,,,,,['4bf58dd8d48988d151941735'],['Dining and Drinking > Restaurant > Mexican Restaurant > Taco Restaurant'],b'\x00\x00\x00\x00\x01\xc0ZS\x13\xab#\x1d\x89@4\xb4\x8b2\xff\xa5a',"{'xmin': -105.29807547024951, 'ymin': 20.70524901143415, 'xmax': -105.29807547024951, 'ymax': 20.70524901143415}",dining and drinking > restaurant > mexican restaurant > taco restaurant,1
4de93c251838b9ad8d233a30,Taqueria El Pelón,20.668174917478733,-103.42609179822125,12 de Diciembre,Zapopan,JAL,,,,,MX,2011-06-03,2020-11-25,,,,,,,,['4bf58dd8d48988d151941735'],['Dining and Drinking > Restaurant > Mexican Restaurant > Taco Restaurant'],b'\x00\x00\x00\x00\x01\xc0Y\xdbE\x16\x88\x9d\x10@4\xab\r\x82\xea\x94#',"{'xmin': -103.42609179822125, 'ymin': 20.668174917478733, 'xmax': -103.42609179822125, 'ymax': 20.668174917478733}",dining and drinking > restaurant > mexican restaurant > taco restaurant,1
528990b311d2ae8b135edc20,los cuñaos cuates,21.156452651235057,-101.73717656584749,,,,,,,,MX,2013-11-18,2020-11-25,,,,,,,,['4bf58dd8d48988d151941735'],['Dining and Drinking > Restaurant > Mexican Restaurant > Taco Restaurant'],b'\x00\x00\x00\x00\x01\xc0Yo-\xe6\x9elS@5(\rG\xecmT',"{'xmin': -101.73717656584749, 'ymin': 21.156452651235057, 'xmax': -101.73717656584749, 'ymax': 21.156452651235057}",dining and drinking > restaurant > mexican restaurant > taco restaurant,1
5366f6f1498ea03d6ab0493e,El Cheeto,20.630758,-103.405486,,,,,,,,MX,2014-05-05,2021-08-15,,,,,,,,['4bf58dd8d48988d151941735'],['Dining and Drinking > Restaurant > Mexican Restaurant > Taco Restaurant'],b'\x00\x00\x00\x00\x01\xc0Y\xd9\xf3{\x8d?\x18@4\xa1y[5\xb0\xbc',"{'xmin': -103.405486, 'ymin': 20.630758, 'xmax': -103.405486, 'ymax': 20.630758}",dining and drinking > restaurant > mexican restaurant > taco restaurant,1
51336e9be4b0dc201588d3fd,Tacos Los Compadres,20.695321,-103.297657,,,,,,,,MX,2013-03-03,2021-08-11,,,,,,,,['4bf58dd8d48988d151941735'],['Dining and Drinking > Restaurant > Mexican Restaurant > Taco Restaurant'],b'\x00\x00\x00\x00\x01\xc0Y\xd3\x0c\xcf\xf2\x1b;@4\xb2\x00\x8e\x9b8\xd6',"{'xmin': -103.297657, 'ymin': 20.695321, 'xmax': -103.297657, 'ymax': 20.695321}",dining and drinking > restaurant > mexican restaurant > taco restaurant,1
5104035fe4b07c0045dc18d2,Tacos De Colores El Rey,21.921909761354264,-102.28510394054288,,,,,,,,MX,2013-01-26,2021-08-11,,,,,,,,['4bf58dd8d48988d151941735'],['Dining and Drinking > Restaurant > Mexican Restaurant > Taco Restaurant'],b'\x00\x00\x00\x00\x01\xc0Y\x92?$\x99%\xea@5\xec\x02G2\xe16',"{'xmin': -102.28510394054288, 'ymin': 21.921909761354264, 'xmax': -102.28510394054288, 'ymax': 21.921909761354264}",dining and drinking > restaurant > mexican restaurant > taco restaurant,1
4eea3a38775b562a39de9ea7,Quesadillas Movistar,21.07912482133414,-101.64423082958591,,,,,,,,MX,2011-12-15,2021-08-17,,,,,,,,['4bf58dd8d48988d151941735'],['Dining and Drinking > Restaurant > Mexican Restaurant > Taco Restaurant'],b'\x00\x00\x00\x00\x01\xc0Yi;\x13\xf2\t_@5\x14A\x867\xee\x96',"{'xmin': -101.64423082958591, 'ymin': 21.07912482133414, 'xmax': -101.64423082958591, 'ymax': 21.07912482133414}",dining and drinking > restaurant > mexican restaurant > taco restaurant,1
61f08c1cd4ffca4f3f7f9d79,Tacomarín Sucursal Río,19.689695,-101.184953,Av Solidaridad,Morelia,MICH,58020,,,,MX,2022-01-25,2022-01-25,,,,,,,,['4bf58dd8d48988d151941735'],['Dining and Drinking > Restaurant > Mexican Restaurant > Taco Restaurant'],b'\x00\x00\x00\x00\x01\xc0YK\xd6E\x1b\x93\x03@3\xb0\x8f\xd9\xfd6\xf8',"{'xmin': -101.184953, 'ymin': 19.689695, 'xmax': -101.184953, 'ymax': 19.689695}",dining and drinking > restaurant > mexican restaurant > taco restaurant,1
54c9d1f5498e65e160d1f73a,Tacos Serna,21.88422203063965,-102.3121337890625,Av Convención Pte 903a,Aguascalientes,aguascalientes,,,,,MX,2015-01-29,2020-11-21,,,,,,,,['4bf58dd8d48988d151941735'],['Dining and Drinking > Restaurant > Mexican Restaurant > Taco Restaurant'],b'\x00\x00\x00\x00\x01\xc0Y\x93\xfa\x00\x00\x00\x00@5\xe2\\`\x00\x00\x00',"{'xmin': -102.3121337890625, 'ymin': 21.88422203063965, 'xmax': -102.3121337890625, 'ymax': 21.88422203063965}",dining and drinking > restaurant > mexican restaurant > taco restaurant,1
52e96acd498e3f1f82228f45,El Tejolote,22.137885,-100.98746,,,,,,,,MX,2014-01-29,2021-08-12,,,,,,,,['4bf58dd8d48988d151941735'],['Dining and Drinking > Restaurant > Mexican Restaurant > Taco Restaurant'],b'\x00\x00\x00\x00\x01\xc0Y?2\x8bm\x86\xec@6#Lnm\x9b\xe5',"{'xmin': -100.98746, 'ymin': 22.137885, 'xmax': -100.98746, 'ymax': 22.137885}",dining and drinking > restaurant > mexican restaurant > taco restaurant,1
551c1171498e93fd66967e75,"Tacos,Tortas Y Quesadillas ""El Men""",21.13880157470703,-101.73249053955078,,,,,,,,MX,2015-04-01,2021-08-15,,,,,,,,['4bf58dd8d48988d151941735'],['Dining and Drinking > Restaurant > Mexican Restaurant > Taco Restaurant'],b'\x00\x00\x00\x00\x01\xc0Yn\xe1 \x00\x00\x00@5#\x88\x80\x00\x00\x00',"{'xmin': -101.73249053955078, 'ymin': 21.13880157470703, 'xmax': -101.73249053955078, 'ymax': 21.13880157470703}",dining and drinking > restaurant > mexican restaurant > taco restaurant,1
5a470244b8fd9d6ba9566fb4,Tacos Alameda,21.883564,-102.2738,alameda,Aguascalientes,Aguascalientes,20190,,,,MX,2017-12-30,2020-11-24,,,,,,,,['4bf58dd8d48988d151941735'],['Dining and Drinking > Restaurant > Mexican Restaurant > Taco Restaurant'],b'\x00\x00\x00\x00\x01\xc0Y\x91\x85\xf0oiD@5\xe21@\x13\xecF',"{'xmin': -102.2738, 'ymin': 21.883564, 'xmax': -102.2738, 'ymax': 21.883564}",dining and drinking > restaurant > mexican restaurant > taco restaurant,1
573b7b0c498e28f2fccd6e42,El ranchero,20.653040008184632,-103.40078313203142,,,,,,,,MX,2016-05-17,2021-08-10,,,,,,,,['4bf58dd8d48988d151941735'],['Dining and Drinking > Restaurant > Mexican Restaurant > Taco Restaurant'],b'\x00\x00\x00\x00\x01\xc0Y\xd9\xa6nK7B@4\xa7-\xa1F!\xf0',"{'xmin': -103.40078313203142, 'ymin': 20.653040008184632, 'xmax': -103.40078313203142, 'ymax': 20.653040008184632}",dining and drinking > restaurant > mexican restaurant > taco restaurant,1
57ed2ce3498e8e4cd2ca9859,Chavintak's,19.686952,-101.232759,Loma larga 347,Morelia,Michoacán,,,,,MX,2016-09-29,2020-11-25,,,,,,,,['4bf58dd8d48988d151941735'],['Dining and Drinking > Restaurant > Mexican Restaurant > Taco Restaurant'],b'\x00\x00\x00\x00\x01\xc0YN\xe5\x86\x016a@3\xaf\xdc\x16\x15\xeb\xfb',"{'xmin': -101.232759, 'ymin': 19.686952, 'xmax': -101.232759, 'ymax': 19.686952}",dining and drinking > restaurant > mexican restaurant > taco restaurant,1
5d5980f53023d10008d7515d,Tacos Y Lonches De Birria Isa,20.778973,-103.446382,Antiguo Camino A Copalita,Zapopan,JAL,45134,,,,MX,2019-08-18,2020-11-21,,,,,,,,['4bf58dd8d48988d151941735'],['Dining and Drinking > Restaurant > Mexican Restaurant > Taco Restaurant'],b'\x00\x00\x00\x00\x01\xc0Y\xdc\x91\x85\xce\xe1z@4\xc7j\xc6Gw\x8e',"{'xmin': -103.446382, 'ymin': 20.778973, 'xmax': -103.446382, 'ymax': 20.778973}",dining and drinking > restaurant > mexican restaurant > taco restaurant,1
5cfc8a12a8eb6000393e506c,Taquería Bosques,20.757664,-103.38254,,Zapopan,Jalisco,45130,,,,MX,2019-06-09,2020-11-24,,,,,,,,['4bf58dd8d48988d151941735'],['Dining and Drinking > Restaurant > Mexican Restaurant > Taco Restaurant'],b'\x00\x00\x00\x00\x01\xc0Y\xd8{\x89\rZ\\@4\xc1\xf6D\x95[F',"{'xmin': -103.38254, 'ymin': 20.757664, 'xmax': -103.38254, 'ymax': 20.757664}",dining and drinking > restaurant > mexican restaurant > taco restaurant,1
4f2a17fee4b0b70f2a33c1c3,Don Bn Lejos,20.715499934289898,-103.36158011068804,Enrique Díaz De León,Zapopan,Jalisco,,,,,MX,2012-02-02,2020-11-21,,,,,,,,['4bf58dd8d48988d151941735'],['Dining and Drinking > Restaurant > Mexican Restaurant > Taco Restaurant'],b'\x00\x00\x00\x00\x01\xc0Y\xd7$ \xe7\x92\x82@4\xb7+\x00\xf2\x10\xb5',"{'xmin': -103.36158011068804, 'ymin': 20.715499934289898, 'xmax': -103.36158011068804, 'ymax': 20.715499934289898}",dining and drinking > restaurant > mexican restaurant > taco restaurant,1
51fea230498e56340ffc85f8,"Carnitas ""el pato""",19.766983032226562,-104.36549377441406,,,,,,,,MX,2013-08-04,2021-08-15,,,,,,,,['4bf58dd8d48988d151941735'],['Dining and Drinking > Restaurant > Mexican Restaurant > Taco Restaurant'],b'\x00\x00\x00\x00\x01\xc0Z\x17d@\x00\x00\x00@3\xc4Y\x00\x00\x00\x00',"{'xmin': -104.36549377441406, 'ymin': 19.766983032226562, 'xmax': -104.36549377441406, 'ymax': 19.766983032226562}",dining and drinking > restaurant > mexican restaurant > taco restaurant,1
51780e7f498ee6e7b7bf6088,"Tacos P'aza ""Nogales""",20.7244426260718,-103.50244296784447,,,,,,,,MX,2013-04-24,2020-11-25,,,,,,,,['4bf58dd8d48988d151941735'],['Dining and Drinking > Restaurant > Mexican Restaurant > Taco Restaurant'],b'\x00\x00\x00\x00\x01\xc0Y\xe0(\x06\x8c\xbf\xd2@4\xb9u\x12j\xce\x86',"{'xmin': -103.50244296784447, 'ymin': 20.7244426260718, 'xmax': -103.50244296784447, 'ymax': 20.7244426260718}",dining and drinking > restaurant > mexican restaurant > taco restaurant,1
54c7ff48498e622b8b798dbd,Loreto Fish,20.66706092378067,-103.37020498243359,Avenida Niños Héroes 2050A,Zapopan,Jalisco,44140,,,,MX,2015-01-27,2024-01-20,,33 1850 0020,http://www.loretofish.com,,984713694879286.0,,loretofish_,"['4bf58dd8d48988d1cb941735' '4bf58dd8d48988d1ce941735'
 '4bf58dd8d48988d151941735']","['Dining and Drinking > Food Truck'
 'Dining and Drinking > Restaurant > Seafood Restaurant'
 'Dining and Drinking > Restaurant > Mexican Restaurant > Taco Restaurant']",b'\x00\x00\x00\x00\x01\xc0Y\xd7\xb1p=\x17\x96@4\xaa\xc4\x814\x13\xd9',"{'xmin': -103.37020498243359, 'ymin': 20.66706092378067, 'xmax': -103.37020498243359, 'ymax': 20.66706092378067}","dining and drinking > food truck, dining and drinking > restaurant > seafood restaurant, dining and drinking > restaurant > mexican restaurant > taco restaurant",1
5273c7e711d2e38fd62e7875,Tacos Brenda,21.884528787586756,-102.31324644468506,,,,,,,,MX,2013-11-01,2021-08-11,,,,,,,,['4bf58dd8d48988d151941735'],['Dining and Drinking > Restaurant > Mexican Restaurant > Taco Restaurant'],b'\x00\x00\x00\x00\x01\xc0Y\x94\x0c:\xd0\xe0\xae@5\xe2pz\x87\x0e?',"{'xmin': -102.31324644468506, 'ymin': 21.884528787586756, 'xmax': -102.31324644468506, 'ymax': 21.884528787586756}",dining and drinking > restaurant > mexican restaurant > taco restaurant,1
4ee7734a29c220f9747eced0,Ricardo tacos y tortas,19.132497,-103.93134,Col México,,,,,,,MX,2011-12-13,2020-11-26,,,,,,,,['4bf58dd8d48988d151941735'],['Dining and Drinking > Restaurant > Mexican Restaurant > Taco Restaurant'],b'\x00\x00\x00\x00\x01\xc0Y\xfb\x9b\x13\x16]:@3!\xebR\xc9\xd1p',"{'xmin': -103.93134, 'ymin': 19.132497, 'xmax': -103.93134, 'ymax': 19.132497}",dining and drinking > restaurant > mexican restaurant > taco restaurant,1
4dcddcfa8877851243ea2c8c,Tacos Castro,21.029523547134154,-102.40328400115021,,San Miguel El Alto,JAL,,,,,MX,2011-05-14,2020-11-22,,,,,,,,['4bf58dd8d48988d151941735'],['Dining and Drinking > Restaurant > Mexican Restaurant > Taco Restaurant'],"b'\x00\x00\x00\x00\x01\xc0Y\x99\xcfg\xb2\xfc,@5\x07\x8e\xda\xedg2'","{'xmin': -102.40328400115021, 'ymin': 21.029523547134154, 'xmax': -102.40328400115021, 'ymax': 21.029523547134154}",dining and drinking > restaurant > mexican restaurant > taco restaurant,1
4ffc6894e4b095dbe1eeb9b8,Tacos meños,20.627678043449002,-103.41022321593826,,,,,,,,MX,2012-07-10,2021-08-15,,,,,,,,['4bf58dd8d48988d151941735'],['Dining and Drinking > Restaurant > Mexican Restaurant > Taco Restaurant'],b'\x00\x00\x00\x00\x01\xc0Y\xdaA\x18\xe0 \xf2@4\xa0\xaf\x82\x1d\x07\xde',"{'xmin': -103.41022321593826, 'ymin': 20.627678043449002, 'xmax': -103.41022321593826, 'ymax': 20.627678043449002}",dining and drinking > restaurant > mexican restaurant > taco restaurant,1
50fa23e7e4b01d66531faef9,Tacos San Judas (El Pelon),21.0848714545547,-101.66259658062634,,,,,,,,MX,2013-01-19,2021-08-13,,,,,,,,['4bf58dd8d48988d151941735'],['Dining and Drinking > Restaurant > Mexican Restaurant > Taco Restaurant'],"b'\x00\x00\x00\x00\x01\xc0Yjg\xfb}\x0e\xd2@5\x15\xba""\xb9\xad('","{'xmin': -101.66259658062634, 'ymin': 21.0848714545547, 'xmax': -101.66259658062634, 'ymax': 21.0848714545547}",dining and drinking > restaurant > mexican restaurant > taco restaurant,1
56a82bf4498e9dc992462e05,Tacos el Cordobes,19.269815898508035,-103.74794959627884,,,,,,,,MX,2016-01-27,2021-08-10,,,,,,,,['4bf58dd8d48988d151941735'],['Dining and Drinking > Restaurant > Mexican Restaurant > Taco Restaurant'],b'\x00\x00\x00\x00\x01\xc0Y\xef\xdeg\xfb\xc4\xbd@3E\x12\xa7\x9c\x08j',"{'xmin': -103.74794959627884, 'ymin': 19.269815898508035, 'xmax': -103.74794959627884, 'ymax': 19.269815898508035}",dining and drinking > restaurant > mexican restaurant > taco restaurant,1
4cd7924f5e1b721ec2ed35d9,Tacos del Güero,21.028501593998833,-101.25928988716505,Calle del Sol,Guanajuato,Gto.,36000,,,,MX,2010-11-08,2020-11-25,,,,,,,,['4bf58dd8d48988d1cb941735' '4bf58dd8d48988d151941735'],"['Dining and Drinking > Food Truck'
 'Dining and Drinking > Restaurant > Mexican Restaurant > Taco Restaurant']",b'\x00\x00\x00\x00\x01\xc0YP\x984\x9cc\xad@5\x07K\xe1f\x1b\xde',"{'xmin': -101.25928988716505, 'ymin': 21.028501593998833, 'xmax': -101.25928988716505, 'ymax': 21.028501593998833}","dining and drinking > food truck, dining and drinking > restaurant > mexican restaurant > taco restaurant",1
4fde3903e4b0598b215b096e,tacos de don men'o,20.62493,-103.40949,,,,,,,,MX,2012-06-17,2021-08-13,,,,,,,,['4bf58dd8d48988d151941735'],['Dining and Drinking > Restaurant > Mexican Restaurant > Taco Restaurant'],b'\x00\x00\x00\x00\x01\xc0Y\xda5\x15\x8b\x82\x80@4\x9f\xfbi\x98J\x0e',"{'xmin': -103.40949, 'ymin': 20.62493, 'xmax': -103.40949, 'ymax': 20.62493}",dining and drinking > restaurant > mexican restaurant > taco restaurant,1
511b06c6e4b09aa6fb0adc8e,Tacos Huicho's,20.619589,-103.38794,,Guadalajara,,,,,,MX,2013-02-13,2021-08-15,,,,,,,,['4bf58dd8d48988d151941735'],['Dining and Drinking > Restaurant > Mexican Restaurant > Taco Restaurant'],b'\x00\x00\x00\x00\x01\xc0Y\xd8\xd4\x02K3\xdb@4\x9e\x9db{\xf6\x1b',"{'xmin': -103.38794, 'ymin': 20.619589, 'xmax': -103.38794, 'ymax': 20.619589}",dining and drinking > restaurant > mexican restaurant > taco restaurant,1
648a7c2f9e04d719392024ac,Tripitas El Rinconcito De La Ferro,20.641047,-103.348338,,Guadalajara,JAL,44440,,,,MX,2023-06-15,2023-06-15,,,,,,,,['4bf58dd8d48988d151941735'],['Dining and Drinking > Restaurant > Mexican Restaurant > Taco Restaurant'],b'\x00\x00\x00\x00\x01\xc0Y\xd6K+w}\x0f@4\xa4\x1b\xa7\xfc2\xec',"{'xmin': -103.348338, 'ymin': 20.641047, 'xmax': -103.348338, 'ymax': 20.641047}",dining and drinking > restaurant > mexican restaurant > taco restaurant,1
50287492e4b0f080a653dbc2,Tacos Don Rube,20.030552293264822,-100.72837778357733,,,,,,,,MX,2012-08-13,2021-08-11,,,,,,,,['4bf58dd8d48988d151941735'],['Dining and Drinking > Restaurant > Mexican Restaurant > Taco Restaurant'],b'\x00\x00\x00\x00\x01\xc0Y.\x9d\xbd\xd9\xe6?@4\x07\xd2Flc\xe5',"{'xmin': -100.72837778357733, 'ymin': 20.030552293264822, 'xmax': -100.72837778357733, 'ymax': 20.030552293264822}",dining and drinking > restaurant > mexican restaurant > taco restaurant,1
5a8359defdb9a7349bf53efa,La Humadera,20.68022904260577,-103.42409133911133,Av. Naciones Unidas 5279,Zapopan,JAL,45110,,,,MX,2018-02-13,2020-11-25,,,,,,,,['4bf58dd8d48988d151941735'],['Dining and Drinking > Restaurant > Mexican Restaurant > Taco Restaurant'],b'\x00\x00\x00\x00\x01\xc0Y\xdb$P\x00\x00\x00@4\xae#}\x93\xc7\xfb',"{'xmin': -103.42409133911133, 'ymin': 20.68022904260577, 'xmax': -103.42409133911133, 'ymax': 20.68022904260577}",dining and drinking > restaurant > mexican restaurant > taco restaurant,1
50b071cf498e8cffe1c45062,Tacos el mudo,19.25423267991002,-103.73084275764893,,,,,,,,MX,2012-11-24,2021-08-11,,,,,,,,['4bf58dd8d48988d151941735' '4bf58dd8d48988d1c1941735'],"['Dining and Drinking > Restaurant > Mexican Restaurant > Taco Restaurant'
 'Dining and Drinking > Restaurant > Mexican Restaurant']",b'\x00\x00\x00\x00\x01\xc0Y\xee\xc6 \xb3\xa7\xb8@3A\x15d\x95\xc9\xb9',"{'xmin': -103.73084275764893, 'ymin': 19.25423267991002, 'xmax': -103.73084275764893, 'ymax': 19.25423267991002}","dining and drinking > restaurant > mexican restaurant > taco restaurant, dining and drinking > restaurant > mexican restaurant",1
5adbced9d7627e09fe1b550f,Strappy Taquería,21.883786,-102.28598,,Aguascalientes,AGS,20259,,,,MX,2018-04-21,2020-11-24,,,,,,,,['4bf58dd8d48988d151941735'],['Dining and Drinking > Restaurant > Mexican Restaurant > Taco Restaurant'],b'\x00\x00\x00\x00\x01\xc0Y\x92M\x7f\x0e\xd3\xd8@5\xe2?\xcc\x9e\xa9\xa4',"{'xmin': -102.28598, 'ymin': 21.883786, 'xmax': -102.28598, 'ymax': 21.883786}",dining and drinking > restaurant > mexican restaurant > taco restaurant,1
4f56d493e4b0d7df8811441d,"Tacos ""El Tio""",20.63716382173725,-103.29694888987132,,,,,,,,MX,2012-03-07,2021-08-10,,,,,,,,['4bf58dd8d48988d151941735'],['Dining and Drinking > Restaurant > Mexican Restaurant > Taco Restaurant'],"b'\x00\x00\x00\x00\x01\xc0Y\xd3\x015\xea\xa5,@4\xa3\x1d+\x10\x8eM'","{'xmin': -103.29694888987132, 'ymin': 20.63716382173725, 'xmax': -103.29694888987132, 'ymax': 20.63716382173725}",dining and drinking > restaurant > mexican restaurant > taco restaurant,1
4d9aa07a335ab60c8d64e9f9,Taqueria Arandas,20.678356,-103.455999,Circumvalacion,Guadalajara,JAL,,,,,MX,2011-04-05,2020-11-24,,,,,,,,['4bf58dd8d48988d151941735'],['Dining and Drinking > Restaurant > Mexican Restaurant > Taco Restaurant'],b'\x00\x00\x00\x00\x01\xc0Y\xdd/\x16n\x00\x8f@4\xad\xa8\xbd#\x0b\x9e',"{'xmin': -103.455999, 'ymin': 20.678356, 'xmax': -103.455999, 'ymax': 20.678356}",dining and drinking > restaurant > mexican restaurant > taco restaurant,1
50569b31e4b0244ddf59613c,tacos walle,19.26456449148797,-103.75069911344387,,,,,,,,MX,2012-09-17,2023-12-21,,312 320 7293,,,,,,['4bf58dd8d48988d151941735'],['Dining and Drinking > Restaurant > Mexican Restaurant > Taco Restaurant'],b'\x00\x00\x00\x00\x01\xc0Y\xf0\x0btKX+@3C\xba\x7f\x9e\x9f\xab',"{'xmin': -103.75069911344387, 'ymin': 19.26456449148797, 'xmax': -103.75069911344387, 'ymax': 19.26456449148797}",dining and drinking > restaurant > mexican restaurant > taco restaurant,1
4ebcd0fa82317d5cdacf5234,Novatos,20.632128690206795,-105.22574015754137,,Puerto Vallarta,Jalisco,,,,,MX,2011-11-11,2020-11-24,,,,,,,,['4bf58dd8d48988d151941735'],['Dining and Drinking > Restaurant > Mexican Restaurant > Taco Restaurant'],b'\x00\x00\x00\x00\x01\xc0ZNr\x86\xd8\x82.@4\xa1\xd3/\x93M/',"{'xmin': -105.22574015754137, 'ymin': 20.632128690206795, 'xmax': -105.22574015754137, 'ymax': 20.632128690206795}",dining and drinking > restaurant > mexican restaurant > taco restaurant,1
5279e1e211d239dc1fe7c7b5,Tacos de Canasta Genesis,21.1556966147625,-101.68655178279272,"Juan Alonso de Torres 1758, Del Moral I, León de Los Aldama, México",León,Guanajuato,37125,,,,MX,2013-11-06,2020-11-22,,477 194 4021,,,,,tacos_genesis,['4bf58dd8d48988d151941735'],['Dining and Drinking > Restaurant > Mexican Restaurant > Taco Restaurant'],"b""\x00\x00\x00\x00\x01\xc0Yk\xf0v\xe3\x86\xbc@5'\xdb\xbb\xbc\x80\xbb""","{'xmin': -101.68655178279272, 'ymin': 21.1556966147625, 'xmax': -101.68655178279272, 'ymax': 21.1556966147625}",dining and drinking > restaurant > mexican restaurant > taco restaurant,1
56c23d1ccd105e26377d886e,"Tacos y Carnitas ""El Primo""",20.666306,-103.390291,El Rosario,Guadalajara,Jalisco,,,,,MX,2016-02-15,2021-08-13,,,,,,,,['4bf58dd8d48988d151941735'],['Dining and Drinking > Restaurant > Mexican Restaurant > Taco Restaurant'],b'\x00\x00\x00\x00\x01\xc0Y\xd8\xfa\x87\x1a;\x15@4\xaa\x93\x07\xaf \xea',"{'xmin': -103.390291, 'ymin': 20.666306, 'xmax': -103.390291, 'ymax': 20.666306}",dining and drinking > restaurant > mexican restaurant > taco restaurant,1
4dd0012cc65bdac71388131d,"Tacos al vapor ""Don Javi""",20.641671229960387,-103.39095771489445,aguamarina,Guadalajara,Jalisco,,,,,MX,2011-05-15,2021-08-16,,,,,,,,['4bf58dd8d48988d151941735'],['Dining and Drinking > Restaurant > Mexican Restaurant > Taco Restaurant'],b'\x00\x00\x00\x00\x01\xc0Y\xd9\x05s\x81\xe5\xcc@4\xa4D\x90\xd3v\xc6',"{'xmin': -103.39095771489445, 'ymin': 20.641671229960387, 'xmax': -103.39095771489445, 'ymax': 20.641671229960387}",dining and drinking > restaurant > mexican restaurant > taco restaurant,1
4e4e9cb6d22daf51d269d3c4,Los Muchachos 2,21.15027618408203,-101.70999908447266,,,,,,,,MX,2011-08-19,2021-08-12,,,,,,,,['4bf58dd8d48988d151941735'],['Dining and Drinking > Restaurant > Mexican Restaurant > Taco Restaurant'],b'\x00\x00\x00\x00\x01\xc0Ymp\xa0\x00\x00\x00@5&x\x80\x00\x00\x00',"{'xmin': -101.70999908447266, 'ymin': 21.15027618408203, 'xmax': -101.70999908447266, 'ymax': 21.15027618408203}",dining and drinking > restaurant > mexican restaurant > taco restaurant,1
54317a61498e64bc7d460655,tacos Don Ramón,20.68053100842361,-103.30068680040273,,,,,,,,MX,2014-10-05,2021-08-17,,,,,,,,['4bf58dd8d48988d151941735'],['Dining and Drinking > Restaurant > Mexican Restaurant > Taco Restaurant'],b'\x00\x00\x00\x00\x01\xc0Y\xd3>s\xd9\x84d@4\xae7G\xb9\x17\xe3',"{'xmin': -103.30068680040273, 'ymin': 20.68053100842361, 'xmax': -103.30068680040273, 'ymax': 20.68053100842361}",dining and drinking > restaurant > mexican restaurant > taco restaurant,1
59aac5df9746177ce40e7329,Aquí Con Maria,20.869186,-105.43975,,Sayulita,Nayarit,,,,,MX,2017-09-02,2020-11-23,,,,,,,,['4bf58dd8d48988d151941735'],['Dining and Drinking > Restaurant > Mexican Restaurant > Taco Restaurant'],b'\x00\x00\x00\x00\x01\xc0Z\\$\xdd/\x1a\xa0@4\xde\x82\xf9D$\x1c',"{'xmin': -105.43975, 'ymin': 20.869186, 'xmax': -105.43975, 'ymax': 20.869186}",dining and drinking > restaurant > mexican restaurant > taco restaurant,1
4f7a8682e4b0998be738d5fc,Taqueria Tommys,21.02242649583039,-105.26999948288012,Av. Sol Nuevo 75,,Nay,,,,,MX,2012-04-03,2023-12-21,,327 274 0793,,,,,,['4bf58dd8d48988d1cb941735' '4bf58dd8d48988d151941735'],"['Dining and Drinking > Food Truck'
 'Dining and Drinking > Restaurant > Mexican Restaurant > Taco Restaurant']","b""\x00\x00\x00\x00\x01\xc0ZQG\xab\xe9:\r@5\x05\xbd\xbe*'\xc9""","{'xmin': -105.26999948288012, 'ymin': 21.02242649583039, 'xmax': -105.26999948288012, 'ymax': 21.02242649583039}","dining and drinking > food truck, dining and drinking > restaurant > mexican restaurant > taco restaurant",1
56eca985498ef391c5582697,Taqueria Los Primos,19.068203139763295,-104.28548969947455,Tapeixtles,Tapeixtles,colima,,,,,MX,2016-03-19,2020-11-23,,,,,,,,['4bf58dd8d48988d151941735'],['Dining and Drinking > Restaurant > Mexican Restaurant > Taco Restaurant'],b'\x00\x00\x00\x00\x01\xc0Z\x12Ev\x96\xa5\xa3@3\x11u\xc2\xce\xc4\x93',"{'xmin': -104.28548969947455, 'ymin': 19.068203139763295, 'xmax': -104.28548969947455, 'ymax': 19.068203139763295}",dining and drinking > restaurant > mexican restaurant > taco restaurant,1
569a8c1d38fa1428291e7208,Carnitas Los Primos,20.68667505249698,-103.36951113530505,,Guadalajara,Jalisco,,,,,MX,2016-01-16,2021-08-14,,,,,,,,['4bf58dd8d48988d151941735'],['Dining and Drinking > Restaurant > Mexican Restaurant > Taco Restaurant'],"b""\x00\x00\x00\x00\x01\xc0Y\xd7\xa6\x12\x08i'@4\xaf\xc9\xef\xadt ""","{'xmin': -103.36951113530505, 'ymin': 20.68667505249698, 'xmax': -103.36951113530505, 'ymax': 20.68667505249698}",dining and drinking > restaurant > mexican restaurant > taco restaurant,1
4c6f539ad274b60c5b83d60d,Tacos Don Toño,20.126074,-101.190705,Aquiles Serdan,Moroleón,Gto,,,,,MX,2010-08-21,2020-11-30,,,,,,,,['4bf58dd8d48988d151941735' '4bf58dd8d48988d1c1941735'],"['Dining and Drinking > Restaurant > Mexican Restaurant > Taco Restaurant'
 'Dining and Drinking > Restaurant > Mexican Restaurant']",b'\x00\x00\x00\x00\x01\xc0YL4\x82\xbe\x8b\xc1@4 Fb\xba\xe0;',"{'xmin': -101.190705, 'ymin': 20.126074, 'xmax': -101.190705, 'ymax': 20.126074}","dining and drinking > restaurant > mexican restaurant > taco restaurant, dining and drinking > restaurant > mexican restaurant",1
4e0414528877fc58724d4299,Taqueria El Infierno,20.687621091533416,-103.422598398756,Naciones Unidas 5150,Zapopan,Jal,,,,,MX,2011-06-24,2020-11-23,,,http://taqueriaelinfierno.com.mx,,,,,['4bf58dd8d48988d151941735'],['Dining and Drinking > Restaurant > Mexican Restaurant > Taco Restaurant'],"b""\x00\x00\x00\x00\x01\xc0Y\xdb\x0b\xda'\x7f\xef@4\xb0\x07\xef\x94-\x04""","{'xmin': -103.422598398756, 'ymin': 20.687621091533416, 'xmax': -103.422598398756, 'ymax': 20.687621091533416}",dining and drinking > restaurant > mexican restaurant > taco restaurant,1
4f8eee34e4b0b7b469304abb,Tacos de canasta Genesis,21.101401303800646,-101.68168818714997,Venustiano Carranza,León,Guanajuato,,,,,MX,2012-04-18,2020-11-23,,,,,,,,['4bf58dd8d48988d151941735'],['Dining and Drinking > Restaurant > Mexican Restaurant > Taco Restaurant'],b'\x00\x00\x00\x00\x01\xc0Yk\xa0\xc7}x<@5\x19\xf5o\x93\x98u',"{'xmin': -101.68168818714997, 'ymin': 21.101401303800646, 'xmax': -101.68168818714997, 'ymax': 21.101401303800646}",dining and drinking > restaurant > mexican restaurant > taco restaurant,1
572cf463cd104595c59ed57a,Don Miguelon,20.66530364342823,-103.4087365823986,Niño Obrero Y Guadalupe,Zapopan,Jalisco,45040,,,,MX,2016-05-06,2021-12-21,,,,,,,,['4bf58dd8d48988d151941735'],['Dining and Drinking > Restaurant > Mexican Restaurant > Taco Restaurant'],"b'\x00\x00\x00\x00\x01\xc0Y\xda(\xbd{\x85,@4\xaaQV\xeeo\x14'","{'xmin': -103.4087365823986, 'ymin': 20.66530364342823, 'xmax': -103.4087365823986, 'ymax': 20.66530364342823}",dining and drinking > restaurant > mexican restaurant > taco restaurant,1
59d27926464d6572f068da0e,Tacos El Patron,20.635435,-103.32831,Rio Alamo,Guadalajara,JAL,44898,,,,MX,2017-10-02,2021-08-16,,,,,,,,['4bf58dd8d48988d151941735'],['Dining and Drinking > Restaurant > Mexican Restaurant > Taco Restaurant'],b'\x00\x00\x00\x00\x01\xc0Y\xd5\x03\x07\xf2<\xc9@4\xa2\xab\xde?\xbb\xd8',"{'xmin': -103.32831, 'ymin': 20.635435, 'xmax': -103.32831, 'ymax': 20.635435}",dining and drinking > restaurant > mexican restaurant > taco restaurant,1
f918c6da372e46a608267900,Taqueria la Puerta Negra,20.217229,-100.881309,Benito Juarez 516A,Salvatierra,Guanajuato,38900,,,,MX,2013-03-24,2023-12-06,,466 663 5218,,,,,,['4bf58dd8d48988d116941735' '4bf58dd8d48988d151941735'],"['Dining and Drinking > Bar'
 'Dining and Drinking > Restaurant > Mexican Restaurant > Taco Restaurant']","b""\x00\x00\x00\x00\x01\xc0Y8g]\xdd*\xe9@47\x9cQ\xda\xbe'""","{'xmin': -100.881309, 'ymin': 20.217229, 'xmax': -100.881309, 'ymax': 20.217229}","dining and drinking > bar, dining and drinking > restaurant > mexican restaurant > taco restaurant",1
529bfa9e498e12e51b7fbfc5,Tacos Arandas,21.43417940347742,-102.57542539521116,,,,,,,,MX,2013-12-02,2021-08-11,,,,,,,,['4bf58dd8d48988d151941735'],['Dining and Drinking > Restaurant > Mexican Restaurant > Taco Restaurant'],b'\x00\x00\x00\x00\x01\xc0Y\xa4\xd3\xc5\tn\x11@5o&a\xa2\x88E',"{'xmin': -102.57542539521116, 'ymin': 21.43417940347742, 'xmax': -102.57542539521116, 'ymax': 21.43417940347742}",dining and drinking > restaurant > mexican restaurant > taco restaurant,1
505e8f3ae4b0fd143ca9542f,Tacos Don Mugres,20.637305,-103.427738,,,,,,,,MX,2012-09-23,2021-08-11,,,,,,,,['4bf58dd8d48988d151941735'],['Dining and Drinking > Restaurant > Mexican Restaurant > Taco Restaurant'],b'\x00\x00\x00\x00\x01\xc0Y\xdb`\x0f4Pj@4\xa3&k\xa4\x93\xc9',"{'xmin': -103.427738, 'ymin': 20.637305, 'xmax': -103.427738, 'ymax': 20.637305}",dining and drinking > restaurant > mexican restaurant > taco restaurant,1
50180d53e4b0832ae1d8b94b,"Taqueria ""EL GRAN DIEGO""",21.180351965232177,-105.1349895533931,Carretera Compostela-Crucero de Tetitlán,Compostela,Nayarit,63700,,,,MX,2012-07-31,2020-11-30,,,,,,,,['4bf58dd8d48988d151941735'],['Dining and Drinking > Restaurant > Mexican Restaurant > Taco Restaurant'],b'\x00\x00\x00\x00\x01\xc0ZH\xa3\xab9H\x00@5.+\x8b\xe0q\x08',"{'xmin': -105.1349895533931, 'ymin': 21.180351965232177, 'xmax': -105.1349895533931, 'ymax': 21.180351965232177}",dining and drinking > restaurant > mexican restaurant > taco restaurant,1
50988d85e4b0b01fee8797fc,Los Molcajetes De Don Pepe,20.5210334485985,-100.80856944838735,,,,,,,,MX,2012-11-06,2021-08-15,,,,,,,,['4bf58dd8d48988d151941735'],['Dining and Drinking > Restaurant > Mexican Restaurant > Taco Restaurant'],b'\x00\x00\x00\x00\x01\xc0Y3\xbf\x9a\x12W\x94@4\x85br\xb5\xdaH',"{'xmin': -100.80856944838735, 'ymin': 20.5210334485985, 'xmax': -100.80856944838735, 'ymax': 20.5210334485985}",dining and drinking > restaurant > mexican restaurant > taco restaurant,1
551976d0498e208a93c1cd37,Tacos Hermanos Guerrero,20.96467362821317,-101.28551994637249,,,,,,,,MX,2015-03-30,2023-12-22,,473 459 5181,,jbguerrero@hotmail.com,,,,['4bf58dd8d48988d151941735'],['Dining and Drinking > Restaurant > Mexican Restaurant > Taco Restaurant'],b'\x00\x00\x00\x00\x01\xc0YRE\xf5t\x01\xa2@4\xf6\xf4\xd9\xd4}>',"{'xmin': -101.28551994637249, 'ymin': 20.96467362821317, 'xmax': -101.28551994637249, 'ymax': 20.96467362821317}",dining and drinking > restaurant > mexican restaurant > taco restaurant,1
5a1cd07275a6ea02403e619d,Tacos Don Chon,20.961672,-101.285645,,Yerbabuena,Guanajuato,,,,,MX,2017-11-28,2020-11-25,,,,,,,,['4bf58dd8d48988d151941735'],['Dining and Drinking > Restaurant > Mexican Restaurant > Taco Restaurant'],"b'\x00\x00\x00\x00\x01\xc0YRH\x01\xf7Q\x05@4\xf60""\xddz\x9a'","{'xmin': -101.285645, 'ymin': 20.961672, 'xmax': -101.285645, 'ymax': 20.961672}",dining and drinking > restaurant > mexican restaurant > taco restaurant,1
5120438de4b007500c05bc1c,"Tacos ""Paty""",20.73352618846238,-103.3891623307118,Pino Suarez,Zapopan,,,,,,MX,2013-02-17,2020-11-25,,,,,,,,['4bf58dd8d48988d151941735'],['Dining and Drinking > Restaurant > Mexican Restaurant > Taco Restaurant'],b'\x00\x00\x00\x00\x01\xc0Y\xd8\xe8\t\x1e\xcf\x82@4\xbb\xc8_N4\x99',"{'xmin': -103.3891623307118, 'ymin': 20.73352618846238, 'xmax': -103.3891623307118, 'ymax': 20.73352618846238}",dining and drinking > restaurant > mexican restaurant > taco restaurant,1
553bcbb8498e111b330db545,Tacos y Parrilladas Mi Lupita,21.874266822295823,-102.30630799252204,,,,,,,,MX,2015-04-25,2021-08-14,,,,,,,,['4bf58dd8d48988d151941735'],['Dining and Drinking > Restaurant > Mexican Restaurant > Taco Restaurant'],b'\x00\x00\x00\x00\x01\xc0Y\x93\x9a\x8c\xd6\x98\xad@5\xdf\xcf\xf3Q\xbd\x08',"{'xmin': -102.30630799252204, 'ymin': 21.874266822295823, 'xmax': -102.30630799252204, 'ymax': 21.874266822295823}",dining and drinking > restaurant > mexican restaurant > taco restaurant,1
5c8294fb18d43b002cace05d,Doña Rosa,19.248373,-103.70034,,Colima,Colima,28046,,,,MX,2019-03-08,2020-11-25,,,,,,,,['4bf58dd8d48988d151941735'],['Dining and Drinking > Restaurant > Mexican Restaurant > Taco Restaurant'],b'\x00\x00\x00\x00\x01\xc0Y\xec\xd2^\xdd\x05)@3?\x95_x5\x9c',"{'xmin': -103.70034, 'ymin': 19.248373, 'xmax': -103.70034, 'ymax': 19.248373}",dining and drinking > restaurant > mexican restaurant > taco restaurant,1
5232725d11d2fb1d935b43f5,Tacos El Tio,20.725542,-103.320266,rafael cacho,Guadalajara,,44220,,,,MX,2013-09-13,2021-08-15,,,,,,,,['4bf58dd8d48988d151941735'],['Dining and Drinking > Restaurant > Mexican Restaurant > Taco Restaurant'],b'\x00\x00\x00\x00\x01\xc0Y\xd4\x7f<\xf7\x01T@4\xb9\xbd\x1e\xd9\xdf\xdb',"{'xmin': -103.320266, 'ymin': 20.725542, 'xmax': -103.320266, 'ymax': 20.725542}",dining and drinking > restaurant > mexican restaurant > taco restaurant,1
5cb6905d1c9e2e00253800c6,Taquería Don Arnul,20.626602,-103.479576,Av. H. Colegio Militar,Zapopan,Jalisco,,,,,MX,2019-04-17,2020-11-24,,,,,,,,['4bf58dd8d48988d151941735'],['Dining and Drinking > Restaurant > Mexican Restaurant > Taco Restaurant'],b'\x00\x00\x00\x00\x01\xc0Y\xde\xb1_\x88\xfc\x93@4\xa0h\xfd\x19\x9b\xb2',"{'xmin': -103.479576, 'ymin': 20.626602, 'xmax': -103.479576, 'ymax': 20.626602}",dining and drinking > restaurant > mexican restaurant > taco restaurant,1
0a0f86e09e104d6db542a3d0,Cocina Economica las Palmas,21.145568,-101.645319,Union Comunitaria 1102,León,Guanajuato,37239,,,,MX,2013-05-29,2023-12-06,,477 775 7517,,,,,,['4bf58dd8d48988d151941735'],['Dining and Drinking > Restaurant > Mexican Restaurant > Taco Restaurant'],b'\x00\x00\x00\x00\x01\xc0YiL\xe8\x10\x1f2@5%C\xf1\xc7X\x19',"{'xmin': -101.645319, 'ymin': 21.145568, 'xmax': -101.645319, 'ymax': 21.145568}",dining and drinking > restaurant > mexican restaurant > taco restaurant,1
52bb9b8f498e4a573312b38b,Taqueria El Bueno,31.86899757385254,-112.8467025756836,,,,,,,,MX,2013-12-26,2021-08-12,,,,,,,,['4bf58dd8d48988d151941735'],['Dining and Drinking > Restaurant > Mexican Restaurant > Taco Restaurant'],b'\x00\x00\x00\x00\x01\xc0\\60`\x00\x00\x00@?\xdev\xa0\x00\x00\x00',"{'xmin': -112.8467025756836, 'ymin': 31.86899757385254, 'xmax': -112.8467025756836, 'ymax': 31.86899757385254}",dining and drinking > restaurant > mexican restaurant > taco restaurant,1
6573d608e255b3343936251c,Tripitas,20.69141,-103.326549,,Guadalajara,Jal.,44340,,,,MX,2023-12-09,2023-12-09,,,,,,,,['4bf58dd8d48988d151941735'],['Dining and Drinking > Restaurant > Mexican Restaurant > Taco Restaurant'],b'\x00\x00\x00\x00\x01\xc0Y\xd4\xe6-\xc6\xe2\xa8@4\xb1\x00>\xea \x9b',"{'xmin': -103.326549, 'ymin': 20.69141, 'xmax': -103.326549, 'ymax': 20.69141}",dining and drinking > restaurant > mexican restaurant > taco restaurant,1
5222d14011d2f1685927623d,tacos leon,21.101036071777344,-101.70709228515625,Obrero Mundial,Leon,GTO,,,,,MX,2013-09-01,2020-11-25,,,,,,,,['4bf58dd8d48988d151941735'],['Dining and Drinking > Restaurant > Mexican Restaurant > Taco Restaurant'],b'\x00\x00\x00\x00\x01\xc0YmA\x00\x00\x00\x00@5\x19\xdd\x80\x00\x00\x00',"{'xmin': -101.70709228515625, 'ymin': 21.101036071777344, 'xmax': -101.70709228515625, 'ymax': 21.101036071777344}",dining and drinking > restaurant > mexican restaurant > taco restaurant,1
54f0844b498e9a7e4835403a,El Big Cuñao,21.150527327540708,-101.71107444193434,Av Universidad,,,,,,,MX,2015-02-27,2021-08-16,,,,,,,,['4bf58dd8d48988d151941735'],['Dining and Drinking > Restaurant > Mexican Restaurant > Taco Restaurant'],b'\x00\x00\x00\x00\x01\xc0Ym\x82>`HI@5&\x88\xf5|\xf1\x0e',"{'xmin': -101.71107444193434, 'ymin': 21.150527327540708, 'xmax': -101.71107444193434, 'ymax': 21.150527327540708}",dining and drinking > restaurant > mexican restaurant > taco restaurant,1
527472bd11d2b1d2ce995567,La Parrillita,22.161251,-101.039016,,,,,,,,MX,2013-11-02,2021-08-10,,,,,,,,['4bf58dd8d48988d151941735'],['Dining and Drinking > Restaurant > Mexican Restaurant > Taco Restaurant'],b'\x00\x00\x00\x00\x01\xc0YB\x7f<\xf7\x01T@6)G\xbe\xdbr\x82',"{'xmin': -101.039016, 'ymin': 22.161251, 'xmax': -101.039016, 'ymax': 22.161251}",dining and drinking > restaurant > mexican restaurant > taco restaurant,1
5d9c9e855288fb0008434c4f,Michigan Tacos De Barbacoa,20.662399,-103.361016,,Guadalajara,JAL,44190,,,,MX,2019-10-08,2021-08-16,,,,,,,,['4bf58dd8d48988d151941735'],['Dining and Drinking > Restaurant > Mexican Restaurant > Taco Restaurant'],b'\x00\x00\x00\x00\x01\xc0Y\xd7\x1a\xe2\xdaUL@4\xa9\x92\xfb\x19\xe72',"{'xmin': -103.361016, 'ymin': 20.662399, 'xmax': -103.361016, 'ymax': 20.662399}",dining and drinking > restaurant > mexican restaurant > taco restaurant,1
5329fb64498e98c2eb5d6e7a,"""tacos Lucas""",20.729330620071096,-103.36763269009406,,,,,,,,MX,2014-03-19,2021-08-15,,,,,,,,['4bf58dd8d48988d151941735'],['Dining and Drinking > Restaurant > Mexican Restaurant > Taco Restaurant'],b'\x00\x00\x00\x00\x01\xc0Y\xd7\x87KC9?@4\xba\xb5iY-@',"{'xmin': -103.36763269009406, 'ymin': 20.729330620071096, 'xmax': -103.36763269009406, 'ymax': 20.729330620071096}",dining and drinking > restaurant > mexican restaurant > taco restaurant,1
4d99e2fda2c65481b1b91154,Tacos Texas,20.694247137790875,-103.41520684488815,Av. Patria 1310,Zapopan,JAL,45110,,,,MX,2011-04-04,2020-11-30,,33 3610 2020,http://tacostexas.com.mx,,,,,['4bf58dd8d48988d151941735' '4bf58dd8d48988d1c1941735'],"['Dining and Drinking > Restaurant > Mexican Restaurant > Taco Restaurant'
 'Dining and Drinking > Restaurant > Mexican Restaurant']","b""\x00\x00\x00\x00\x01\xc0Y\xda\x92\xbf\xba\xf7\xad@4\xb1\xba.0'F""","{'xmin': -103.41520684488815, 'ymin': 20.694247137790875, 'xmax': -103.41520684488815, 'ymax': 20.694247137790875}","dining and drinking > restaurant > mexican restaurant > taco restaurant, dining and drinking > restaurant > mexican restaurant",1
60a0887790284c512e03de30,"Tacos ""El Güero Rafa""",20.679716,-103.31212,,Guadalajara,Jalisco,44730,,,,MX,2021-05-16,2021-08-11,,,,,,,,['4bf58dd8d48988d151941735'],['Dining and Drinking > Restaurant > Mexican Restaurant > Taco Restaurant'],b'\x00\x00\x00\x00\x01\xc0Y\xd3\xf9\xc6*\x1b\\@4\xae\x01\xde&\x91d',"{'xmin': -103.31212, 'ymin': 20.679716, 'xmax': -103.31212, 'ymax': 20.679716}",dining and drinking > restaurant > mexican restaurant > taco restaurant,1
572373f538fa3b6f6c003eeb,tortas ahogadas el javi,20.737864,-103.424584,,,,,,,,MX,2016-04-29,2021-08-13,,,,,,,,['4bf58dd8d48988d151941735'],['Dining and Drinking > Restaurant > Mexican Restaurant > Taco Restaurant'],"b'\x00\x00\x00\x00\x01\xc0Y\xdb,b^\x99\xe9@4\xbc\xe4\xa7\xb4\xe5O'","{'xmin': -103.424584, 'ymin': 20.737864, 'xmax': -103.424584, 'ymax': 20.737864}",dining and drinking > restaurant > mexican restaurant > taco restaurant,1
4f6b9871e4b0f7fc5502096e,Taco catorce,20.643036862312997,-103.35210414337406,,,,,,,,MX,2012-03-22,2021-08-15,,,,,,,,['4bf58dd8d48988d151941735'],['Dining and Drinking > Restaurant > Mexican Restaurant > Taco Restaurant'],b'\x00\x00\x00\x00\x01\xc0Y\xd6\x88\xdf\xd1$\xf9@4\xa4\x9e\x10U\xc1\xbc',"{'xmin': -103.35210414337406, 'ymin': 20.643036862312997, 'xmax': -103.35210414337406, 'ymax': 20.643036862312997}",dining and drinking > restaurant > mexican restaurant > taco restaurant,1
4e89e5e946909b712179802a,Tacos paco,20.663042,-103.383644,El sol,Guadalajara,Jalisco,44520,,,,MX,2011-10-03,2021-08-14,,,,,,,,['4bf58dd8d48988d151941735'],['Dining and Drinking > Restaurant > Mexican Restaurant > Taco Restaurant'],b'\x00\x00\x00\x00\x01\xc0Y\xd8\x8d\x9f\x90S\xa0@4\xa9\xbd\x1e\xd9\xdf\xdb',"{'xmin': -103.383644, 'ymin': 20.663042, 'xmax': -103.383644, 'ymax': 20.663042}",dining and drinking > restaurant > mexican restaurant > taco restaurant,1
5599682e498eba0a89546ce2,Carnitas Rucio,20.742652893066406,-103.38723754882812,Av. Camino a Bosques de San Isidro,Zapopan,Jalisco,,,,,MX,2015-07-05,2020-11-30,,,,,,,,['4bf58dd8d48988d151941735'],['Dining and Drinking > Restaurant > Mexican Restaurant > Taco Restaurant'],b'\x00\x00\x00\x00\x01\xc0Y\xd8\xc8\x80\x00\x00\x00@4\xbe\x1e\x80\x00\x00\x00',"{'xmin': -103.38723754882812, 'ymin': 20.742652893066406, 'xmax': -103.38723754882812, 'ymax': 20.742652893066406}",dining and drinking > restaurant > mexican restaurant > taco restaurant,1
4eff25d9722e0f077156c6bc,Pacharela Doña Sofi,20.515681073244924,-100.79314225795824,,,,,,,,MX,2011-12-31,2021-08-13,,,,,,,,['4bf58dd8d48988d151941735'],['Dining and Drinking > Restaurant > Mexican Restaurant > Taco Restaurant'],b'\x00\x00\x00\x00\x01\xc0Y2\xc2\xd7\xbe\xc0f@4\x84\x03\xac\xc0\xc0\xcd',"{'xmin': -100.79314225795824, 'ymin': 20.515681073244924, 'xmax': -100.79314225795824, 'ymax': 20.515681073244924}",dining and drinking > restaurant > mexican restaurant > taco restaurant,1
d6808a88490e4ed974cb8aac,Loncheria Esperanza,21.462849,-100.872226,Allende 83,San Diego de la Unión,Guanajuato,37850,,,,MX,2013-03-24,2023-12-08,,418 684 0354,,,,,,['4bf58dd8d48988d16e941735' '4bf58dd8d48988d151941735'],"['Dining and Drinking > Restaurant > Fast Food Restaurant'
 'Dining and Drinking > Restaurant > Mexican Restaurant > Taco Restaurant']",b'\x00\x00\x00\x00\x01\xc0Y7\xd2\x8d\x00.#@5v}E\xa5\xfc~',"{'xmin': -100.872226, 'ymin': 21.462849, 'xmax': -100.872226, 'ymax': 21.462849}","dining and drinking > restaurant > fast food restaurant, dining and drinking > restaurant > mexican restaurant > taco restaurant",1
4dd87cdb8877f11510053834,"Carnes Asadas ""Los Güeros""",20.673639631855295,-103.36010247742938,Prado 185,Guadalajara,Jalisco,,,,,MX,2011-05-22,2023-09-13,,,,,,,,['4bf58dd8d48988d151941735'],['Dining and Drinking > Restaurant > Mexican Restaurant > Taco Restaurant'],b'\x00\x00\x00\x00\x01\xc0Y\xd7\x0b\xebB\xf1#@4\xacs\xa5\x9c\x1b\xa4',"{'xmin': -103.36010247742938, 'ymin': 20.673639631855295, 'xmax': -103.36010247742938, 'ymax': 20.673639631855295}",dining and drinking > restaurant > mexican restaurant > taco restaurant,1
4f9a1113e4b0193a1e7919c2,La Estrella,20.685177549312503,-103.44167448828722,Av. Vallarta,Zapopan,Jalisco,,,,,MX,2012-04-27,2020-11-25,,,,,,,,['4bf58dd8d48988d151941735'],['Dining and Drinking > Restaurant > Mexican Restaurant > Taco Restaurant'],b'\x00\x00\x00\x00\x01\xc0Y\xdcDe\x12\xaa\xf4@4\xafg\xcb\xbe@)',"{'xmin': -103.44167448828722, 'ymin': 20.685177549312503, 'xmax': -103.44167448828722, 'ymax': 20.685177549312503}",dining and drinking > restaurant > mexican restaurant > taco restaurant,1
5718e977498ee4c3e5103a39,"""La Tía"" pozole y antojos del comal",20.64421113246186,-103.2985782218775,,,,,,,,MX,2016-04-21,2021-08-12,,,,,,,,['4bf58dd8d48988d151941735'],['Dining and Drinking > Restaurant > Mexican Restaurant > Taco Restaurant'],b'\x00\x00\x00\x00\x01\xc0Y\xd3\x1b\xe7\xd4\x90\xc0@4\xa4\xeb\x05Q\xa4\x8f',"{'xmin': -103.2985782218775, 'ymin': 20.64421113246186, 'xmax': -103.2985782218775, 'ymax': 20.64421113246186}",dining and drinking > restaurant > mexican restaurant > taco restaurant,1
54de3288498e74f2d9fee652,Las Carnitas,21.476646559241612,-104.86778353504704,,,,,,,,MX,2015-02-13,2021-08-11,,,,,,,,['4bf58dd8d48988d151941735'],['Dining and Drinking > Restaurant > Mexican Restaurant > Taco Restaurant'],b'\x00\x00\x00\x00\x01\xc0Z7\x89\xc3\xf3\xc22@5z\x05\x82G\xb1\x93',"{'xmin': -104.86778353504704, 'ymin': 21.476646559241612, 'xmax': -104.86778353504704, 'ymax': 21.476646559241612}",dining and drinking > restaurant > mexican restaurant > taco restaurant,1
55ea5d69498e8edb043fc652,Ttaqueria Los Parados,20.676125,-103.368382,,,,,,,,MX,2015-09-05,2021-08-11,,,,,,,,['4bf58dd8d48988d151941735'],['Dining and Drinking > Restaurant > Mexican Restaurant > Taco Restaurant'],b'\x00\x00\x00\x00\x01\xc0Y\xd7\x93\x92\x18\x9b\xd8@4\xad\x16\x87+\x02\x0c',"{'xmin': -103.368382, 'ymin': 20.676125, 'xmax': -103.368382, 'ymax': 20.676125}",dining and drinking > restaurant > mexican restaurant > taco restaurant,1
4ee97660be7b7263d9a2d47c,Tacos Don Carlos,20.72113829489865,-103.36452457283374,,,,,,,,MX,2011-12-15,2021-08-15,,,,,,,,['4bf58dd8d48988d151941735'],['Dining and Drinking > Restaurant > Mexican Restaurant > Taco Restaurant'],b'\x00\x00\x00\x00\x01\xc0Y\xd7T^\xdf\xba2@4\xb8\x9c\x84\xf0{\xa0',"{'xmin': -103.36452457283374, 'ymin': 20.72113829489865, 'xmax': -103.36452457283374, 'ymax': 20.72113829489865}",dining and drinking > restaurant > mexican restaurant > taco restaurant,1
4d93910ad07eb1f7f8cbfabb,Tacos Sin Nombre,20.679559384897612,-103.37943761083368,,,,,,,,MX,2011-03-30,2021-08-14,,,,,,,,['4bf58dd8d48988d151941735'],['Dining and Drinking > Restaurant > Mexican Restaurant > Taco Restaurant'],b'\x00\x00\x00\x00\x01\xc0Y\xd8H\xb4\xb0Y\xcb@4\xad\xf7\x9a\x95\xd3;',"{'xmin': -103.37943761083368, 'ymin': 20.679559384897612, 'xmax': -103.37943761083368, 'ymax': 20.679559384897612}",dining and drinking > restaurant > mexican restaurant > taco restaurant,1
512b939ae4b004fb94e4ea02,Tacos el Pájaro Et,20.629850387573242,-103.3754653930664,32,Lomas De Polanco,Jalisco,44960,,,,MX,2013-02-25,2020-11-23,,,,,,,,['4bf58dd8d48988d151941735'],['Dining and Drinking > Restaurant > Mexican Restaurant > Taco Restaurant'],b'\x00\x00\x00\x00\x01\xc0Y\xd8\x07\xa0\x00\x00\x00@4\xa1=\xe0\x00\x00\x00',"{'xmin': -103.3754653930664, 'ymin': 20.629850387573242, 'xmax': -103.3754653930664, 'ymax': 20.629850387573242}",dining and drinking > restaurant > mexican restaurant > taco restaurant,1
58d9786924fd71144ff78ef4,Chano Carranza,19.272852,-103.715385,Venustiano Carranza 1745,Colima,Colima,,,,,MX,2017-03-27,2020-11-25,,,,,,,,['4bf58dd8d48988d151941735'],['Dining and Drinking > Restaurant > Mexican Restaurant > Taco Restaurant'],"b'\x00\x00\x00\x00\x01\xc0Y\xed\xc8\xde*\xc3""@3E\xd9\xa0\xf0\xa5\xf0'","{'xmin': -103.715385, 'ymin': 19.272852, 'xmax': -103.715385, 'ymax': 19.272852}",dining and drinking > restaurant > mexican restaurant > taco restaurant,1
536da1d5498ed481f4bca3f8,Tacos Elena,20.318709,-105.323334,1 De abril 84,El Tuito,Jalisco,48400,,,,MX,2014-05-10,2020-11-23,,,,,,,,['4bf58dd8d48988d151941735'],['Dining and Drinking > Restaurant > Mexican Restaurant > Taco Restaurant'],b'\x00\x00\x00\x00\x01\xc0ZT\xb1\x81\x16\xeb\xd5@4Q\x96\xe9\xbb\xf0\xdc',"{'xmin': -105.323334, 'ymin': 20.318709, 'xmax': -105.323334, 'ymax': 20.318709}",dining and drinking > restaurant > mexican restaurant > taco restaurant,1
536c4828498eee8af1009b28,Tacos La Guadalupana,21.08095359802246,-101.6441879272461,,,,,,,,MX,2014-05-09,2021-08-11,,,,,,,,['4bf58dd8d48988d151941735'],['Dining and Drinking > Restaurant > Mexican Restaurant > Taco Restaurant'],b'\x00\x00\x00\x00\x01\xc0Yi:`\x00\x00\x00@5\x14\xb9`\x00\x00\x00',"{'xmin': -101.6441879272461, 'ymin': 21.08095359802246, 'xmax': -101.6441879272461, 'ymax': 21.08095359802246}",dining and drinking > restaurant > mexican restaurant > taco restaurant,1
665cd92b860d3711df223633,Tacos El Torreón,19.243673,-103.73829,,Colima,Colima,28050,,,,MX,2024-06-02,2024-06-02,,,,,,,,['4bf58dd8d48988d151941735'],['Dining and Drinking > Restaurant > Mexican Restaurant > Taco Restaurant'],b'\x00\x00\x00\x00\x01\xc0Y\xef@$\xb3=\xb0@3>aZ\x8d\xeb\x10',"{'xmin': -103.73829, 'ymin': 19.243673, 'xmax': -103.73829, 'ymax': 19.243673}",dining and drinking > restaurant > mexican restaurant > taco restaurant,1
526891a011d2d2e7955d466f,Taqueria México 70,20.39338508143344,-101.1814323505109,,,,,,,,MX,2013-10-24,2021-08-15,,,,,,,,['4bf58dd8d48988d151941735'],['Dining and Drinking > Restaurant > Mexican Restaurant > Taco Restaurant'],b'\x00\x00\x00\x00\x01\xc0YK\x9c\x96n\xf8^@4d\xb4\xe2{}\xad',"{'xmin': -101.1814323505109, 'ymin': 20.39338508143344, 'xmax': -101.1814323505109, 'ymax': 20.39338508143344}",dining and drinking > restaurant > mexican restaurant > taco restaurant,1
628d4bb3ff9d065f2e22186b,Benditos Tacos Comanjilla,21.03689,-101.523415,Carretera a Comanjilla km2,los paraísos,Guanajuato,37683,,,,MX,2022-05-24,2023-09-13,,,,,,,,['4bf58dd8d48988d151941735'],['Dining and Drinking > Restaurant > Mexican Restaurant > Taco Restaurant'],b'\x00\x00\x00\x00\x01\xc0Ya\x7f\xa1\xa0\xcf\x18@5\tq\x9f\x7f\x8c\xa8',"{'xmin': -101.523415, 'ymin': 21.03689, 'xmax': -101.523415, 'ymax': 21.03689}",dining and drinking > restaurant > mexican restaurant > taco restaurant,1
56980580498e7ea36e5b9903,Taqueria Familia Castro,22.133438,-100.974193,,,,,,,,MX,2016-01-14,2021-08-13,,,,,,,,['4bf58dd8d48988d151941735'],['Dining and Drinking > Restaurant > Mexican Restaurant > Taco Restaurant'],"b'\x00\x00\x00\x00\x01\xc0Y>Y-\x98\xbf\x7f@6""(\xfe&\x0b-'","{'xmin': -100.974193, 'ymin': 22.133438, 'xmax': -100.974193, 'ymax': 22.133438}",dining and drinking > restaurant > mexican restaurant > taco restaurant,1
597a38eee65d0c07918fc733,Los Jorongos  ( Tacos Estilo Apatzingan ),20.649246,-103.38692,Av. Arboledas #2474,Guadalajara,JAL,44540,,,,MX,2017-07-27,2021-08-14,,,,,,,,['4bf58dd8d48988d151941735'],['Dining and Drinking > Restaurant > Mexican Restaurant > Taco Restaurant'],b'\x00\x00\x00\x00\x01\xc0Y\xd8\xc3L\x1a\x8a\xc6@4\xa64\xfca\x0f\x0f',"{'xmin': -103.38692, 'ymin': 20.649246, 'xmax': -103.38692, 'ymax': 20.649246}",dining and drinking > restaurant > mexican restaurant > taco restaurant,1
4f162647e4b0958ec5f611c2,Taquería Jiménez,20.623918082547146,-103.40952157974243,,,,,,,,MX,2012-01-18,2021-08-11,,,,,,,,['4bf58dd8d48988d151941735'],['Dining and Drinking > Restaurant > Mexican Restaurant > Taco Restaurant'],b'\x00\x00\x00\x00\x01\xc0Y\xda5\x9a\x00\x00\x00@4\x9f\xb9\x18o\xecK',"{'xmin': -103.40952157974243, 'ymin': 20.623918082547146, 'xmax': -103.40952157974243, 'ymax': 20.623918082547146}",dining and drinking > restaurant > mexican restaurant > taco restaurant,1
50c76091e4b0b353ebaa6a6e,Don Beto,21.64049,-102.97256,,,,,,,,MX,2012-12-11,2021-08-12,,,,,,,,['4bf58dd8d48988d151941735'],['Dining and Drinking > Restaurant > Mexican Restaurant > Taco Restaurant'],"b""\x00\x00\x00\x00\x01\xc0Y\xbe>lLYu@5\xa3\xf7'\x13j@""","{'xmin': -102.97256, 'ymin': 21.64049, 'xmax': -102.97256, 'ymax': 21.64049}",dining and drinking > restaurant > mexican restaurant > taco restaurant,1
53dab7bd498e4c49cfe80f86,"Carnitas y Guisados ""El Santi""",20.626808,-105.223228,Paseo De Las Palmas,Puerto Vallarta,Jalisco,,,,,MX,2014-07-31,2020-11-26,,322 117 5306,,,,,,['4bf58dd8d48988d151941735'],['Dining and Drinking > Restaurant > Mexican Restaurant > Taco Restaurant'],b'\x00\x00\x00\x00\x01\xc0ZNI^\x17\xe3L@4\xa0v}4\xdf\x05',"{'xmin': -105.223228, 'ymin': 20.626808, 'xmax': -105.223228, 'ymax': 20.626808}",dining and drinking > restaurant > mexican restaurant > taco restaurant,1
578a5580498e0aee3494f087,Tacos De Barbacoa el 100%,20.714011,-103.297599,Silvestre Vargas,,,,,,,MX,2016-07-16,2021-08-16,,,,,,,,['4bf58dd8d48988d151941735'],['Dining and Drinking > Restaurant > Mexican Restaurant > Taco Restaurant'],b'\x00\x00\x00\x00\x01\xc0Y\xd3\x0b\xdc\xad\x14\xa1@4\xb6\xc9l\xc5\xfb\xf8',"{'xmin': -103.297599, 'ymin': 20.714011, 'xmax': -103.297599, 'ymax': 20.714011}",dining and drinking > restaurant > mexican restaurant > taco restaurant,1
cc460fa30b744e4681ec5153,El Inicornio Azul,21.032879,-104.363911,De los Leones 2329,Monterrey,Nuevo León,64000,,,,MX,2013-03-24,2023-12-06,,81 8300 1870,,,,,,"['4bf58dd8d48988d18e941735' '4bf58dd8d48988d116941735'
 '4bf58dd8d48988d151941735']","['Arts and Entertainment > Comedy Club' 'Dining and Drinking > Bar'
 'Dining and Drinking > Restaurant > Mexican Restaurant > Taco Restaurant']",b'\x00\x00\x00\x00\x01\xc0Z\x17JQ\\\xe9\xe6@5\x08j\xc2\x15\xb9\xa6',"{'xmin': -104.363911, 'ymin': 21.032879, 'xmax': -104.363911, 'ymax': 21.032879}","arts and entertainment > comedy club, dining and drinking > bar, dining and drinking > restaurant > mexican restaurant > taco restaurant",1
584882e5d6fe9020cb3f0f6d,Tacos Don Arturo,20.684918,-103.343611,,,,,,,,MX,2016-12-07,2021-08-14,,,,,,,,['4bf58dd8d48988d151941735'],['Dining and Drinking > Restaurant > Mexican Restaurant > Taco Restaurant'],b'\x00\x00\x00\x00\x01\xc0Y\xd5\xfd\xb8\xfd\xe2\xef@4\xafV\xc9:q\x15',"{'xmin': -103.343611, 'ymin': 20.684918, 'xmax': -103.343611, 'ymax': 20.684918}",dining and drinking > restaurant > mexican restaurant > taco restaurant,1
4efa00ce490124bf9bafcedc,Osbaldos,20.617328167968033,-103.41913353298088,Av. Las Fuentes #3072,Zapopan,Jalisco,45080,,,,MX,2011-12-27,2020-11-25,,,,,,,,['4bf58dd8d48988d151941735'],['Dining and Drinking > Restaurant > Mexican Restaurant > Taco Restaurant'],b'\x00\x00\x00\x00\x01\xc0Y\xda\xd3\x15t3\xd4@4\x9e\t8\x04R\x82',"{'xmin': -103.41913353298088, 'ymin': 20.617328167968033, 'xmax': -103.41913353298088, 'ymax': 20.617328167968033}",dining and drinking > restaurant > mexican restaurant > taco restaurant,1
529b914911d2773d63023903,Carnitas Pipo linea de fuego,21.886394500732422,-102.29478454589844,,,,,,,,MX,2013-12-01,2021-08-13,,,,,,,,['4bf58dd8d48988d151941735'],['Dining and Drinking > Restaurant > Mexican Restaurant > Taco Restaurant'],b'\x00\x00\x00\x00\x01\xc0Y\x92\xdd\xc0\x00\x00\x00@5\xe2\xea\xc0\x00\x00\x00',"{'xmin': -102.29478454589844, 'ymin': 21.886394500732422, 'xmax': -102.29478454589844, 'ymax': 21.886394500732422}",dining and drinking > restaurant > mexican restaurant > taco restaurant,1
52ed8c14498e30da953c85be,Tacos Veganos,20.672943115234375,-103.35919189453125,Plaza Expiatorio,Guadalajara,Jalisco,,,,,MX,2014-02-02,2021-08-14,,,,,,,,['4bf58dd8d48988d151941735'],['Dining and Drinking > Restaurant > Mexican Restaurant > Taco Restaurant'],b'\x00\x00\x00\x00\x01\xc0Y\xd6\xfd\x00\x00\x00\x00@4\xacF\x00\x00\x00\x00',"{'xmin': -103.35919189453125, 'ymin': 20.672943115234375, 'xmax': -103.35919189453125, 'ymax': 20.672943115234375}",dining and drinking > restaurant > mexican restaurant > taco restaurant,1
51ee95b4498e3425f882f142,Tacos El Patron,21.147717774169095,-101.6758908591523,Campestre 59,León,Guanajuato,,,,,MX,2013-07-23,2020-11-23,,,,,,,,['4bf58dd8d48988d151941735'],['Dining and Drinking > Restaurant > Mexican Restaurant > Taco Restaurant'],b'\x00\x00\x00\x00\x01\xc0YkA\xcb\xbb\xee^@5%\xd0\xd5\x01\x18\x1c',"{'xmin': -101.6758908591523, 'ymin': 21.147717774169095, 'xmax': -101.6758908591523, 'ymax': 21.147717774169095}",dining and drinking > restaurant > mexican restaurant > taco restaurant,1
53d2b0a3498e53e973b80ff1,Tortas ahogadas julio's,20.622531662222173,-103.23709542567806,,,,,,,,MX,2014-07-25,2021-08-12,,,,,,,,['4bf58dd8d48988d151941735'],['Dining and Drinking > Restaurant > Mexican Restaurant > Taco Restaurant'],"b'\x00\x00\x00\x00\x01\xc0Y\xcf,\x92J\xd4b@4\x9f^<)\xf8\x00'","{'xmin': -103.23709542567806, 'ymin': 20.622531662222173, 'xmax': -103.23709542567806, 'ymax': 20.622531662222173}",dining and drinking > restaurant > mexican restaurant > taco restaurant,1
4df378f1ae609e69dd99a080,Tacos Leo's,20.651003101159205,-103.33513978539233,Salvador Lopez Chavez,Guadalajara,jalisco,,,,,MX,2011-06-11,2021-11-22,,33 1403 7737,,,,,,['4bf58dd8d48988d151941735'],['Dining and Drinking > Restaurant > Mexican Restaurant > Taco Restaurant'],b'\x00\x00\x00\x00\x01\xc0Y\xd5r\xee$vN@4\xa6\xa8#\xa5\x12\xc8',"{'xmin': -103.33513978539233, 'ymin': 20.651003101159205, 'xmax': -103.33513978539233, 'ymax': 20.651003101159205}",dining and drinking > restaurant > mexican restaurant > taco restaurant,1
52a9d87e11d25fe944a8999c,Tacos y Burritos El Güero,21.897274880170215,-102.25243647948525,,,,,,,,MX,2013-12-12,2021-08-17,,,,,,,,['4bf58dd8d48988d151941735'],['Dining and Drinking > Restaurant > Mexican Restaurant > Taco Restaurant'],"b""\x00\x00\x00\x00\x01\xc0Y\x90'\xebU\xed8@5\xe5\xb3\xcey\xdax""","{'xmin': -102.25243647948525, 'ymin': 21.897274880170215, 'xmax': -102.25243647948525, 'ymax': 21.897274880170215}",dining and drinking > restaurant > mexican restaurant > taco restaurant,1
559b4d75498e62662f006b33,Tacos Fermín,20.662743,-103.43111,Sanzio,Zapopan,Jalisco,45037,,,,MX,2015-07-07,2022-07-05,,,,,,,,['4bf58dd8d48988d151941735'],['Dining and Drinking > Restaurant > Mexican Restaurant > Taco Restaurant'],b'\x00\x00\x00\x00\x01\xc0Y\xdb\x97Ne\xbe\xa1@4\xa9\xa9\x86v\xa7&',"{'xmin': -103.43111, 'ymin': 20.662743, 'xmax': -103.43111, 'ymax': 20.662743}",dining and drinking > restaurant > mexican restaurant > taco restaurant,1
58a733f51b36d431c01f8874,Tacos y Quesadillas Panchos,20.642633,-100.987755,,Juventino Rosas,Guanajuato,38240,,,,MX,2017-02-17,2020-11-25,,,,,,,,['4bf58dd8d48988d151941735'],['Dining and Drinking > Restaurant > Mexican Restaurant > Taco Restaurant'],b'\x00\x00\x00\x00\x01\xc0Y?7`\xbf]y@4\xa4\x83\x98\xa6T\x93',"{'xmin': -100.987755, 'ymin': 20.642633, 'xmax': -100.987755, 'ymax': 20.642633}",dining and drinking > restaurant > mexican restaurant > taco restaurant,1
5340380f498e304a6140f850,quesadillas a la chingada,21.096675156128484,-101.6420082669596,,,,,,,,MX,2014-04-05,2021-08-15,,,,,,,,['4bf58dd8d48988d151941735'],['Dining and Drinking > Restaurant > Mexican Restaurant > Taco Restaurant'],b'\x00\x00\x00\x00\x01\xc0Yi\x16\xa9\xd7\x96\x9a@5\x18\xbf\xb3\xf9\xe8T',"{'xmin': -101.6420082669596, 'ymin': 21.096675156128484, 'xmax': -101.6420082669596, 'ymax': 21.096675156128484}",dining and drinking > restaurant > mexican restaurant > taco restaurant,1
5b549d1d646e380039c4ca8d,Barbacoa Mari,19.285128,-99.732724,,San Miguel Zinacantepec,Edomex,51354,,,,MX,2018-07-22,2021-08-13,,,,,,,,['4bf58dd8d48988d151941735' '4bf58dd8d48988d1c1941735'],"['Dining and Drinking > Restaurant > Mexican Restaurant > Taco Restaurant'
 'Dining and Drinking > Restaurant > Mexican Restaurant']","b'\x00\x00\x00\x00\x01\xc0X\xee\xe4\xf34?\xa3@3H\xfe&\x0b,\x84'","{'xmin': -99.732724, 'ymin': 19.285128, 'xmax': -99.732724, 'ymax': 19.285128}","dining and drinking > restaurant > mexican restaurant > taco restaurant, dining and drinking > restaurant > mexican restaurant",1
4f4ee455e4b05017c88086c4,El Charco de las Ranas,18.919262186527025,-103.88382110466904,,,,,,,,MX,2012-03-01,2023-12-20,,311 106 8559,,,,,,['4bf58dd8d48988d151941735'],['Dining and Drinking > Restaurant > Mexican Restaurant > Taco Restaurant'],b'\x00\x00\x00\x00\x01\xc0Y\xf8\x90\x86e\x04\\@2\xebT\xc4C\x95A',"{'xmin': -103.88382110466904, 'ymin': 18.919262186527025, 'xmax': -103.88382110466904, 'ymax': 18.919262186527025}",dining and drinking > restaurant > mexican restaurant > taco restaurant,1
529d308911d2d400b484c31f,Tacos Lucy,19.704732198181937,-101.19642251978522,,,,,,,,MX,2013-12-03,2021-08-14,,,,,,,,['4bf58dd8d48988d151941735'],['Dining and Drinking > Restaurant > Mexican Restaurant > Taco Restaurant'],b'\x00\x00\x00\x00\x01\xc0YL\x92/\xc2\xab:@3\xb4iTO\xa1.',"{'xmin': -101.19642251978522, 'ymin': 19.704732198181937, 'xmax': -101.19642251978522, 'ymax': 19.704732198181937}",dining and drinking > restaurant > mexican restaurant > taco restaurant,1
4e2f87c552b111a1e3851225,"Taqueria ""Acuario""",19.168310027661768,-96.16455600298798,Laguna de Pinalapa,Veracruz,Veracruz-Llave,91779,,,,MX,2011-07-27,2020-11-30,,,,,,,,['4bf58dd8d48988d151941735'],['Dining and Drinking > Restaurant > Mexican Restaurant > Taco Restaurant'],b'\x00\x00\x00\x00\x01\xc0X\n\x88\x15\xe6\xcch@3+\x16]\xb0ej',"{'xmin': -96.16455600298798, 'ymin': 19.168310027661768, 'xmax': -96.16455600298798, 'ymax': 19.168310027661768}",dining and drinking > restaurant > mexican restaurant > taco restaurant,1
4e51c22e52b1e893ad7bb033,Antojitos Doña Mary,19.298175117224524,-99.24439011298728,,Mexico City,Distrito Federal,,,,,MX,2011-08-22,2020-11-25,,,,,,,,['4bf58dd8d48988d151941735'],['Dining and Drinking > Restaurant > Mexican Restaurant > Taco Restaurant'],b'\x00\x00\x00\x00\x01\xc0X\xcf\xa4\x16m\xaf\xc0@3LU4X\xf5\xd6',"{'xmin': -99.24439011298728, 'ymin': 19.298175117224524, 'xmax': -99.24439011298728, 'ymax': 19.298175117224524}",dining and drinking > restaurant > mexican restaurant > taco restaurant,1
4f80709de4b05d42de1ee504,Carnitas Cortés,19.71612730929056,-101.17095049057406,,,Michoacán,,,,,MX,2012-04-07,2023-12-19,,452 523 0379,,,,,,['4bf58dd8d48988d151941735'],['Dining and Drinking > Restaurant > Mexican Restaurant > Taco Restaurant'],"b'\x00\x00\x00\x00\x01\xc0YJ\xf0\xdaS\x90\x0c@3\xb7T\x1e\x8d,\xe9'","{'xmin': -101.17095049057406, 'ymin': 19.71612730929056, 'xmax': -101.17095049057406, 'ymax': 19.71612730929056}",dining and drinking > restaurant > mexican restaurant > taco restaurant,1
5f8657d5b70817260c7fae82,Tacos Norma Y Tino,20.300563,-103.258627,,Ajijic,JAL,45920,,,,MX,2020-10-14,2020-11-23,,,,,,,,['4bf58dd8d48988d151941735'],['Dining and Drinking > Restaurant > Mexican Restaurant > Taco Restaurant'],b'\x00\x00\x00\x00\x01\xc0Y\xd0\x8dXB\xb75@4L\xf1\xb2_c=',"{'xmin': -103.258627, 'ymin': 20.300563, 'xmax': -103.258627, 'ymax': 20.300563}",dining and drinking > restaurant > mexican restaurant > taco restaurant,1
53e43b9e498ee0a807b37082,"Taqueria ""El Pionero Donny""",16.81182289123535,-99.84021759033203,Simon Bolivar,Acapulco,Guerrero,,,,,MX,2014-08-08,2020-11-23,,,,,,,,['4bf58dd8d48988d151941735'],['Dining and Drinking > Restaurant > Mexican Restaurant > Taco Restaurant'],b'\x00\x00\x00\x00\x01\xc0X\xf5\xc6 \x00\x00\x00@0\xcf\xd3\xa0\x00\x00\x00',"{'xmin': -99.84021759033203, 'ymin': 16.81182289123535, 'xmax': -99.84021759033203, 'ymax': 16.81182289123535}",dining and drinking > restaurant > mexican restaurant > taco restaurant,1
58cb575215fb4349bec1024a,La taqueria al carbón,18.865668,-97.100014,,,,,,,,MX,2017-03-17,2021-08-17,,,,,,,,['4bf58dd8d48988d151941735'],['Dining and Drinking > Restaurant > Mexican Restaurant > Taco Restaurant'],b'\x00\x00\x00\x00\x01\xc0XFf\xa1\x1e\xc9\x19@2\xdd\x9ck\x051\x98',"{'xmin': -97.100014, 'ymin': 18.865668, 'xmax': -97.100014, 'ymax': 18.865668}",dining and drinking > restaurant > mexican restaurant > taco restaurant,1
5320d70c498eb62c8dc63932,Taqueria lupita Ayüük,19.33354018048602,-99.16127776455437,Papalotl,Coyoacan,d.f.,,,,,MX,2014-03-12,2020-11-24,,55 3313 6540,,,,,,['4bf58dd8d48988d151941735'],['Dining and Drinking > Restaurant > Mexican Restaurant > Taco Restaurant'],b'\x00\x00\x00\x00\x01\xc0X\xcaR_\xf9\x15P@3Ub\xe3\xa7\x16\xe2',"{'xmin': -99.16127776455437, 'ymin': 19.33354018048602, 'xmax': -99.16127776455437, 'ymax': 19.33354018048602}",dining and drinking > restaurant > mexican restaurant > taco restaurant,1
5210444311d2d97bc58f1164,los paisas del sur,19.2752,-99.6526,,,,,,,,MX,2013-08-18,2021-08-14,,,,,,,,['4bf58dd8d48988d151941735'],['Dining and Drinking > Restaurant > Mexican Restaurant > Taco Restaurant'],b'\x00\x00\x00\x00\x01\xc0X\xe9\xc42\xcaW\xa8@3Fs\x81\xd7\xdb\xf5',"{'xmin': -99.6526, 'ymin': 19.2752, 'xmax': -99.6526, 'ymax': 19.2752}",dining and drinking > restaurant > mexican restaurant > taco restaurant,1
54fa7f4d498e7f86ee0b08fa,"Tacos ""El Arabesco""",16.847082586309057,-99.91006761789322,Calle José Azueta #21,Acapulco,Guerrero,,,,,MX,2015-03-07,2020-11-25,,744 672 8701,,,1377258488970475.0,,,['4bf58dd8d48988d151941735'],['Dining and Drinking > Restaurant > Mexican Restaurant > Taco Restaurant'],b'\x00\x00\x00\x00\x01\xc0X\xfa>\x8c@\x00\x00@0\xd8\xdag\x855`',"{'xmin': -99.91006761789322, 'ymin': 16.847082586309057, 'xmax': -99.91006761789322, 'ymax': 16.847082586309057}",dining and drinking > restaurant > mexican restaurant > taco restaurant,1
52afcbb6498e9ec5fb6c2afd,EL MIRREY,18.850412,-97.093603,,,,,,,,MX,2013-12-17,2021-08-13,,,,,,,,['4bf58dd8d48988d151941735'],['Dining and Drinking > Restaurant > Mexican Restaurant > Taco Restaurant'],b'\x00\x00\x00\x00\x01\xc0XE\xfd\x97o\xf3\xae@2\xd9\xb4\x99\xd0 >',"{'xmin': -97.093603, 'ymin': 18.850412, 'xmax': -97.093603, 'ymax': 18.850412}",dining and drinking > restaurant > mexican restaurant > taco restaurant,1
56ff36a5498e482b51633dc5,"taqueria ""el árbol""",19.269847257166465,-99.11541514621427,"Ahuejotes 38, Col. Ampliación San Marcos",Distrito Federal,,16038,,,,MX,2016-04-02,2020-11-25,,,,,,,,['4bf58dd8d48988d151941735'],['Dining and Drinking > Restaurant > Mexican Restaurant > Taco Restaurant'],b'\x00\x00\x00\x00\x01\xc0X\xc7b\xf65\x9d\x04@3E\x14\xb5\xb8q\xfd',"{'xmin': -99.11541514621427, 'ymin': 19.269847257166465, 'xmax': -99.11541514621427, 'ymax': 19.269847257166465}",dining and drinking > restaurant > mexican restaurant > taco restaurant,1
5bcf8a78e96d0c00324ddfb5,Tacos De Guisado Las Casuelitas,19.287943,-99.44436,,San Juan Ocoyoacac,Estado de México,52740,,,,MX,2018-10-23,2020-11-24,,,,,,,,['4bf58dd8d48988d151941735'],['Dining and Drinking > Restaurant > Mexican Restaurant > Taco Restaurant'],b'\x00\x00\x00\x00\x01\xc0X\xdcpd\xec\xe9\xa3@3I\xb6\xa1\xe8\x1c\xb4',"{'xmin': -99.44436, 'ymin': 19.287943, 'xmax': -99.44436, 'ymax': 19.287943}",dining and drinking > restaurant > mexican restaurant > taco restaurant,1
5089e8c7e4b0645d65afad4d,Taqueria el pariente,19.30901455054965,-99.61502774780831,Morelia,Toluca,Mexico,50010,,,,MX,2012-10-26,2020-11-23,,,,,,,,['4bf58dd8d48988d151941735'],['Dining and Drinking > Restaurant > Mexican Restaurant > Taco Restaurant'],b'\x00\x00\x00\x00\x01\xc0X\xe7\\\x9dW\xbe\x08@3O\x1b\x93\xdc\x99Q',"{'xmin': -99.61502774780831, 'ymin': 19.30901455054965, 'xmax': -99.61502774780831, 'ymax': 19.30901455054965}",dining and drinking > restaurant > mexican restaurant > taco restaurant,1
511e8725e4b04d1bd92c94d4,Tacos Belem,19.259594,-99.101676,,,,,,,,MX,2013-02-15,2021-08-16,,,,,,,,['4bf58dd8d48988d151941735'],['Dining and Drinking > Restaurant > Mexican Restaurant > Taco Restaurant'],b'\x00\x00\x00\x00\x01\xc0X\xc6\x81\xdc\r\xb2p@3Bt\xc0\x9c<\xe2',"{'xmin': -99.101676, 'ymin': 19.259594, 'xmax': -99.101676, 'ymax': 19.259594}",dining and drinking > restaurant > mexican restaurant > taco restaurant,1
5f9c388a20de3310b0312244,Gorditas,19.286507,-99.51145,Miguel Hidalgo,Lerma de Villada,Estado de México,52000,,,,MX,2020-10-30,2020-11-24,,,,,,,,['4bf58dd8d48988d151941735'],['Dining and Drinking > Restaurant > Mexican Restaurant > Taco Restaurant'],b'\x00\x00\x00\x00\x01\xc0X\xe0\xbb\x98\xc7\xe2\x82@3IX\x85\xd3\x138',"{'xmin': -99.51145, 'ymin': 19.286507, 'xmax': -99.51145, 'ymax': 19.286507}",dining and drinking > restaurant > mexican restaurant > taco restaurant,1
52c23775498e6f42eb6f8613,tacos El Chore,20.3818416595459,-102.11296844482422,,,,,,,,MX,2013-12-31,2020-11-22,,,,,,,,['4bf58dd8d48988d151941735'],['Dining and Drinking > Restaurant > Mexican Restaurant > Taco Restaurant'],b'\x00\x00\x00\x00\x01\xc0Y\x87:\xe0\x00\x00\x00@4a\xc0`\x00\x00\x00',"{'xmin': -102.11296844482422, 'ymin': 20.3818416595459, 'xmax': -102.11296844482422, 'ymax': 20.3818416595459}",dining and drinking > restaurant > mexican restaurant > taco restaurant,1
4d48bdc4f53c8cfae0aa0f47,Tacos El Cuñado,19.273861533597312,-99.20700764375756,,Tlalpan,Distrito Federal,,,,,MX,2011-02-02,2020-11-23,,,,,,,,['4bf58dd8d48988d151941735'],['Dining and Drinking > Restaurant > Mexican Restaurant > Taco Restaurant'],b'\x00\x00\x00\x00\x01\xc0X\xcd?\x9c\xfc\xfd}@3F\x1b\xca\x1an\xd0',"{'xmin': -99.20700764375756, 'ymin': 19.273861533597312, 'xmax': -99.20700764375756, 'ymax': 19.273861533597312}",dining and drinking > restaurant > mexican restaurant > taco restaurant,1
50440bb6e4b0ba0a537dcb8a,el dr taco,18.456728178674062,-97.38923177392762,,,,,,,,MX,2012-09-03,2021-08-13,,,,,,,,['4bf58dd8d48988d151941735'],['Dining and Drinking > Restaurant > Mexican Restaurant > Taco Restaurant'],"b'\x00\x00\x00\x00\x01\xc0XX\xe9,b\xe5S@2t\xec#N\x91\x16'","{'xmin': -97.38923177392762, 'ymin': 18.456728178674062, 'xmax': -97.38923177392762, 'ymax': 18.456728178674062}",dining and drinking > restaurant > mexican restaurant > taco restaurant,1
520d7d7e11d2e5fb2f671916,"Quesadillas ""Don Jose""",19.286867,-99.163822,,,,,,,,MX,2013-08-16,2021-08-17,,,,,,,,['4bf58dd8d48988d151941735'],['Dining and Drinking > Restaurant > Mexican Restaurant > Taco Restaurant'],b'\x00\x00\x00\x00\x01\xc0X\xca|\x0fE\x17a@3Ip\x1d\x9fM8',"{'xmin': -99.163822, 'ymin': 19.286867, 'xmax': -99.163822, 'ymax': 19.286867}",dining and drinking > restaurant > mexican restaurant > taco restaurant,1
549e4770498e7529d1f25491,Taco Lento,17.967013,-102.197716,,,,,,,,MX,2014-12-27,2021-08-14,,,,,,,,['4bf58dd8d48988d151941735'],['Dining and Drinking > Restaurant > Mexican Restaurant > Taco Restaurant'],b'\x00\x00\x00\x00\x01\xc0Y\x8c\xa7a\x02yW@1\xf7\x8e)\xf9\xce\x8e',"{'xmin': -102.197716, 'ymin': 17.967013, 'xmax': -102.197716, 'ymax': 17.967013}",dining and drinking > restaurant > mexican restaurant > taco restaurant,1
514522f3e4b08f77841e38a0,Taquería Maricruz.,16.796669054873696,-96.66833038696964,H. Ayuntamiento,,,,,,,MX,2013-03-17,2021-08-15,,,,,,,,['4bf58dd8d48988d151941735'],['Dining and Drinking > Restaurant > Mexican Restaurant > Taco Restaurant'],b'\x00\x00\x00\x00\x01\xc0X*\xc5\xec\xd0\xbdJ@0\xcb\xf2\x80\xd0j\xf2',"{'xmin': -96.66833038696964, 'ymin': 16.796669054873696, 'xmax': -96.66833038696964, 'ymax': 16.796669054873696}",dining and drinking > restaurant > mexican restaurant > taco restaurant,1
518e8ede498e856a5c2c59d1,Tacos Los Tibios,19.32012176513672,-99.09303283691406,,,,,,,,MX,2013-05-11,2021-08-14,,,,,,,,['4bf58dd8d48988d151941735'],['Dining and Drinking > Restaurant > Mexican Restaurant > Taco Restaurant'],b'\x00\x00\x00\x00\x01\xc0X\xc5\xf4@\x00\x00\x00@3Q\xf3\x80\x00\x00\x00',"{'xmin': -99.09303283691406, 'ymin': 19.32012176513672, 'xmax': -99.09303283691406, 'ymax': 19.32012176513672}",dining and drinking > restaurant > mexican restaurant > taco restaurant,1
5b88aa5fbd40090039d13811,La Sanandreseña,18.987221,-97.447519,Calle 5 Poniente,Ciudad Serdán,PUE,75520,,,,MX,2018-08-31,2020-11-30,,,,,,,,['4bf58dd8d48988d151941735'],['Dining and Drinking > Restaurant > Mexican Restaurant > Taco Restaurant'],b'\x00\x00\x00\x00\x01\xc0X\\\xa4&\xbbU\xac@2\xfc\xba\x83\xf4\xec\xa7',"{'xmin': -97.447519, 'ymin': 18.987221, 'xmax': -97.447519, 'ymax': 18.987221}",dining and drinking > restaurant > mexican restaurant > taco restaurant,1
5f9879dd7fa84f5a2b1b002f,Prime Grill & Papas,18.940677,-99.214681,Av San Diego #800,Cuernavaca,MOR,62290,,,,MX,2020-10-27,2023-09-13,,,,,,,,['4bf58dd8d48988d1cc941735' '4bf58dd8d48988d151941735'],"['Dining and Drinking > Restaurant > Steakhouse'
 'Dining and Drinking > Restaurant > Mexican Restaurant > Taco Restaurant']",b'\x00\x00\x00\x00\x01\xc0X\xcd\xbdU`\x84\xa5@2\xf0\xd057\x19r',"{'xmin': -99.214681, 'ymin': 18.940677, 'xmax': -99.214681, 'ymax': 18.940677}","dining and drinking > restaurant > steakhouse, dining and drinking > restaurant > mexican restaurant > taco restaurant",1
5192e29a498e93f8fa34a2e0,Tacos El Cuñado,19.306612636839002,-99.06642001545711,,,,,,,,MX,2013-05-15,2021-08-12,,,,,,,,['4bf58dd8d48988d151941735'],['Dining and Drinking > Restaurant > Mexican Restaurant > Taco Restaurant'],b'\x00\x00\x00\x00\x01\xc0X\xc4@9\xbc\x8c\n@3N~*o\xc3\x8b',"{'xmin': -99.06642001545711, 'ymin': 19.306612636839002, 'xmax': -99.06642001545711, 'ymax': 19.306612636839002}",dining and drinking > restaurant > mexican restaurant > taco restaurant,1
4f94ced4e4b0dcd9134e6756,Tacos Conbinados,19.294638,-99.139098,,,,,,,,MX,2012-04-23,2021-08-11,,,,,,,,['4bf58dd8d48988d151941735'],['Dining and Drinking > Restaurant > Mexican Restaurant > Taco Restaurant'],b'\x00\x00\x00\x00\x01\xc0X\xc8\xe6\xfbL<\x19@3Kme^(\xaa',"{'xmin': -99.139098, 'ymin': 19.294638, 'xmax': -99.139098, 'ymax': 19.294638}",dining and drinking > restaurant > mexican restaurant > taco restaurant,1
5ce2103fc5b11c002cd37280,Los 3 Hermanos,19.25075,-99.058918,,Mexico City,CDMX,16600,,,,MX,2019-05-20,2020-11-23,,,,,,,,['4bf58dd8d48988d151941735'],['Dining and Drinking > Restaurant > Mexican Restaurant > Taco Restaurant'],b'\x00\x00\x00\x00\x01\xc0X\xc3\xc5P\x00\xc9T@3@1&\xe9x\xd5',"{'xmin': -99.058918, 'ymin': 19.25075, 'xmax': -99.058918, 'ymax': 19.25075}",dining and drinking > restaurant > mexican restaurant > taco restaurant,1
4dcefe28d164679b8d0e9a31,El Jardin,19.333370573039705,-99.18035799114564,Eje 10,Mexico,DF,,,,,MX,2011-05-14,2020-11-30,,,,,,,,['4bf58dd8d48988d151941735'],['Dining and Drinking > Restaurant > Mexican Restaurant > Taco Restaurant'],b'\x00\x00\x00\x00\x01\xc0X\xcb\x8a\xfc>b\xbd@3UW\xc6\x1c\xa7\x81',"{'xmin': -99.18035799114564, 'ymin': 19.333370573039705, 'xmax': -99.18035799114564, 'ymax': 19.333370573039705}",dining and drinking > restaurant > mexican restaurant > taco restaurant,1
560ecc99498ec8244c9f3454,Antojeria Marth,18.924280866148724,-99.23581853433825,,,,,,,,MX,2015-10-02,2021-08-16,,,,,,,,['4bf58dd8d48988d151941735'],['Dining and Drinking > Restaurant > Mexican Restaurant > Taco Restaurant'],b'\x00\x00\x00\x00\x01\xc0X\xcf\x17\xa6\x9f1\x80@2\xec\x9d\xab\xbcme',"{'xmin': -99.23581853433825, 'ymin': 18.924280866148724, 'xmax': -99.23581853433825, 'ymax': 18.924280866148724}",dining and drinking > restaurant > mexican restaurant > taco restaurant,1
520d003c498e2d9e9be9caa6,Myltacos,19.1837,-96.1323,Juan Enriquez,Veracruz,Veracruz,91700,,,,MX,2013-08-15,2020-11-26,,,,,,,,['4bf58dd8d48988d151941735'],['Dining and Drinking > Restaurant > Mexican Restaurant > Taco Restaurant'],b'\x00\x00\x00\x00\x01\xc0X\x08w\x9akP\xb1@3/\x06\xf6\x94Ft',"{'xmin': -96.1323, 'ymin': 19.1837, 'xmax': -96.1323, 'ymax': 19.1837}",dining and drinking > restaurant > mexican restaurant > taco restaurant,1
4d8e9dcc788c5481590e3efd,Tacos,19.1898773879198,-96.13937936689562,,,,,,,,MX,2011-03-27,2021-08-13,,,,,,,,['4bf58dd8d48988d151941735'],['Dining and Drinking > Restaurant > Mexican Restaurant > Taco Restaurant'],b'\x00\x00\x00\x00\x01\xc0X\x08\xeb\x97o\xa3s@30\x9b\xcd\xf3]\x8e',"{'xmin': -96.13937936689562, 'ymin': 19.1898773879198, 'xmax': -96.13937936689562, 'ymax': 19.1898773879198}",dining and drinking > restaurant > mexican restaurant > taco restaurant,1
4f7dc175e4b0f3f0287b912b,Tacos y Caldos doña Irma,19.9894286,-102.2867046,,,,,,,,MX,2012-04-05,2021-08-13,,,,,,,,['4bf58dd8d48988d151941735'],['Dining and Drinking > Restaurant > Mexican Restaurant > Taco Restaurant'],"b""\x00\x00\x00\x00\x01\xc0Y\x92Y^@'7@3\xfdK1V\xba!""","{'xmin': -102.2867046, 'ymin': 19.9894286, 'xmax': -102.2867046, 'ymax': 19.9894286}",dining and drinking > restaurant > mexican restaurant > taco restaurant,1
4e040c5f62842f8f47413a90,Las Taqueritas,19.282666201201707,-99.54185212521531,San Diego de los Padres,San Mateo Atenco,State of Mexico,,,,,MX,2011-06-24,2020-11-25,,,,,,,,['4bf58dd8d48988d151941735'],['Dining and Drinking > Restaurant > Mexican Restaurant > Taco Restaurant'],b'\x00\x00\x00\x00\x01\xc0X\xe2\xad\xb4\x89DX@3H\\\xcf\xe9\xd8\x8c',"{'xmin': -99.54185212521531, 'ymin': 19.282666201201707, 'xmax': -99.54185212521531, 'ymax': 19.282666201201707}",dining and drinking > restaurant > mexican restaurant > taco restaurant,1
5411dfe8498e4920bb303f46,Taqueria Chicati,16.184579849243164,-95.19978332519531,,,,,,,,MX,2014-09-11,2021-08-13,,,,,,,,['4bf58dd8d48988d151941735'],['Dining and Drinking > Restaurant > Mexican Restaurant > Taco Restaurant'],b'\x00\x00\x00\x00\x01\xc0W\xcc\xc9@\x00\x00\x00@0/@\xa0\x00\x00\x00',"{'xmin': -95.19978332519531, 'ymin': 16.184579849243164, 'xmax': -95.19978332519531, 'ymax': 16.184579849243164}",dining and drinking > restaurant > mexican restaurant > taco restaurant,1
56738129498e4bac68881897,kiritacos,19.211753,-99.09752,,,,,,,,MX,2015-12-18,2021-08-10,,,,,,,,['4bf58dd8d48988d151941735'],['Dining and Drinking > Restaurant > Mexican Restaurant > Taco Restaurant'],b'\x00\x00\x00\x00\x01\xc0X\xc6=\xc4\x86\xad.@365q\xd1\xd4t',"{'xmin': -99.09752, 'ymin': 19.211753, 'xmax': -99.09752, 'ymax': 19.211753}",dining and drinking > restaurant > mexican restaurant > taco restaurant,1
4fa1e355e4b04db7bd643417,Tacos Guillen,19.329032534628546,-99.33103885723133,,,,,,,,MX,2012-05-03,2021-08-13,,,,,,,,['4bf58dd8d48988d151941735'],['Dining and Drinking > Restaurant > Mexican Restaurant > Taco Restaurant'],b'\x00\x00\x00\x00\x01\xc0X\xd5/\xbd\x9a`\xe2@3T;y\xe7\x8c\xb2',"{'xmin': -99.33103885723133, 'ymin': 19.329032534628546, 'xmax': -99.33103885723133, 'ymax': 19.329032534628546}",dining and drinking > restaurant > mexican restaurant > taco restaurant,1
5bb79008149946002c91e4e2,Carnitas Puro Michoacán,19.277887,-99.594754,,Metepec,Edomex,50245,,,,MX,2018-10-05,2020-11-25,,,,,,,,['4bf58dd8d48988d151941735'],['Dining and Drinking > Restaurant > Mexican Restaurant > Taco Restaurant'],b'\x00\x00\x00\x00\x01\xc0X\xe6\x10s\x14\xca\x92@3G#\x9a8\xfb\xca',"{'xmin': -99.594754, 'ymin': 19.277887, 'xmax': -99.594754, 'ymax': 19.277887}",dining and drinking > restaurant > mexican restaurant > taco restaurant,1
4ec840eeb634b2fd75683880,Tacos Tiger-Tin,18.96415381153815,-99.22837866557572,,Cuernavaca,Morelos,,,,,MX,2011-11-19,2020-11-22,,,,,,,,['4bf58dd8d48988d151941735'],['Dining and Drinking > Restaurant > Mexican Restaurant > Taco Restaurant'],b'\x00\x00\x00\x00\x01\xc0X\xce\x9d\xc1\x8c\xf0\x1e@2\xf6\xd2\xc8\xc0\xde\xbf',"{'xmin': -99.22837866557572, 'ymin': 18.96415381153815, 'xmax': -99.22837866557572, 'ymax': 18.96415381153815}",dining and drinking > restaurant > mexican restaurant > taco restaurant,1
4e0d43fac65ba20da21539c0,Tacos De Don Wily,17.085292096202192,-96.71126431637381,,Oaxaca,Oaxaca,,,,,MX,2011-07-01,2020-11-24,,,,,,,,['4bf58dd8d48988d151941735'],['Dining and Drinking > Restaurant > Mexican Restaurant > Taco Restaurant'],b'\x00\x00\x00\x00\x01\xc0X-\x85Z\xc4h\xca@1\x15\xd5\xb3\xeb\xcb\xb3',"{'xmin': -96.71126431637381, 'ymin': 17.085292096202192, 'xmax': -96.71126431637381, 'ymax': 17.085292096202192}",dining and drinking > restaurant > mexican restaurant > taco restaurant,1
5860143bb6e67d6edd586778,Los Huaraches de Santiago,19.179447,-99.468013,,,,,,,,MX,2016-12-25,2020-11-25,,,,,,,,['4bf58dd8d48988d151941735'],['Dining and Drinking > Restaurant > Mexican Restaurant > Taco Restaurant'],b'\x00\x00\x00\x00\x01\xc0X\xdd\xf3\xec\xccF\x95@3-\xf0=\x14]\x85',"{'xmin': -99.468013, 'ymin': 19.179447, 'xmax': -99.468013, 'ymax': 19.179447}",dining and drinking > restaurant > mexican restaurant > taco restaurant,1
5261d7ca11d26036e0faa6e8,Tacos Miguel,19.196972,-96.156072,,,,,,,,MX,2013-10-19,2021-08-15,,,,,,,,['4bf58dd8d48988d151941735'],['Dining and Drinking > Restaurant > Mexican Restaurant > Taco Restaurant'],b'\x00\x00\x00\x00\x01\xc0X\t\xfd\x15i\xf4\x90@32l\xc1\xca:K',"{'xmin': -96.156072, 'ymin': 19.196972, 'xmax': -96.156072, 'ymax': 19.196972}",dining and drinking > restaurant > mexican restaurant > taco restaurant,1
51801410e4b0dda9c50b189e,Taquitos de Transito,19.2989,-99.627756,Alfredo Del Mazo,,,,,,,MX,2013-02-01,2021-12-17,,,,,,,,['4bf58dd8d48988d151941735'],['Dining and Drinking > Restaurant > Mexican Restaurant > Taco Restaurant'],"b""\x00\x00\x00\x00\x01\xc0X\xe8-'\x80w\x8a@3L\x84\xb5\xdc\xc6?""","{'xmin': -99.627756, 'ymin': 19.2989, 'xmax': -99.627756, 'ymax': 19.2989}",dining and drinking > restaurant > mexican restaurant > taco restaurant,1
8a37081599f1496ae6fba6f3,Las Hojas,19.267113,-99.64624,Calle Heriberto Enriquez 904 18,Toluca de Lerdo,Estado de México,50180,,,,MX,2010-11-04,2023-12-06,,,,,,,,['4bf58dd8d48988d151941735'],['Dining and Drinking > Restaurant > Mexican Restaurant > Taco Restaurant'],b'\x00\x00\x00\x00\x01\xc0X\xe9[\xff\x04W~@3Da\x84\x7fV!',"{'xmin': -99.64624, 'ymin': 19.267113, 'xmax': -99.64624, 'ymax': 19.267113}",dining and drinking > restaurant > mexican restaurant > taco restaurant,1
547e2685498ef72f7f718555,Lemon grill,19.20365745377631,-96.1593812257982,,,,,,,,MX,2014-12-02,2021-08-14,,,,,,,,['4bf58dd8d48988d151941735'],['Dining and Drinking > Restaurant > Mexican Restaurant > Taco Restaurant'],"b'\x00\x00\x00\x00\x01\xc0X\n3MP\x19\x94@34""\xe5\x17\x8eN'","{'xmin': -96.1593812257982, 'ymin': 19.20365745377631, 'xmax': -96.1593812257982, 'ymax': 19.20365745377631}",dining and drinking > restaurant > mexican restaurant > taco restaurant,1
5af72bc2b1538e002cb2717a,tacos del seguro,15.14131,-92.459694,,Huixtla,CHIS,30640,,,,MX,2018-05-12,2020-11-30,,,,,,,,['4bf58dd8d48988d151941735'],['Dining and Drinking > Restaurant > Mexican Restaurant > Taco Restaurant'],b'\x00\x00\x00\x00\x01\xc0W\x1dk\xa0b\n\xb7@.HY\xc8\xc92\x0e',"{'xmin': -92.459694, 'ymin': 15.14131, 'xmax': -92.459694, 'ymax': 15.14131}",dining and drinking > restaurant > mexican restaurant > taco restaurant,1
4e8947e7d22d8d370bff2656,Kairos Tacos,19.34061008073945,-99.04761135578156,Av. Ignacio Manuel Altamirano 65,México,Distrito Federal,09750,,,,MX,2011-10-03,2020-11-30,,,,,,,,['4bf58dd8d48988d151941735'],['Dining and Drinking > Restaurant > Mexican Restaurant > Taco Restaurant'],b'\x00\x00\x00\x00\x01\xc0X\xc3\x0c\x10\x80\x00\x00@3W28\xe5v\xbf',"{'xmin': -99.04761135578156, 'ymin': 19.34061008073945, 'xmax': -99.04761135578156, 'ymax': 19.34061008073945}",dining and drinking > restaurant > mexican restaurant > taco restaurant,1
53112edc498e673523b4cbed,tortas y taqueria el tule,19.30643819344618,-99.13105282504185,,,,,,,,MX,2014-03-01,2021-08-12,,,,,,,,['4bf58dd8d48988d151941735'],['Dining and Drinking > Restaurant > Mexican Restaurant > Taco Restaurant'],b'\x00\x00\x00\x00\x01\xc0X\xc8c+cf\x9a@3Nr\xbb\xc3\x18\xbf',"{'xmin': -99.13105282504185, 'ymin': 19.30643819344618, 'xmax': -99.13105282504185, 'ymax': 19.30643819344618}",dining and drinking > restaurant > mexican restaurant > taco restaurant,1
4f35fc0fe4b09ca12b8f3410,TaqueriaLos jarochitos,18.88136831302635,-99.22130195797186,,Cuernavaca,,,,,,MX,2012-02-11,2020-11-24,,,,,,,,['4bf58dd8d48988d151941735'],['Dining and Drinking > Restaurant > Mexican Restaurant > Taco Restaurant'],b'\x00\x00\x00\x00\x01\xc0X\xce)\xcf\xb0\x01\xea@2\xe1\xa1Z\x90-\xca',"{'xmin': -99.22130195797186, 'ymin': 18.88136831302635, 'xmax': -99.22130195797186, 'ymax': 18.88136831302635}",dining and drinking > restaurant > mexican restaurant > taco restaurant,1
5dddfb87ed2ead0008bc416e,Tacos El Sucesor,19.299665,-99.64171,isidro fabela,Toluca de Lerdo,Estado de México,50090,,,,MX,2019-11-27,2020-11-23,,,,,,,,['4bf58dd8d48988d151941735'],['Dining and Drinking > Restaurant > Mexican Restaurant > Taco Restaurant'],b'\x00\x00\x00\x00\x01\xc0X\xe9\x11\xc6\xd1\xe1\t@3L\xb6\xd8n\xc1\x7f',"{'xmin': -99.64171, 'ymin': 19.299665, 'xmax': -99.64171, 'ymax': 19.299665}",dining and drinking > restaurant > mexican restaurant > taco restaurant,1
58fa0a369e0d54095a099e81,Tacos De Jorge,19.990318,-103.022415,Reforma 2,Centro,Michoacán,59500,,,,MX,2017-04-21,2020-11-22,,,,,,,,['4bf58dd8d48988d151941735'],['Dining and Drinking > Restaurant > Mexican Restaurant > Taco Restaurant'],b'\x00\x00\x00\x00\x01\xc0Y\xc1o?R\xfc&@3\xfd\x85z\xfe\xa3\xdf',"{'xmin': -103.022415, 'ymin': 19.990318, 'xmax': -103.022415, 'ymax': 19.990318}",dining and drinking > restaurant > mexican restaurant > taco restaurant,1
5965137516fa042217eab2bc,Taco Volador,19.260084,-99.646989,,Toluca,Edomex,50180,,,,MX,2017-07-11,2020-11-23,,,,,,,,['4bf58dd8d48988d151941735' '4bf58dd8d48988d1c1941735'],"['Dining and Drinking > Restaurant > Mexican Restaurant > Taco Restaurant'
 'Dining and Drinking > Restaurant > Mexican Restaurant']",b'\x00\x00\x00\x00\x01\xc0X\xe9hD\x8c\xf7\xcb@3B\x94\xddr6~',"{'xmin': -99.646989, 'ymin': 19.260084, 'xmax': -99.646989, 'ymax': 19.260084}","dining and drinking > restaurant > mexican restaurant > taco restaurant, dining and drinking > restaurant > mexican restaurant",1
5b8b3c2104d1ae002ce9f17b,El Patio De Tejas,18.36047,-100.669759,,Ciudad Altamirano,GRO,40660,,,,MX,2018-09-02,2020-11-23,,,,,,,,['4bf58dd8d48988d151941735'],['Dining and Drinking > Restaurant > Mexican Restaurant > Taco Restaurant'],b'\x00\x00\x00\x00\x01\xc0Y*\xddT\xdaL\xe8@2\\G\xc3\r0j',"{'xmin': -100.669759, 'ymin': 18.36047, 'xmax': -100.669759, 'ymax': 18.36047}",dining and drinking > restaurant > mexican restaurant > taco restaurant,1
5b72215b6f0aa2002c088ad8,Pinches Tacos,15.851602,-97.055078,,Brisas de Zicatela,OAX,70934,,,,MX,2018-08-14,2020-11-25,,,,,,,,['4bf58dd8d48988d151941735' '4bf58dd8d48988d1c1941735'],"['Dining and Drinking > Restaurant > Mexican Restaurant > Taco Restaurant'
 'Dining and Drinking > Restaurant > Mexican Restaurant']",b'\x00\x00\x00\x00\x01\xc0XC\x86e\xe0.\xa9@/\xb4\x05-fj\x98',"{'xmin': -97.055078, 'ymin': 15.851602, 'xmax': -97.055078, 'ymax': 15.851602}","dining and drinking > restaurant > mexican restaurant > taco restaurant, dining and drinking > restaurant > mexican restaurant",1
4f28a64be4b027f4af2937d2,Antojitos el columpio,17.069640382198713,-96.70730448550756,,,,,,,,MX,2012-02-01,2021-08-11,,,,,,,,['4bf58dd8d48988d151941735'],['Dining and Drinking > Restaurant > Mexican Restaurant > Taco Restaurant'],b'\x00\x00\x00\x00\x01\xc0X-Dz\x08dl@1\x11\xd3\xf3\xbc\x06@',"{'xmin': -96.70730448550756, 'ymin': 17.069640382198713, 'xmax': -96.70730448550756, 'ymax': 17.069640382198713}",dining and drinking > restaurant > mexican restaurant > taco restaurant,1
59bf40d2ee628b65b36a61b4,Taqueria Kiche,17.660032,-99.677897,,Chichihualco,GRO,39150,,,,MX,2017-09-18,2020-11-23,,,,,,,,['4bf58dd8d48988d151941735'],['Dining and Drinking > Restaurant > Mexican Restaurant > Taco Restaurant'],b'\x00\x00\x00\x00\x01\xc0X\xebb\xaa\x19C\x9e@1\xa8\xf7\xdbnP@',"{'xmin': -99.677897, 'ymin': 17.660032, 'xmax': -99.677897, 'ymax': 17.660032}",dining and drinking > restaurant > mexican restaurant > taco restaurant,1
52bba3d911d2231c76e3906b,Tacos Don Rogelio,20.506559,-103.238843,,,,,,,,MX,2013-12-26,2021-08-18,,,,,,,,['4bf58dd8d48988d151941735'],['Dining and Drinking > Restaurant > Mexican Restaurant > Taco Restaurant'],b'\x00\x00\x00\x00\x01\xc0Y\xcfI4&x:@4\x81\xad\xd9\xc2~\x95',"{'xmin': -103.238843, 'ymin': 20.506559, 'xmax': -103.238843, 'ymax': 20.506559}",dining and drinking > restaurant > mexican restaurant > taco restaurant,1
5044ef2ee4b0ba0a53d82512,Tacos Don Bigos,19.320055021245167,-99.10300390021965,,,,,,,,MX,2012-09-03,2021-08-13,,,,,,,,['4bf58dd8d48988d151941735'],['Dining and Drinking > Restaurant > Mexican Restaurant > Taco Restaurant'],b'\x00\x00\x00\x00\x01\xc0X\xc6\x97\x9d\xab\xb3r@3Q\xef 9+(',"{'xmin': -99.10300390021965, 'ymin': 19.320055021245167, 'xmax': -99.10300390021965, 'ymax': 19.320055021245167}",dining and drinking > restaurant > mexican restaurant > taco restaurant,1
4e0f6359fa76d62f44525ad3,Tacos La Frontera,18.780323806597085,-99.21047168635639,Xochitepec,Chiconcuac,Morelos,,,,,MX,2011-07-02,2020-11-24,,,,,,,,['4bf58dd8d48988d151941735'],['Dining and Drinking > Restaurant > Mexican Restaurant > Taco Restaurant'],b'\x00\x00\x00\x00\x01\xc0X\xcdx^<h\x9e@2\xc7\xc3M\r\x9f\xed',"{'xmin': -99.21047168635639, 'ymin': 18.780323806597085, 'xmax': -99.21047168635639, 'ymax': 18.780323806597085}",dining and drinking > restaurant > mexican restaurant > taco restaurant,1
5b3ff62fdb3aef0024770644,Taqueria Las Salsas,17.810638,-97.78723,5 de Febrero,Huajuapan de León,Oaxaca,69000,,,,MX,2018-07-06,2020-11-22,,,,,,,,['4bf58dd8d48988d151941735'],['Dining and Drinking > Restaurant > Mexican Restaurant > Taco Restaurant'],b'\x00\x00\x00\x00\x01\xc0Xra\xf9\xf0\x1b\x86@1\xcf\x85\xf8\xd2\xe5\x15',"{'xmin': -97.78723, 'ymin': 17.810638, 'xmax': -97.78723, 'ymax': 17.810638}",dining and drinking > restaurant > mexican restaurant > taco restaurant,1
54ea96e3498e4071f78cce50,Taqueria El Jarocho,19.150973449330152,-96.1200260483037,,,,,,,,MX,2015-02-23,2020-11-23,,,,,,,,['4bf58dd8d48988d151941735'],['Dining and Drinking > Restaurant > Mexican Restaurant > Taco Restaurant'],b'\x00\x00\x00\x00\x01\xc0X\x07\xae\x81\xbc\x08{@3&\xa62+o\xf4',"{'xmin': -96.1200260483037, 'ymin': 19.150973449330152, 'xmax': -96.1200260483037, 'ymax': 19.150973449330152}",dining and drinking > restaurant > mexican restaurant > taco restaurant,1
4fb9a85de4b0cb273ed405ba,"taquería ""el tambor""",19.69867168211458,-101.18908202964116,Velázquez De león,Morelia,Michoacán,58000,,,,MX,2012-05-21,2020-11-25,,,,,,,,['4bf58dd8d48988d151941735'],['Dining and Drinking > Restaurant > Mexican Restaurant > Taco Restaurant'],b'\x00\x00\x00\x00\x01\xc0YL\x19\xeb\x83d|@3\xb2\xdc%\xb9R\xcc',"{'xmin': -101.18908202964116, 'ymin': 19.69867168211458, 'xmax': -101.18908202964116, 'ymax': 19.69867168211458}",dining and drinking > restaurant > mexican restaurant > taco restaurant,1
50fa07a8e4b01174231e24f1,Tacos Tío Chava,20.543698481789708,-102.79379908469406,Ogazon,Tototlan,JAL,47730,,,,MX,2013-01-19,2020-11-25,,,,,,,,['4bf58dd8d48988d151941735'],['Dining and Drinking > Restaurant > Mexican Restaurant > Taco Restaurant'],b'\x00\x00\x00\x00\x01\xc0Y\xb2\xcd\x9a\xad\x16\xc4@4\x8b/\xd2\xde+\xf1',"{'xmin': -102.79379908469406, 'ymin': 20.543698481789708, 'xmax': -102.79379908469406, 'ymax': 20.543698481789708}",dining and drinking > restaurant > mexican restaurant > taco restaurant,1
5164d16ae4b0122c9f6fb85c,Los Arabes 5 de Mayo,19.270035,-99.628958,,,,,,,,MX,2013-04-10,2020-11-30,2016-01-24,,,,,,,['4bf58dd8d48988d151941735'],['Dining and Drinking > Restaurant > Mexican Restaurant > Taco Restaurant'],b'\x00\x00\x00\x00\x01\xc0X\xe8@\xd9\x0e#\xaf@3E!\x03\x85\xc6~',"{'xmin': -99.628958, 'ymin': 19.270035, 'xmax': -99.628958, 'ymax': 19.270035}",dining and drinking > restaurant > mexican restaurant > taco restaurant,1
51d91369498e145825ad5fd2,Tacos Take,19.70440249956183,-103.4602339542254,,,,,,,,MX,2013-07-07,2021-08-14,,,,,,,,['4bf58dd8d48988d151941735'],['Dining and Drinking > Restaurant > Mexican Restaurant > Taco Restaurant'],b'\x00\x00\x00\x00\x01\xc0Y\xddty\x1dz\n@3\xb4S\xb8\xe2\xd6\xb6',"{'xmin': -103.4602339542254, 'ymin': 19.70440249956183, 'xmax': -103.4602339542254, 'ymax': 19.70440249956183}",dining and drinking > restaurant > mexican restaurant > taco restaurant,1
4ff1fc2ce4b0426f03543ba5,Come Pibil,19.306911,-99.163818,,,,,,,,MX,2012-07-02,2021-08-16,,,,,,,,['4bf58dd8d48988d151941735'],['Dining and Drinking > Restaurant > Mexican Restaurant > Taco Restaurant'],b'\x00\x00\x00\x00\x01\xc0X\xca{\xfe~\x1f\xc1@3N\x91\xb8#\xc8\\',"{'xmin': -99.163818, 'ymin': 19.306911, 'xmax': -99.163818, 'ymax': 19.306911}",dining and drinking > restaurant > mexican restaurant > taco restaurant,1
4e07c44352b165b7d7b0b64f,Tacos La Princesa,18.934589979489086,-99.22909044357134,Plaza Cuernavaca,Cuernavaca,Morelos,,,,,MX,2011-06-26,2020-11-23,,,,,,,,['4bf58dd8d48988d151941735' '4bf58dd8d48988d1c1941735'],"['Dining and Drinking > Restaurant > Mexican Restaurant > Taco Restaurant'
 'Dining and Drinking > Restaurant > Mexican Restaurant']",b'\x00\x00\x00\x00\x01\xc0X\xce\xa9j\xf6\xbd\xc3@2\xefAI\xf5\x13/',"{'xmin': -99.22909044357134, 'ymin': 18.934589979489086, 'xmax': -99.22909044357134, 'ymax': 18.934589979489086}","dining and drinking > restaurant > mexican restaurant > taco restaurant, dining and drinking > restaurant > mexican restaurant",1
