fsq_place_id,name,latitude,longitude,address,locality,region,postcode,admin_region,post_town,po_box,country,date_created,date_refreshed,date_closed,tel,website,email,facebook_id,instagram,twitter,fsq_category_ids,fsq_category_labels,geom,bbox,labels_str,taco_restaurant
53110a05498e621ba54f496f,Tacos de Hielera,32.638042266210924,-115.44478386640549,Calz. Independencia 1499,Mexicali,BC,,,,,MX,2014-02-28,2020-11-25,,,,,,,,['4bf58dd8d48988d151941735'],['Dining and Drinking > Restaurant > Mexican Restaurant > Taco Restaurant'],b'\x00\x00\x00\x00\x01\xc0\\\xdcwV\xc0\x00\x00@@Q\xab^uk\xbb',"{'xmin': -115.44478386640549, 'ymin': 32.638042266210924, 'xmax': -115.44478386640549, 'ymax': 32.638042266210924}",dining and drinking > restaurant > mexican restaurant > taco restaurant,1
58962b0ce6160c34b7a38ccc,Culichi Steak Taco,32.637722,-115.4187,,,,,,,,MX,2017-02-04,2021-08-17,,,,,,,,['4bf58dd8d48988d151941735'],['Dining and Drinking > Restaurant > Mexican Restaurant > Taco Restaurant'],b'\x00\x00\x00\x00\x01\xc0\\\xda\xcb\xfb\x15\xb5t@@Q\xa0\xdf\xde\xf8H',"{'xmin': -115.4187, 'ymin': 32.637722, 'xmax': -115.4187, 'ymax': 32.637722}",dining and drinking > restaurant > mexican restaurant > taco restaurant,1
4d8d1546ca75b60c36bee0a8,Tacos De Pescado Alicia,32.540326,-117.020017,,,,,,,,MX,2011-03-25,2021-08-16,,,,,,,,['4bf58dd8d48988d151941735'],['Dining and Drinking > Restaurant > Mexican Restaurant > Taco Restaurant'],b'\x00\x00\x00\x00\x01\xc0]AG\xf5b\x17L@@E)g\x01\x96\xd9',"{'xmin': -117.020017, 'ymin': 32.540326, 'xmax': -117.020017, 'ymax': 32.540326}",dining and drinking > restaurant > mexican restaurant > taco restaurant,1
4f62c894e4b0bf1010577bc4,Asadero d' kamilo,31.86999733772911,-116.61193430348261,,,,,,,,MX,2012-03-16,2021-08-15,,,,,,,,['4bf58dd8d48988d151941735'],['Dining and Drinking > Restaurant > Mexican Restaurant > Taco Restaurant'],"b""\x00\x00\x00\x00\x01\xc0]')\xee\x7f0\x89@?\xde\xb8%A'R""","{'xmin': -116.61193430348261, 'ymin': 31.86999733772911, 'xmax': -116.61193430348261, 'ymax': 31.86999733772911}",dining and drinking > restaurant > mexican restaurant > taco restaurant,1
4e9154bd0aafb4070c48f053,Peritaco The Return,32.65262,-115.439293,Av Matamoros,Mexicali,BC,,,,,MX,2011-10-09,2020-11-25,2013-09-18,,,,,,,['4bf58dd8d48988d151941735'],['Dining and Drinking > Restaurant > Mexican Restaurant > Taco Restaurant'],"b""\x00\x00\x00\x00\x01\xc0\\\xdc\x1d`c\x17'@@S\x89\rZ[\x96""","{'xmin': -115.439293, 'ymin': 32.65262, 'xmax': -115.439293, 'ymax': 32.65262}",dining and drinking > restaurant > mexican restaurant > taco restaurant,1
ed7561da4b2b4c7a94096a42,La Huacana Carnitas,32.359561,-117.049671,Guanajuato 376,Rosarito,Baja California,22710,,,,MX,2013-07-02,2023-12-06,,661 612 7371,,,,,,['4bf58dd8d48988d153941735' '4bf58dd8d48988d151941735'],"['Dining and Drinking > Restaurant > Mexican Restaurant > Burrito Restaurant'
 'Dining and Drinking > Restaurant > Mexican Restaurant > Taco Restaurant']",b'\x00\x00\x00\x00\x01\xc0]C-\xcfF#\xd1@@.\x06\x18G\xf5b',"{'xmin': -117.049671, 'ymin': 32.359561, 'xmax': -117.049671, 'ymax': 32.359561}","dining and drinking > restaurant > mexican restaurant > burrito restaurant, dining and drinking > restaurant > mexican restaurant > taco restaurant",1
4f69f3d9e4b06a72ff0f06fe,Tacos De Guisado Doña Mary,32.610689220139555,-115.42609761681098,,,,,,,,MX,2012-03-21,2021-08-16,,,,,,,,['4bf58dd8d48988d151941735'],['Dining and Drinking > Restaurant > Mexican Restaurant > Taco Restaurant'],b'\x00\x00\x00\x00\x01\xc0\\\xdbE.\xf0F\xd4@@N+\x10zBs',"{'xmin': -115.42609761681098, 'ymin': 32.610689220139555, 'xmax': -115.42609761681098, 'ymax': 32.610689220139555}",dining and drinking > restaurant > mexican restaurant > taco restaurant,1
4f28b4b1e4b0eb70d49d25c7,Sonora Steak Taco,32.6122128670448,-115.48433303833009,carrt. hector teran teran,Mexicali,BC,,,,,MX,2012-02-01,2024-03-14,2024-03-14,,,,,,,['4bf58dd8d48988d151941735'],['Dining and Drinking > Restaurant > Mexican Restaurant > Taco Restaurant'],b'\x00\x00\x00\x00\x01\xc0\\\xde\xffP\x00\x00\x01@@N\\\xfd\xc1\x12\xec',"{'xmin': -115.48433303833009, 'ymin': 32.6122128670448, 'xmax': -115.48433303833009, 'ymax': 32.6122128670448}",dining and drinking > restaurant > mexican restaurant > taco restaurant,1
6564fe9a30eb8d53afb1c0b6,Nhuni-Hii,32.52508,-117.025965,,Tijuana,B.C.,22000,,,,MX,2023-11-27,2023-11-27,,,,,,,,['56aa371be4b08b9a8d57350b' '4bf58dd8d48988d151941735'],"['Dining and Drinking > Food Stand'
 'Dining and Drinking > Restaurant > Mexican Restaurant > Taco Restaurant']",b'\x00\x00\x00\x00\x01\xc0]A\xa9i\x1au\xcd@@C5\xd2I\xe4P',"{'xmin': -117.025965, 'ymin': 32.52508, 'xmax': -117.025965, 'ymax': 32.52508}","dining and drinking > food stand, dining and drinking > restaurant > mexican restaurant > taco restaurant",1
4dc99045b0fb5d09603a8b88,Tacos De Pescado Sam,32.619875681458545,-115.43390165130974,,Mexicali,BC,,,,,MX,2011-05-10,2020-11-22,,,,,,,,['4bf58dd8d48988d151941735'],['Dining and Drinking > Restaurant > Mexican Restaurant > Taco Restaurant'],b'\x00\x00\x00\x00\x01\xc0\\\xdb\xc5\x0bn\x83\x91@@OX\x16\x19\xb9\x9f',"{'xmin': -115.43390165130974, 'ymin': 32.619875681458545, 'xmax': -115.43390165130974, 'ymax': 32.619875681458545}",dining and drinking > restaurant > mexican restaurant > taco restaurant,1
4fd2c69fe4b0d1423fcbfd97,El Buen Taquito,32.468997767681266,-114.78079998620173,Cjon. Venustiano Carranza,San Luis Rio Colorado,Sonora,,,,,MX,2012-06-09,2020-11-25,,,,,,,,['4bf58dd8d48988d151941735'],['Dining and Drinking > Restaurant > Mexican Restaurant > Taco Restaurant'],b'\x00\x00\x00\x00\x01\xc0\\\xb1\xf8\xa0\x81]\t@@<\x08\x1em\x0bE',"{'xmin': -114.78079998620173, 'ymin': 32.468997767681266, 'xmax': -114.78079998620173, 'ymax': 32.468997767681266}",dining and drinking > restaurant > mexican restaurant > taco restaurant,1
4e9c8f66d22d8be589e57a83,Tortas La Brisa,31.782897883184095,-116.58672202856111,,,,,,,,MX,2011-10-17,2021-08-13,,,,,,,,['4bf58dd8d48988d151941735'],['Dining and Drinking > Restaurant > Mexican Restaurant > Taco Restaurant'],b'\x00\x00\x00\x00\x01\xc0]%\x8c\xda\x8d \xd1@?\xc8k\xfe\xe4b!',"{'xmin': -116.58672202856111, 'ymin': 31.782897883184095, 'xmax': -116.58672202856111, 'ymax': 31.782897883184095}",dining and drinking > restaurant > mexican restaurant > taco restaurant,1
5b4e355267e5f2002c493834,El Vecino,32.419983,-117.02915,Camino Martín 2,Tijuana,Baja California,22650,,,,MX,2018-07-17,2020-11-30,,,,,,,,['4bf58dd8d48988d151941735'],['Dining and Drinking > Restaurant > Mexican Restaurant > Taco Restaurant'],b'\x00\x00\x00\x00\x01\xc0]A\xdd\x97\xf6+k@@5\xc2\x00\xc0\xf0 ',"{'xmin': -117.02915, 'ymin': 32.419983, 'xmax': -117.02915, 'ymax': 32.419983}",dining and drinking > restaurant > mexican restaurant > taco restaurant,1
530a357a498eb0cfd56b83dd,Birria La Carreta,31.8761713290912,-116.62003642119939,,,,,,,,MX,2014-02-23,2021-08-10,,,,,,,,['4bf58dd8d48988d151941735'],['Dining and Drinking > Restaurant > Mexican Restaurant > Taco Restaurant'],"b""\x00\x00\x00\x00\x01\xc0]'\xae\xad=\xd8V@?\xe0L\xc3\xa4#\xba""","{'xmin': -116.62003642119939, 'ymin': 31.8761713290912, 'xmax': -116.62003642119939, 'ymax': 31.8761713290912}",dining and drinking > restaurant > mexican restaurant > taco restaurant,1
5766333b498e86f4ac29f819,La Leña,32.464493,-114.75493,Av 16 De Septiembre Y 25,San Luis Río Colorado,Sonora,83400,,,,MX,2016-06-19,2020-11-23,,,,,,,,['4bf58dd8d48988d151941735'],['Dining and Drinking > Restaurant > Mexican Restaurant > Taco Restaurant'],b'\x00\x00\x00\x00\x01\xc0\\\xb0P\xc5\xeb1<@@;t\x81\xb2\x1cG',"{'xmin': -114.75493, 'ymin': 32.464493, 'xmax': -114.75493, 'ymax': 32.464493}",dining and drinking > restaurant > mexican restaurant > taco restaurant,1
4d3212ab2e56236ab12719b4,El Panzón,32.661242,-115.433131,Río Mocorito,Mexicali,BC,21290,,,,MX,2011-01-15,2020-11-24,,,,,,,,['4bf58dd8d48988d151941735'],['Dining and Drinking > Restaurant > Mexican Restaurant > Taco Restaurant'],b'\x00\x00\x00\x00\x01\xc0\\\xdb\xb8k\x15\xf8\x90@@T\xa3\x93\xee^\xee',"{'xmin': -115.433131, 'ymin': 32.661242, 'xmax': -115.433131, 'ymax': 32.661242}",dining and drinking > restaurant > mexican restaurant > taco restaurant,1
4f7dbebde4b02c4143ea56ac,Tacupeto,32.47740167814982,-114.77960007891681,,,,,,,,MX,2012-04-05,2021-08-13,,,,,,,,['4bf58dd8d48988d151941735'],['Dining and Drinking > Restaurant > Mexican Restaurant > Taco Restaurant'],b'\x00\x00\x00\x00\x01\xc0\\\xb1\xe4\xf7\xba\xba\x08@@=\x1b\x7f\x89Z\xc0',"{'xmin': -114.77960007891681, 'ymin': 32.47740167814982, 'xmax': -114.77960007891681, 'ymax': 32.47740167814982}",dining and drinking > restaurant > mexican restaurant > taco restaurant,1
58912067727ba3416f2cbca3,Los Tacoaches,32.647967,-115.481744,Calle E,Mexicali,BC,21000,,,,MX,2017-01-31,2020-11-30,,,,,,,,['4bf58dd8d48988d151941735'],['Dining and Drinking > Restaurant > Mexican Restaurant > Taco Restaurant'],b'\x00\x00\x00\x00\x01\xc0\\\xde\xd4\xe4\xc9B\xd5@@R\xf0\x95(\xf1\x91',"{'xmin': -115.481744, 'ymin': 32.647967, 'xmax': -115.481744, 'ymax': 32.647967}",dining and drinking > restaurant > mexican restaurant > taco restaurant,1
51fdd114498e8d7708c265a0,100% Culiacan,32.60899913488882,-115.39776650015494,San Pedro Mezquital,Mexicali,,,,,,MX,2013-08-04,2020-11-24,,,,,,,,['4bf58dd8d48988d151941735'],['Dining and Drinking > Restaurant > Mexican Restaurant > Taco Restaurant'],b'\x00\x00\x00\x00\x01\xc0\\\xd9u\x01\x9fg\x08@@M\xf3\xaf\x03\xd1\xe4',"{'xmin': -115.39776650015494, 'ymin': 32.60899913488882, 'xmax': -115.39776650015494, 'ymax': 32.60899913488882}",dining and drinking > restaurant > mexican restaurant > taco restaurant,1
4cb9e9f3dd41a35d9be1e4a0,La Escondida,32.615201549999995,-115.40530412857143,,Mexicali,Baja California,,,,,MX,2010-10-16,2023-12-20,,686 563 7187,,,,,,['4bf58dd8d48988d151941735'],['Dining and Drinking > Restaurant > Mexican Restaurant > Taco Restaurant'],b'\x00\x00\x00\x00\x01\xc0\\\xd9\xf0\x80\xbaIz@@N\xbe\xec\xa4\xd9h',"{'xmin': -115.40530412857143, 'ymin': 32.615201549999995, 'xmax': -115.40530412857143, 'ymax': 32.615201549999995}",dining and drinking > restaurant > mexican restaurant > taco restaurant,1
4ece7aabe3007feb7b4100bb,Tacos Luis,20.514747,-100.7806,,Celaya,Guanajuato,,,,,MX,2011-11-24,2020-11-22,,,,,,,,['4bf58dd8d48988d151941735'],['Dining and Drinking > Restaurant > Mexican Restaurant > Taco Restaurant'],b'\x00\x00\x00\x00\x01\xc0Y1\xf5Y\xb3\xd0}@4\x83\xc6u\x9a\xb6\xd0',"{'xmin': -100.7806, 'ymin': 20.514747, 'xmax': -100.7806, 'ymax': 20.514747}",dining and drinking > restaurant > mexican restaurant > taco restaurant,1
4f696719e4b08bde16e6a7b2,Taqueria Brayro,20.642915725708008,-105.22042083740234,,,,,,,,MX,2012-03-21,2021-08-16,,,,,,,,['4bf58dd8d48988d151941735'],['Dining and Drinking > Restaurant > Mexican Restaurant > Taco Restaurant'],b'\x00\x00\x00\x00\x01\xc0ZN\x1b`\x00\x00\x00@4\xa4\x96 \x00\x00\x00',"{'xmin': -105.22042083740234, 'ymin': 20.642915725708008, 'xmax': -105.22042083740234, 'ymax': 20.642915725708008}",dining and drinking > restaurant > mexican restaurant > taco restaurant,1
514b18c4e4b00662a49748ca,"Quesadillas ""Doña Sarro"" (ibero)",21.127644,-101.628241,,,,,,,,MX,2013-03-21,2021-08-14,,,,,,,,['4bf58dd8d48988d151941735'],['Dining and Drinking > Restaurant > Mexican Restaurant > Taco Restaurant'],b'\x00\x00\x00\x00\x01\xc0Yh5\x19\xbd@h@5 \xadF\xf5\x87\xd7',"{'xmin': -101.628241, 'ymin': 21.127644, 'xmax': -101.628241, 'ymax': 21.127644}",dining and drinking > restaurant > mexican restaurant > taco restaurant,1
5814c97a38fa462c357f2e60,Tío SaM (tacos de barbacoa),19.281021,-103.771996,,,,,,,,MX,2016-10-29,2020-11-23,,,,,,,,['4bf58dd8d48988d151941735'],['Dining and Drinking > Restaurant > Mexican Restaurant > Taco Restaurant'],b'\x00\x00\x00\x00\x01\xc0Y\xf1ha\xe9)$@3G\xf0\xfe\x04}=',"{'xmin': -103.771996, 'ymin': 19.281021, 'xmax': -103.771996, 'ymax': 19.281021}",dining and drinking > restaurant > mexican restaurant > taco restaurant,1
5845af1e1b36d42af47398c6,El Tejaban,19.670831,-101.17231,Avenida Juan Pablo II #1630-8 en Altozano,Morelia,Michoacán,58090,,,,MX,2016-12-05,2020-11-24,,,,,,,,['4bf58dd8d48988d151941735'],['Dining and Drinking > Restaurant > Mexican Restaurant > Taco Restaurant'],b'\x00\x00\x00\x00\x01\xc0YK\x07 \x85\xb1\x85@3\xab\xbb\x94\x96$\x9a',"{'xmin': -101.17231, 'ymin': 19.670831, 'xmax': -101.17231, 'ymax': 19.670831}",dining and drinking > restaurant > mexican restaurant > taco restaurant,1
4ce00b9f3644a09300ae559f,Carnitas Santa Anita,21.897539268429064,-102.27638811574951,Nazario Ortiz Garza 219,Aguascalientes,AGS,,,,,MX,2010-11-14,2020-11-24,,,,,,,,['4bf58dd8d48988d151941735'],['Dining and Drinking > Restaurant > Mexican Restaurant > Taco Restaurant'],"b'\x00\x00\x00\x00\x01\xc0Y\x91\xb0W\xc7\x89l@5\xe5\xc5"",\xc7R'","{'xmin': -102.27638811574951, 'ymin': 21.897539268429064, 'xmax': -102.27638811574951, 'ymax': 21.897539268429064}",dining and drinking > restaurant > mexican restaurant > taco restaurant,1
4fa7fe79e4b0548308b72e3c,"Tacos ""Grillos""",20.521426351357427,-100.81516365577623,Miguel Hidalgo #110,Celaya,Guanajuato,38000,,,,MX,2012-05-07,2020-11-25,,,,,,,,['4bf58dd8d48988d151941735'],['Dining and Drinking > Restaurant > Mexican Restaurant > Taco Restaurant'],b'\x00\x00\x00\x00\x01\xc0Y4+\xa4.\x9c\x97@4\x85|2\x86ZN',"{'xmin': -100.81516365577623, 'ymin': 20.521426351357427, 'xmax': -100.81516365577623, 'ymax': 20.521426351357427}",dining and drinking > restaurant > mexican restaurant > taco restaurant,1
5b5cb68b5455b2002c6f2f06,Baja Grill,20.679446,-101.381333,Calada Quinta Las Villas 447,Irapuato,GTO,36643,,,,MX,2018-07-28,2020-11-21,,,,,,,,['4bf58dd8d48988d1df931735' '4bf58dd8d48988d151941735'],"['Dining and Drinking > Restaurant > BBQ Joint'
 'Dining and Drinking > Restaurant > Mexican Restaurant > Taco Restaurant']","b'\x00\x00\x00\x00\x01\xc0YXg\xc2\x86\xf8\xad@4\xad\xf0,Me\xe4'","{'xmin': -101.381333, 'ymin': 20.679446, 'xmax': -101.381333, 'ymax': 20.679446}","dining and drinking > restaurant > bbq joint, dining and drinking > restaurant > mexican restaurant > taco restaurant",1
516f641be4b037c4319a7aaf,los cuña2,20.351409155257084,-102.0419931910946,,,,,,,,MX,2013-04-18,2021-08-10,,,,,,,,['4bf58dd8d48988d151941735'],['Dining and Drinking > Restaurant > Mexican Restaurant > Taco Restaurant'],b'\x00\x00\x00\x00\x01\xc0Y\x82\xb0\x045\x99\xfc@4Y\xf5\xf3MX\x1b',"{'xmin': -102.0419931910946, 'ymin': 20.351409155257084, 'xmax': -102.0419931910946, 'ymax': 20.351409155257084}",dining and drinking > restaurant > mexican restaurant > taco restaurant,1
5a5cfb77db1d81585e65fb41,Tacos De Canasta La Mezquita,19.691277,-101.201446,"José Pilar Ruíz, 275, Felícitas Del Río",Morelia,MICH,58040,,,,MX,2018-01-15,2020-11-26,,443 135 7929,,,,,,['4bf58dd8d48988d151941735'],['Dining and Drinking > Restaurant > Mexican Restaurant > Taco Restaurant'],b'\x00\x00\x00\x00\x01\xc0YL\xe4}\xc3z>@3\xb0\xf7\x87\x8bz\x1c',"{'xmin': -101.201446, 'ymin': 19.691277, 'xmax': -101.201446, 'ymax': 19.691277}",dining and drinking > restaurant > mexican restaurant > taco restaurant,1
5b2528f0d0a149002c3e4a12,Birria El Primo Hermano,20.584711,-103.440524,,Tlajomulco de Zúñiga,JAL,45647,,,,MX,2018-06-16,2020-11-26,,,,,,,,['56aa371be4b08b9a8d57350b' '4bf58dd8d48988d151941735'],"['Dining and Drinking > Food Stand'
 'Dining and Drinking > Restaurant > Mexican Restaurant > Taco Restaurant']",b'\x00\x00\x00\x00\x01\xc0Y\xdc1\x8b\x93F\x99@4\x95\xaf\x9e\xbe\x9c\x88',"{'xmin': -103.440524, 'ymin': 20.584711, 'xmax': -103.440524, 'ymax': 20.584711}","dining and drinking > food stand, dining and drinking > restaurant > mexican restaurant > taco restaurant",1
579ce6e1498e1748919ce3da,TACOS DE BARBACOA,20.683727,-103.34156,Juan Alvarez 100,Guadalajara,Jalisco,44280,,,,MX,2016-07-30,2021-08-13,,,,,,,,['4bf58dd8d48988d151941735'],['Dining and Drinking > Restaurant > Mexican Restaurant > Taco Restaurant'],b'\x00\x00\x00\x00\x01\xc0Y\xd5\xdc\x1eyg\xcb@4\xaf\x08\xbb\x90dg',"{'xmin': -103.34156, 'ymin': 20.683727, 'xmax': -103.34156, 'ymax': 20.683727}",dining and drinking > restaurant > mexican restaurant > taco restaurant,1
4ea2e73229c2abc8defae227,Tacos de Carnitas,20.64625300336888,-103.29732098460053,,,,,,,,MX,2011-10-22,2021-08-14,,,,,,,,['4bf58dd8d48988d151941735'],['Dining and Drinking > Restaurant > Mexican Restaurant > Taco Restaurant'],b'\x00\x00\x00\x00\x01\xc0Y\xd3\x07N\x98Q\x86@4\xa5p\xd6:i?',"{'xmin': -103.29732098460053, 'ymin': 20.64625300336888, 'xmax': -103.29732098460053, 'ymax': 20.64625300336888}",dining and drinking > restaurant > mexican restaurant > taco restaurant,1
57bfb041498e82c16b8acdbd,"Tacos ""La Loba""",21.781644,-103.303875,,,,,,,,MX,2016-08-26,2021-08-15,,,,,,,,['4bf58dd8d48988d151941735'],['Dining and Drinking > Restaurant > Mexican Restaurant > Taco Restaurant'],b'\x00\x00\x00\x00\x01\xc0Y\xd3r\xb0 \xc4\x9c@5\xc8\x19\xd29\x1dX',"{'xmin': -103.303875, 'ymin': 21.781644, 'xmax': -103.303875, 'ymax': 21.781644}",dining and drinking > restaurant > mexican restaurant > taco restaurant,1
4ea9734429c2fa4821c8163c,Tacos el Richard,21.94209,-102.30165,,,,,,,,MX,2011-10-27,2020-11-22,,,,,,,,['4bf58dd8d48988d151941735'],['Dining and Drinking > Restaurant > Mexican Restaurant > Taco Restaurant'],"b'\x00\x00\x00\x00\x01\xc0Y\x93N;\xcd5\xa8@5\xf1,\xcfk\xe3~'","{'xmin': -102.30165, 'ymin': 21.94209, 'xmax': -102.30165, 'ymax': 21.94209}",dining and drinking > restaurant > mexican restaurant > taco restaurant,1
4e67cd14227151797055e5b9,Tacos Barbacoa el Torito,20.66520435844658,-103.36236137223311,Argentina,Guadalajara,Jal,44190,,,,MX,2011-09-07,2021-08-11,,,,,,,,['4bf58dd8d48988d151941735' '4bf58dd8d48988d1cb941735'],"['Dining and Drinking > Restaurant > Mexican Restaurant > Taco Restaurant'
 'Dining and Drinking > Food Truck']",b'\x00\x00\x00\x00\x01\xc0Y\xd70\xed\xc0\xc4\xcb@4\xaaJ\xd54\xafJ',"{'xmin': -103.36236137223311, 'ymin': 20.66520435844658, 'xmax': -103.36236137223311, 'ymax': 20.66520435844658}","dining and drinking > restaurant > mexican restaurant > taco restaurant, dining and drinking > food truck",1
523f132611d218da60e024c7,Gorditas Doña Julia,21.892203340256554,-102.29871029526879,Río San Pedro,Aguascalientes,Aguascalientes,20050,,,,MX,2013-09-22,2020-11-30,,,,,,,,['4bf58dd8d48988d151941735'],['Dining and Drinking > Restaurant > Mexican Restaurant > Taco Restaurant'],"b""\x00\x00\x00\x00\x01\xc0Y\x93\x1e\x11\xc9J\x1c@5\xe4gp'\xc8\xab""","{'xmin': -102.29871029526879, 'ymin': 21.892203340256554, 'xmax': -102.29871029526879, 'ymax': 21.892203340256554}",dining and drinking > restaurant > mexican restaurant > taco restaurant,1
0d008f1bbd944bfb81ab6282,Papas West,19.245219,-103.733455,Constitucion 555,Colima,Colima,28010,,,,MX,2010-11-04,2023-12-06,,312 312 9790,,,,,,['4bf58dd8d48988d16e941735' '4bf58dd8d48988d151941735'],"['Dining and Drinking > Restaurant > Fast Food Restaurant'
 'Dining and Drinking > Restaurant > Mexican Restaurant > Taco Restaurant']",b'\x00\x00\x00\x00\x01\xc0Y\xee\xf0\xed=\x85\x9d@3>\xc6\xac![\x9a',"{'xmin': -103.733455, 'ymin': 19.245219, 'xmax': -103.733455, 'ymax': 19.245219}","dining and drinking > restaurant > fast food restaurant, dining and drinking > restaurant > mexican restaurant > taco restaurant",1
55fef95a498e3e59bcfb1736,Gorditas y Quesadillas Del Camino Real,20.57998884751572,-101.21981395541489,,,,,,,,MX,2015-09-20,2021-08-17,,,,,,,,['4bf58dd8d48988d151941735'],['Dining and Drinking > Restaurant > Mexican Restaurant > Taco Restaurant'],"b'\x00\x00\x00\x00\x01\xc0YN\x11n\x8dm\x87@4\x94z&,\x1f\xf0'","{'xmin': -101.21981395541489, 'ymin': 20.57998884751572, 'xmax': -101.21981395541489, 'ymax': 20.57998884751572}",dining and drinking > restaurant > mexican restaurant > taco restaurant,1
5285aa6d11d2eb1a3defdc58,Tacos Paisa,20.70594650901315,-103.35179957042469,,,,,,,,MX,2013-11-15,2021-08-11,,,,,,,,['4bf58dd8d48988d151941735'],['Dining and Drinking > Restaurant > Mexican Restaurant > Taco Restaurant'],b'\x00\x00\x00\x00\x01\xc0Y\xd6\x83\xe2Xn#@4\xb4\xb8\xe9\x10\xef\xd5',"{'xmin': -103.35179957042469, 'ymin': 20.70594650901315, 'xmax': -103.35179957042469, 'ymax': 20.70594650901315}",dining and drinking > restaurant > mexican restaurant > taco restaurant,1
56a2db2c498ee12533e475f4,Tacos Leandro Valle,20.448443184663965,-101.52596828350296,Leandro Valle,Abasolo,gto,,,,,MX,2016-01-23,2020-11-24,,,,,,,,['4bf58dd8d48988d151941735'],['Dining and Drinking > Restaurant > Mexican Restaurant > Taco Restaurant'],"b'\x00\x00\x00\x00\x01\xc0Ya\xa9v\xe0\x189@4r\xcd,,>\xee'","{'xmin': -101.52596828350296, 'ymin': 20.448443184663965, 'xmax': -101.52596828350296, 'ymax': 20.448443184663965}",dining and drinking > restaurant > mexican restaurant > taco restaurant,1
55ce38b1498ed79260786344,Cecina de Yecapixtla.,20.63648450427479,-103.42802054040199,Tomas Balcazar,,,,,,,MX,2015-08-14,2021-08-13,,,,,,,,['4bf58dd8d48988d1cc941735' '4bf58dd8d48988d151941735'],"['Dining and Drinking > Restaurant > Steakhouse'
 'Dining and Drinking > Restaurant > Mexican Restaurant > Taco Restaurant']",b'\x00\x00\x00\x00\x01\xc0Y\xdbd\xb0C\xc2\xbd@4\xa2\xf0\xa6\x02E`',"{'xmin': -103.42802054040199, 'ymin': 20.63648450427479, 'xmax': -103.42802054040199, 'ymax': 20.63648450427479}","dining and drinking > restaurant > steakhouse, dining and drinking > restaurant > mexican restaurant > taco restaurant",1
5197b543498e78187c619bce,Las Gorditas De Santiago,19.1197,-104.352574,,,,,,,,MX,2013-05-18,2021-08-12,,,,,,,,['4bf58dd8d48988d151941735'],['Dining and Drinking > Restaurant > Mexican Restaurant > Taco Restaurant'],b'\x00\x00\x00\x00\x01\xc0Z\x16\x90\x92\x89\xda\xe0@3\x1e\xa4\xa8\xc1T\xca',"{'xmin': -104.352574, 'ymin': 19.1197, 'xmax': -104.352574, 'ymax': 19.1197}",dining and drinking > restaurant > mexican restaurant > taco restaurant,1
5645fe9a498efa22f2113c8f,Tacotis,20.679579,-101.381454,,,,,,,,MX,2015-11-13,2021-08-14,,,,,,,,['4bf58dd8d48988d151941735'],['Dining and Drinking > Restaurant > Mexican Restaurant > Taco Restaurant'],b'\x00\x00\x00\x00\x01\xc0YXi\xbe\t\xbbk@4\xad\xf8\xe3\xac\x0cc',"{'xmin': -101.381454, 'ymin': 20.679579, 'xmax': -101.381454, 'ymax': 20.679579}",dining and drinking > restaurant > mexican restaurant > taco restaurant,1
5259891411d2c946a7b72886,Las Famosas Ahogadas Tortas Bugambilias,20.60428371396279,-103.43410834969987,,,,,,,,MX,2013-10-12,2021-08-15,,,,,,,,['4bf58dd8d48988d151941735'],['Dining and Drinking > Restaurant > Mexican Restaurant > Taco Restaurant'],b'\x00\x00\x00\x00\x01\xc0Y\xdb\xc8nc8j@4\x9a\xb2Vd\xf9\xc1',"{'xmin': -103.43410834969987, 'ymin': 20.60428371396279, 'xmax': -103.43410834969987, 'ymax': 20.60428371396279}",dining and drinking > restaurant > mexican restaurant > taco restaurant,1
58b1b9fdcf445111b7668f2b,Birrieria los Purepechos,21.163585,-101.670359,,,,,,,,MX,2017-02-25,2021-08-11,,,,,,,,['4bf58dd8d48988d151941735'],['Dining and Drinking > Restaurant > Mexican Restaurant > Taco Restaurant'],b'\x00\x00\x00\x00\x01\xc0Yj\xe7)oe\x13@5)\xe0\xb4\xe1\x1d\xbd',"{'xmin': -101.670359, 'ymin': 21.163585, 'xmax': -101.670359, 'ymax': 21.163585}",dining and drinking > restaurant > mexican restaurant > taco restaurant,1
6b86c7f3b9cb418848fe0408,Tacos la Racherita,20.729855,-103.390501,Santa Margarita 427,Zapopan,Jalisco,45140,,,,MX,2013-04-12,2023-12-06,,33 3636 3416,,,,,,['4bf58dd8d48988d151941735' '4d4b7105d754a06378d81259'],"['Dining and Drinking > Restaurant > Mexican Restaurant > Taco Restaurant'
 'Retail']",b'\x00\x00\x00\x00\x01\xc0Y\xd8\xfd\xf7\xe8\x03\x8a@4\xba\xd7\xc6\xfb\xd2t',"{'xmin': -103.390501, 'ymin': 20.729855, 'xmax': -103.390501, 'ymax': 20.729855}","dining and drinking > restaurant > mexican restaurant > taco restaurant, retail",1
5ac972d4dd12f80c0b701f8b,Tacos Onorio,20.765319,-104.085564,,Etzatlán,JAL,,,,,MX,2018-04-08,2020-11-23,,,,,,,,['4bf58dd8d48988d151941735'],['Dining and Drinking > Restaurant > Mexican Restaurant > Taco Restaurant'],"b'\x00\x00\x00\x00\x01\xc0Z\x05y\xe1mm\xc2@4\xc3\xeb\xf2,\x01\xe7'","{'xmin': -104.085564, 'ymin': 20.765319, 'xmax': -104.085564, 'ymax': 20.765319}",dining and drinking > restaurant > mexican restaurant > taco restaurant,1
56605c4f498e6506615c4cf0,El Chapalilla,21.487642661009634,-104.88720740928326,Portugal #59,Tepic,Nayarit,63157,,,,MX,2015-12-03,2023-12-21,,311 456 2900,,,,,,['4bf58dd8d48988d151941735'],['Dining and Drinking > Restaurant > Mexican Restaurant > Taco Restaurant'],b'\x00\x00\x00\x00\x01\xc0Z8\xc8\x01\x95\xe8\xfe@5|\xd6&A+\xb9',"{'xmin': -104.88720740928326, 'ymin': 21.487642661009634, 'xmax': -104.88720740928326, 'ymax': 21.487642661009634}",dining and drinking > restaurant > mexican restaurant > taco restaurant,1
4f52f8ffe4b0336534a59efe,Tacos rigo,20.7078233736555,-103.33168025440796,Monte san elias,Guadalajara,Jalisco,44240,,,,MX,2012-03-04,2021-08-13,,,,,,,,['4bf58dd8d48988d151941735'],['Dining and Drinking > Restaurant > Mexican Restaurant > Taco Restaurant'],b'\x00\x00\x00\x00\x01\xc0Y\xd5:?\xd1ZP@4\xb53\xe9\xa11\xdc',"{'xmin': -103.33168025440796, 'ymin': 20.7078233736555, 'xmax': -103.33168025440796, 'ymax': 20.7078233736555}",dining and drinking > restaurant > mexican restaurant > taco restaurant,1
5a03b44b6f706a662910b6d6,Tacos San Gonzalo,20.771508,-103.434633,San Juan Bosco S/N,Zapopan,JAL,45134,,,,MX,2017-11-09,2020-11-25,,,,,,,,['4bf58dd8d48988d151941735'],['Dining and Drinking > Restaurant > Mexican Restaurant > Taco Restaurant'],b'\x00\x00\x00\x00\x01\xc0Y\xdb\xd1\x06\xee0\xcb@4\xc5\x81\x8c\\\x9a5',"{'xmin': -103.434633, 'ymin': 20.771508, 'xmax': -103.434633, 'ymax': 20.771508}",dining and drinking > restaurant > mexican restaurant > taco restaurant,1
564aa9d9498ecbb5e99b6227,Arandinos,21.15558681410472,-101.68631850041966,,,,,,,,MX,2015-11-17,2021-08-12,,,,,,,,['4bf58dd8d48988d151941735'],['Dining and Drinking > Restaurant > Mexican Restaurant > Taco Restaurant'],"b""\x00\x00\x00\x00\x01\xc0Yk\xec\xa4n|M@5'\xd4\x89\x96D\xc3""","{'xmin': -101.68631850041966, 'ymin': 21.15558681410472, 'xmax': -101.68631850041966, 'ymax': 21.15558681410472}",dining and drinking > restaurant > mexican restaurant > taco restaurant,1
55a1acb1498e89f155bcc6e3,Pazcado,19.081099851685856,-104.28478002548218,Carretera a minatitlan no. 58,Manzanillo,Colima,28239,,,,MX,2015-07-11,2020-11-22,,314 114 1825,,,,,,['4bf58dd8d48988d151941735'],['Dining and Drinking > Restaurant > Mexican Restaurant > Taco Restaurant'],b'\x00\x00\x00\x00\x01\xc0Z\x129\xd6\x00\x00\x00@3\x14\xc2\xf5\xba\xb3\x82',"{'xmin': -104.28478002548218, 'ymin': 19.081099851685856, 'xmax': -104.28478002548218, 'ymax': 19.081099851685856}",dining and drinking > restaurant > mexican restaurant > taco restaurant,1
4f0f983fe4b0d85e504f4bc9,"Tacos el ""Maistro""",20.647090908749504,-103.70348428739831,,,,,,,,MX,2012-01-13,2021-08-12,,,,,,,,['4bf58dd8d48988d1cb941735' '4bf58dd8d48988d151941735'],"['Dining and Drinking > Food Truck'
 'Dining and Drinking > Restaurant > Mexican Restaurant > Taco Restaurant']",b'\x00\x00\x00\x00\x01\xc0Y\xed\x05\xe2\xf5\xe8\n@4\xa5\xa7\xbf\xf2\x9e8',"{'xmin': -103.70348428739831, 'ymin': 20.647090908749504, 'xmax': -103.70348428739831, 'ymax': 20.647090908749504}","dining and drinking > food truck, dining and drinking > restaurant > mexican restaurant > taco restaurant",1
5be733de78782c002c521c4b,Santo Remedio Birria Y Algo Mas,21.104894,-101.583725,"Av.  Constelaciones 704, Col. Villas De San Juan",León,GTO,37294,,,,MX,2018-11-10,2020-11-30,,,,,,,,['4bf58dd8d48988d151941735' '4bf58dd8d48988d1c1941735'],"['Dining and Drinking > Restaurant > Mexican Restaurant > Taco Restaurant'
 'Dining and Drinking > Restaurant > Mexican Restaurant']",b'\x00\x00\x00\x00\x01\xc0Ye[\xc0\x1a6\xe3@5\x1a\xdaUK\x8b\xf0',"{'xmin': -101.583725, 'ymin': 21.104894, 'xmax': -101.583725, 'ymax': 21.104894}","dining and drinking > restaurant > mexican restaurant > taco restaurant, dining and drinking > restaurant > mexican restaurant",1
4fe7e4ebe4b0756d136d69d9,tacos don luis,20.631609831292085,-103.29369592662209,,,,,,,,MX,2012-06-25,2021-08-16,,,,,,,,['4bf58dd8d48988d151941735'],['Dining and Drinking > Restaurant > Mexican Restaurant > Taco Restaurant'],b'\x00\x00\x00\x00\x01\xc0Y\xd2\xcb\xe9\xff\xf3\xdc@4\xa1\xb1.\x91;I',"{'xmin': -103.29369592662209, 'ymin': 20.631609831292085, 'xmax': -103.29369592662209, 'ymax': 20.631609831292085}",dining and drinking > restaurant > mexican restaurant > taco restaurant,1
5072e7aae4b0e78a1b8ac4aa,La Cocinita De Ceci,20.696322,-103.298434,,,,,,,,MX,2012-10-08,2021-08-12,,,,,,,,['4bf58dd8d48988d151941735'],['Dining and Drinking > Restaurant > Mexican Restaurant > Taco Restaurant'],b'\x00\x00\x00\x00\x01\xc0Y\xd3\x19\x8a\xeb\x80\xed@4\xb2B(\x99|=',"{'xmin': -103.298434, 'ymin': 20.696322, 'xmax': -103.298434, 'ymax': 20.696322}",dining and drinking > restaurant > mexican restaurant > taco restaurant,1
524c5a79498eebc325017705,Taqueria Ady's,20.701342,-103.330001,,Guadalajara,,,,,,MX,2013-10-02,2021-08-13,,,,,,,,['4bf58dd8d48988d151941735'],['Dining and Drinking > Restaurant > Mexican Restaurant > Taco Restaurant'],b'\x00\x00\x00\x00\x01\xc0Y\xd5\x1e\xbc\x83\xa9m@4\xb3\x8b&9O\xad',"{'xmin': -103.330001, 'ymin': 20.701342, 'xmax': -103.330001, 'ymax': 20.701342}",dining and drinking > restaurant > mexican restaurant > taco restaurant,1
5220bd94498eae515532d538,Desayunos Felipa,20.687412,-103.342549,Eulogio Parra  287,Guadalajara,Jalisco,,,,,MX,2013-08-30,2021-08-15,,,,,,,,['4bf58dd8d48988d151941735'],['Dining and Drinking > Restaurant > Mexican Restaurant > Taco Restaurant'],b'\x00\x00\x00\x00\x01\xc0Y\xd5\xecR\xa4\x11\xc3@4\xaf\xfa;\x9a\xe0\xc1',"{'xmin': -103.342549, 'ymin': 20.687412, 'xmax': -103.342549, 'ymax': 20.687412}",dining and drinking > restaurant > mexican restaurant > taco restaurant,1
5655db47498ed8fc7045714a,La Flais Tacos al vapor,20.638531591231636,-103.40854731041044,,,,,,,,MX,2015-11-25,2021-08-10,,,,,,,,['4bf58dd8d48988d151941735'],['Dining and Drinking > Restaurant > Mexican Restaurant > Taco Restaurant'],b'\x00\x00\x00\x00\x01\xc0Y\xda%\xa3\x9eE9@4\xa3v\xcem\xcd\x7f',"{'xmin': -103.40854731041044, 'ymin': 20.638531591231636, 'xmax': -103.40854731041044, 'ymax': 20.638531591231636}",dining and drinking > restaurant > mexican restaurant > taco restaurant,1
55d9e058498eab573ca969c0,El Güero Valente Tacos y Barbacoa,19.269372627018097,-103.70738354117209,Av Constitucion 2170,Colima,Colima,,,,,MX,2015-08-23,2020-11-25,,,,,,,,['4bf58dd8d48988d151941735'],['Dining and Drinking > Restaurant > Mexican Restaurant > Taco Restaurant'],b'\x00\x00\x00\x00\x01\xc0Y\xedE\xc5\x9d\xc4\x05@3D\xf5\x9a\xbfz\xf7',"{'xmin': -103.70738354117209, 'ymin': 19.269372627018097, 'xmax': -103.70738354117209, 'ymax': 19.269372627018097}",dining and drinking > restaurant > mexican restaurant > taco restaurant,1
4cf9f5f1c51fa1cd1b09de2b,Tacos Charly,20.665827134505665,-103.392669617799,,Guadalajara,,,,,,MX,2010-12-04,2021-08-12,,,,,,,,['4bf58dd8d48988d151941735' '4bf58dd8d48988d1cb941735'],"['Dining and Drinking > Restaurant > Mexican Restaurant > Taco Restaurant'
 'Dining and Drinking > Food Truck']",b'\x00\x00\x00\x00\x01\xc0Y\xd9!\x7f\xbf\xa5\x17@4\xaas\xa5\xa7}\xc1',"{'xmin': -103.392669617799, 'ymin': 20.665827134505665, 'xmax': -103.392669617799, 'ymax': 20.665827134505665}","dining and drinking > restaurant > mexican restaurant > taco restaurant, dining and drinking > food truck",1
5e077d0773f7de0007aa8ac4,Birrieria El Flaco,20.746682,-105.273369,,Las Ladrilleras,NAY,63735,,,,MX,2019-12-28,2020-11-23,,,,,,,,['4bf58dd8d48988d151941735'],['Dining and Drinking > Restaurant > Mexican Restaurant > Taco Restaurant'],b'\x00\x00\x00\x00\x01\xc0ZQ~\xe0\xb0\xaf`@4\xbf&\x8d2\x83\n',"{'xmin': -105.273369, 'ymin': 20.746682, 'xmax': -105.273369, 'ymax': 20.746682}",dining and drinking > restaurant > mexican restaurant > taco restaurant,1
5122f3d1e4b019fcb83e717f,Tacos el volador,21.901193560989324,-102.28818188026982,,,,,,,,MX,2013-02-19,2021-08-17,,,,,,,,['4bf58dd8d48988d151941735'],['Dining and Drinking > Restaurant > Mexican Restaurant > Taco Restaurant'],b'\x00\x00\x00\x00\x01\xc0Y\x92q\x92i\xc3\xc1@5\xe6\xb4\x9f\x07\xd0\x9f',"{'xmin': -102.28818188026982, 'ymin': 21.901193560989324, 'xmax': -102.28818188026982, 'ymax': 21.901193560989324}",dining and drinking > restaurant > mexican restaurant > taco restaurant,1
5bb0f51435f983002c5f86ae,Tacos El Arriero,21.364263,-101.917061,,Lagos de Moreno,JAL,47440,,,,MX,2018-09-30,2020-11-25,,,,,,,,['4bf58dd8d48988d151941735'],['Dining and Drinking > Restaurant > Mexican Restaurant > Taco Restaurant'],b'\x00\x00\x00\x00\x01\xc0Yz\xb1 \x9e\xdb\xf9@5]@W\x08$\x92',"{'xmin': -101.917061, 'ymin': 21.364263, 'xmax': -101.917061, 'ymax': 21.364263}",dining and drinking > restaurant > mexican restaurant > taco restaurant,1
4fce65a7e4b0bbfdf422d321,Tacos al pastor Gaby,20.67258400470989,-103.3349025563281,Alvaro Obregón,Guadalajara,Jalisco,,,,,MX,2012-06-05,2021-08-12,,,,,,,,['4bf58dd8d48988d151941735'],['Dining and Drinking > Restaurant > Mexican Restaurant > Taco Restaurant'],b'\x00\x00\x00\x00\x01\xc0Y\xd5o\x0b!\xb1\xaa@4\xac.w \n\xac',"{'xmin': -103.3349025563281, 'ymin': 20.67258400470989, 'xmax': -103.3349025563281, 'ymax': 20.67258400470989}",dining and drinking > restaurant > mexican restaurant > taco restaurant,1
553bbc18498e7eb812fe2984,Taqueria Ado,20.606800445177896,-103.3503838798156,,,,,,,,MX,2015-04-25,2021-09-20,,,,,,,,['4bf58dd8d48988d151941735'],['Dining and Drinking > Restaurant > Mexican Restaurant > Taco Restaurant'],b'\x00\x00\x00\x00\x01\xc0Y\xd6l\xb0\x826\xa1@4\x9bWF#<\xc0',"{'xmin': -103.3503838798156, 'ymin': 20.606800445177896, 'xmax': -103.3503838798156, 'ymax': 20.606800445177896}",dining and drinking > restaurant > mexican restaurant > taco restaurant,1
53b6d19a498ee296db52489b,"Tortas ""El chavo""",20.575883424152227,-101.20613692627708,Avenida del Trabajo,,Guanajuato,,,,,MX,2014-07-04,2023-12-19,,464 653 1013,,,,,,"['4bf58dd8d48988d16c941735' '4bf58dd8d48988d128941735'
 '4bf58dd8d48988d151941735']","['Dining and Drinking > Restaurant > Burger Joint'
 'Dining and Drinking > Cafeteria'
 'Dining and Drinking > Restaurant > Mexican Restaurant > Taco Restaurant']",b'\x00\x00\x00\x00\x01\xc0YM1X\xef6\xea@4\x93m\x18\x99\n\xd5',"{'xmin': -101.20613692627708, 'ymin': 20.575883424152227, 'xmax': -101.20613692627708, 'ymax': 20.575883424152227}","dining and drinking > restaurant > burger joint, dining and drinking > cafeteria, dining and drinking > restaurant > mexican restaurant > taco restaurant",1
52978ff811d2702eceeb518f,Tacos El Rula's,20.801768,-102.763496,,,,,,,,MX,2013-11-28,2021-08-13,,,,,,,,['4bf58dd8d48988d151941735'],['Dining and Drinking > Restaurant > Mexican Restaurant > Taco Restaurant'],b'\x00\x00\x00\x00\x01\xc0Y\xb0\xdd\x1eS\xa8\x1e@4\xcd@\xaa\xea\xfa\xb5',"{'xmin': -102.763496, 'ymin': 20.801768, 'xmax': -102.763496, 'ymax': 20.801768}",dining and drinking > restaurant > mexican restaurant > taco restaurant,1
5255c13511d259eac224d187,"Birria estilo CD. Guzman ""el Tilin jr""",20.728332820374305,-103.39045231444004,,,,,,,,MX,2013-10-09,2021-08-16,,,,,,,,['4bf58dd8d48988d151941735'],['Dining and Drinking > Restaurant > Mexican Restaurant > Taco Restaurant'],b'\x00\x00\x00\x00\x01\xc0Y\xd8\xfd+\xb4J\xb8@4\xbat\x05\x0c\x1cp',"{'xmin': -103.39045231444004, 'ymin': 20.728332820374305, 'xmax': -103.39045231444004, 'ymax': 20.728332820374305}",dining and drinking > restaurant > mexican restaurant > taco restaurant,1
6726f2189f63db52b3d84451,Los Carnales,20.749853,-103.398933,,Zapopan,Jal.,45130,,,,MX,2024-11-03,2024-11-03,,,,,,,,['4bf58dd8d48988d151941735'],['Dining and Drinking > Restaurant > Mexican Restaurant > Taco Restaurant'],b'\x00\x00\x00\x00\x01\xc0Y\xd9\x88\x1eG\x12\xe4@4\xbf\xf6]\xbf\xce\xb8',"{'xmin': -103.398933, 'ymin': 20.749853, 'xmax': -103.398933, 'ymax': 20.749853}",dining and drinking > restaurant > mexican restaurant > taco restaurant,1
4ea2dc9fb80355a981ea09f9,Tortas jimmy's,20.696635522031876,-103.3605869176836,Gregorio davila,Guadalajara,Jalisco,,,,,MX,2011-10-22,2021-08-11,,,,,,,,['4bf58dd8d48988d151941735'],['Dining and Drinking > Restaurant > Mexican Restaurant > Taco Restaurant'],b'\x00\x00\x00\x00\x01\xc0Y\xd7\x13\xdb&\xb4B@4\xb2V\xb4\xa0[\xda',"{'xmin': -103.3605869176836, 'ymin': 20.696635522031876, 'xmax': -103.3605869176836, 'ymax': 20.696635522031876}",dining and drinking > restaurant > mexican restaurant > taco restaurant,1
51330666e4b02c44661df2fc,"Taquería ""El Tukanazo""",21.230188660882746,-104.90141870425728,Blvd. Wenceslao Sandoval,Compostela,Nayarit,,,,,MX,2013-03-03,2020-11-21,,,,,,,,['4bf58dd8d48988d151941735'],['Dining and Drinking > Restaurant > Mexican Restaurant > Taco Restaurant'],b'\x00\x00\x00\x00\x01\xc0Z9\xb0\xd8\x13\xb2j@5:\xed\xa4\xe2f\xc4',"{'xmin': -104.90141870425728, 'ymin': 21.230188660882746, 'xmax': -104.90141870425728, 'ymax': 21.230188660882746}",dining and drinking > restaurant > mexican restaurant > taco restaurant,1
52c70ef8498e5d887df6bf24,El Charro Tapatio,19.274046,-103.736933,,,,,,,,MX,2014-01-03,2021-08-17,,,,,,,,['4bf58dd8d48988d151941735'],['Dining and Drinking > Restaurant > Mexican Restaurant > Taco Restaurant'],"b""\x00\x00\x00\x00\x01\xc0Y\xef)\xe9\x07\x95\xf6@3F'\xe0\xef\x99\x80""","{'xmin': -103.736933, 'ymin': 19.274046, 'xmax': -103.736933, 'ymax': 19.274046}",dining and drinking > restaurant > mexican restaurant > taco restaurant,1
4fb3ce13e4b053b121c6b4b8,Taqueria Los Mixes,21.877030289941956,-102.27126020976354,Av Convención de 1914 602,Aguascalientes,Aguascalientes,20250,,,,MX,2012-05-16,2020-11-21,,,,,,,,['4bf58dd8d48988d151941735'],['Dining and Drinking > Restaurant > Mexican Restaurant > Taco Restaurant'],b'\x00\x00\x00\x00\x01\xc0Y\x91\\S\xc8h\xfe@5\xe0\x85\x0e\x9c\xe6\xf0',"{'xmin': -102.27126020976354, 'ymin': 21.877030289941956, 'xmax': -102.27126020976354, 'ymax': 21.877030289941956}",dining and drinking > restaurant > mexican restaurant > taco restaurant,1
4dcfe8f6fa7664b7c6cbe69b,los compadres,20.746476427568865,-103.39838367157897,Av Valdepeñas #2464,Zapopan,Jalisco,,,,,MX,2011-05-15,2020-11-23,,,,,,,,['4bf58dd8d48988d151941735'],['Dining and Drinking > Restaurant > Mexican Restaurant > Taco Restaurant'],"b'\x00\x00\x00\x00\x01\xc0Y\xd9\x7f\x1e:,K@4\xbf\x19\x14C\xa4\xa8'","{'xmin': -103.39838367157897, 'ymin': 20.746476427568865, 'xmax': -103.39838367157897, 'ymax': 20.746476427568865}",dining and drinking > restaurant > mexican restaurant > taco restaurant,1
5cc9ea52c0af57002c8b3905,Carnitas Chuy,22.146127,-102.277024,,Pabellón de Arteaga,AGS,20676,,,,MX,2019-05-01,2020-11-22,,,,,,,,['4bf58dd8d48988d151941735'],['Dining and Drinking > Restaurant > Mexican Restaurant > Taco Restaurant'],b'\x00\x00\x00\x00\x01\xc0Y\x91\xba\xc2\xdf\rA@6%h\x94>\x10\x06',"{'xmin': -102.277024, 'ymin': 22.146127, 'xmax': -102.277024, 'ymax': 22.146127}",dining and drinking > restaurant > mexican restaurant > taco restaurant,1
4eaba7ba6da1cafdae6f4231,Taqueria charquillo,22.13363781081026,-100.9701111801552,Himno nacional,Slp,,,,,,MX,2011-10-29,2020-11-30,,,,,,,,['4bf58dd8d48988d151941735'],['Dining and Drinking > Restaurant > Mexican Restaurant > Taco Restaurant'],"b'\x00\x00\x00\x00\x01\xc0Y>\x16M4\x10\t@6""6\x16j\xf0i'","{'xmin': -100.9701111801552, 'ymin': 22.13363781081026, 'xmax': -100.9701111801552, 'ymax': 22.13363781081026}",dining and drinking > restaurant > mexican restaurant > taco restaurant,1
55b4f760498e1a63a656ee80,Carnitas El Pistin,20.75087547302246,-103.43746185302734,Av Guadalajara,,jalisco,,,,,MX,2015-07-26,2021-08-16,,,,,,,,['4bf58dd8d48988d151941735'],['Dining and Drinking > Restaurant > Mexican Restaurant > Taco Restaurant'],b'\x00\x00\x00\x00\x01\xc0Y\xdb\xff`\x00\x00\x00@4\xc09`\x00\x00\x00',"{'xmin': -103.43746185302734, 'ymin': 20.75087547302246, 'xmax': -103.43746185302734, 'ymax': 20.75087547302246}",dining and drinking > restaurant > mexican restaurant > taco restaurant,1
65bc7afc8fd1c917577dea4f,Tacos de Asada Jerez,21.089447090695437,-101.64270498675634,Blvd Paseo de Jerez # 387,León,Guanajuato,37530,,,,MX,2024-02-02,2024-02-02,,477 519 9771,,,,,,['4bf58dd8d48988d151941735'],['Dining and Drinking > Restaurant > Mexican Restaurant > Taco Restaurant'],"b'\x00\x00\x00\x00\x01\xc0Yi""\x14\x18\xc6\x0e@5\x16\xe6\x01)B^'","{'xmin': -101.64270498675634, 'ymin': 21.089447090695437, 'xmax': -101.64270498675634, 'ymax': 21.089447090695437}",dining and drinking > restaurant > mexican restaurant > taco restaurant,1
4eaaf7aa82312ec2f6ba8221,Tacos Mr. Güero Grill,20.745561328784994,-103.39881073654746,,Zapopan,Jalisco,,,,,MX,2011-10-28,2020-11-23,,,,,,,,['4bf58dd8d48988d151941735'],['Dining and Drinking > Restaurant > Mexican Restaurant > Taco Restaurant'],b'\x00\x00\x00\x00\x01\xc0Y\xd9\x86\x1dw\xb0\xf6@4\xbe\xdd\x1btK:',"{'xmin': -103.39881073654746, 'ymin': 20.745561328784994, 'xmax': -103.39881073654746, 'ymax': 20.745561328784994}",dining and drinking > restaurant > mexican restaurant > taco restaurant,1
4c6deed9c5243704d0d229eb,Tacos Alvaro,19.251553,-103.7518652,José de Ruiz,Villa de Alvarez,Colima,,,,,MX,2010-08-20,2020-11-30,,,,,,,,['4bf58dd8d48988d151941735'],['Dining and Drinking > Restaurant > Mexican Restaurant > Taco Restaurant'],b'\x00\x00\x00\x00\x01\xc0Y\xf0\x1e\x8f7@\x08@3@e\xc7\x045\xf0',"{'xmin': -103.7518652, 'ymin': 19.251553, 'xmax': -103.7518652, 'ymax': 19.251553}",dining and drinking > restaurant > mexican restaurant > taco restaurant,1
5298096511d2919bef4eef3b,Fonda 'Doña Consuelo',19.692361,-101.187049,,,,,,,,MX,2013-11-29,2021-08-12,,,,,,,,['4bf58dd8d48988d151941735'],['Dining and Drinking > Restaurant > Mexican Restaurant > Taco Restaurant'],b'\x00\x00\x00\x00\x01\xc0YK\xf8\x9c^o\xf8@3\xb1>\x92\x0c\x06\x9e',"{'xmin': -101.187049, 'ymin': 19.692361, 'xmax': -101.187049, 'ymax': 19.692361}",dining and drinking > restaurant > mexican restaurant > taco restaurant,1
60df6d6340068e7b086d5c3c,Tacomate,20.666642,-103.401993,Av. Guadalupe #1142,Guadalajara,JAL,44500,,,,MX,2021-07-02,2022-10-01,,33 2711 2831,,,,,,['4bf58dd8d48988d151941735'],['Dining and Drinking > Restaurant > Mexican Restaurant > Taco Restaurant'],b'\x00\x00\x00\x00\x01\xc0Y\xd9\xba@\xd9\x0e$@4\xaa\xa9\x0c\xd4#\xd9',"{'xmin': -103.401993, 'ymin': 20.666642, 'xmax': -103.401993, 'ymax': 20.666642}",dining and drinking > restaurant > mexican restaurant > taco restaurant,1
52a8c4c411d2288df034a7ca,Los Reyes del Taco,21.78737618600762,-102.28072163963007,,,,,,,,MX,2013-12-11,2020-11-30,,,,,,,,['4bf58dd8d48988d151941735'],['Dining and Drinking > Restaurant > Mexican Restaurant > Taco Restaurant'],b'\x00\x00\x00\x00\x01\xc0Y\x91\xf7W\xe5_g@5\xc9\x91|X\x8dL',"{'xmin': -102.28072163963007, 'ymin': 21.78737618600762, 'xmax': -102.28072163963007, 'ymax': 21.78737618600762}",dining and drinking > restaurant > mexican restaurant > taco restaurant,1
52222dae11d219b35faf2fb0,Tacos de Canasta La Pantera,22.14035775340027,-101.02923254898613,,,,,,,,MX,2013-08-31,2021-08-13,,,,,,,,['4bf58dd8d48988d151941735'],['Dining and Drinking > Restaurant > Mexican Restaurant > Taco Restaurant'],b'\x00\x00\x00\x00\x01\xc0YA\xde\xf22w\xf2@6#\xee|X\x98\x1d',"{'xmin': -101.02923254898613, 'ymin': 22.14035775340027, 'xmax': -101.02923254898613, 'ymax': 22.14035775340027}",dining and drinking > restaurant > mexican restaurant > taco restaurant,1
50d1f34fe4b039907645e3f6,Tacos La Güera,20.66329,-103.319827,La Cincuenta,Guadalajara,,,,,,MX,2012-12-19,2021-08-13,,,,,,,,['4bf58dd8d48988d151941735'],['Dining and Drinking > Restaurant > Mexican Restaurant > Taco Restaurant'],b'\x00\x00\x00\x00\x01\xc0Y\xd4x\x0b\xaaX.@4\xa9\xcd_\x99\xc3\x8b',"{'xmin': -103.319827, 'ymin': 20.66329, 'xmax': -103.319827, 'ymax': 20.66329}",dining and drinking > restaurant > mexican restaurant > taco restaurant,1
4e074decd22d658532a4f9fd,Quesadillas Doña Agustina,21.185577200997006,-101.64625614881516,Blvd. Ibarrilla,Ibarrilla,Guanajuato,,,,,MX,2011-06-26,2020-11-24,,,,,,,,['4bf58dd8d48988d151941735'],['Dining and Drinking > Restaurant > Mexican Restaurant > Taco Restaurant'],b'\x00\x00\x00\x00\x01\xc0Yi\\B\xc0\x00\x00@5/\x81\xfc\xc9*U',"{'xmin': -101.64625614881516, 'ymin': 21.185577200997006, 'xmax': -101.64625614881516, 'ymax': 21.185577200997006}",dining and drinking > restaurant > mexican restaurant > taco restaurant,1
4ca3ee07b0ff8cfa72d5bb5e,Tacos El Amigazo Nacho,21.87709181116007,-102.28173335449146,San Miguel,Aguascalientes,AGS,,,,,MX,2010-09-30,2020-11-23,,,,,,,,['4bf58dd8d48988d1cb941735' '4bf58dd8d48988d151941735'],"['Dining and Drinking > Food Truck'
 'Dining and Drinking > Restaurant > Mexican Restaurant > Taco Restaurant']",b'\x00\x00\x00\x00\x01\xc0Y\x92\x07\xebU\xee\xed@5\xe0\x89\x16\xc4\x85\x9c',"{'xmin': -102.28173335449146, 'ymin': 21.87709181116007, 'xmax': -102.28173335449146, 'ymax': 21.87709181116007}","dining and drinking > food truck, dining and drinking > restaurant > mexican restaurant > taco restaurant",1
5834f4626cea3f6266b9b175,El Sarape,19.065182,-104.30202,,Manzanillo,Colima,,,,,MX,2016-11-23,2020-11-25,,,,,,,,['4bf58dd8d48988d151941735'],['Dining and Drinking > Restaurant > Mexican Restaurant > Taco Restaurant'],b'\x00\x00\x00\x00\x01\xc0Z\x13TK\xb1\xaf:@3\x10\xaf\xc4~I\xb2',"{'xmin': -104.30202, 'ymin': 19.065182, 'xmax': -104.30202, 'ymax': 19.065182}",dining and drinking > restaurant > mexican restaurant > taco restaurant,1
4d8457e9f9f3a1cd5d23b464,Tacos Lona Roja,22.174216,-101.008811,Arbol del Hule Esq Prol Muñoz,San Luis Potosi,San Luis Potosi,78149,,,,MX,2011-03-19,2020-11-23,,,,,,,,['4bf58dd8d48988d151941735'],['Dining and Drinking > Restaurant > Mexican Restaurant > Taco Restaurant'],"b'\x00\x00\x00\x00\x01\xc0Y@\x90\\\x036\x15@6,\x99kvp\xa0'","{'xmin': -101.008811, 'ymin': 22.174216, 'xmax': -101.008811, 'ymax': 22.174216}",dining and drinking > restaurant > mexican restaurant > taco restaurant,1
61bff7857352cb6ff79a6cdc,Los Lojan,20.66523,-103.431697,,Zapopan,JAL,45037,,,,MX,2021-12-20,2021-12-20,,,,,,,,['4bf58dd8d48988d151941735'],['Dining and Drinking > Restaurant > Mexican Restaurant > Taco Restaurant'],b'\x00\x00\x00\x00\x01\xc0Y\xdb\xa0\xect2\x01@4\xaaL\x83fQn',"{'xmin': -103.431697, 'ymin': 20.66523, 'xmax': -103.431697, 'ymax': 20.66523}",dining and drinking > restaurant > mexican restaurant > taco restaurant,1
51fd4837498e21108f65c95d,"Tortas Ahogadas ""La Pequeñita""",19.746998,-103.767683,,,,,,,,MX,2013-08-03,2021-08-14,,,,,,,,['4bf58dd8d48988d151941735'],['Dining and Drinking > Restaurant > Mexican Restaurant > Taco Restaurant'],b'\x00\x00\x00\x00\x01\xc0Y\xf1!\xb7\xe0\xac~@3\xbf;B\xcc-k',"{'xmin': -103.767683, 'ymin': 19.746998, 'xmax': -103.767683, 'ymax': 19.746998}",dining and drinking > restaurant > mexican restaurant > taco restaurant,1
5765ecebcd10499ca25a3b81,Taquería Alexa,20.747422,-105.272819,Mástil 872,Fraccionamiento Altavela,Nayarit,63735,,,,MX,2016-06-19,2020-11-30,,,,,,,,['4bf58dd8d48988d151941735'],['Dining and Drinking > Restaurant > Mexican Restaurant > Taco Restaurant'],b'\x00\x00\x00\x00\x01\xc0ZQu\xdd\xd2\xae\x8e@4\xbfW\x0cVO\x98',"{'xmin': -105.272819, 'ymin': 20.747422, 'xmax': -105.272819, 'ymax': 20.747422}",dining and drinking > restaurant > mexican restaurant > taco restaurant,1
4eb8ae706da1df9ffbdd92c3,Tacos Chalino,20.728379,-103.390789,Sabino Delgado,Zapopan,Jalisco,,,,,MX,2011-11-08,2020-11-25,,,,,,,,['4bf58dd8d48988d151941735'],['Dining and Drinking > Restaurant > Mexican Restaurant > Taco Restaurant'],b'\x00\x00\x00\x00\x01\xc0Y\xd9\x02\xaf\xdd\xa8\xbd@4\xbaw\x0b\xd0\x17\xdb',"{'xmin': -103.390789, 'ymin': 20.728379, 'xmax': -103.390789, 'ymax': 20.728379}",dining and drinking > restaurant > mexican restaurant > taco restaurant,1
54fa8bb5498e727051e3a0a0,tacofish kaza,20.726065,-103.303341,,,,,,,,MX,2015-03-07,2021-08-11,,,,,,,,['4bf58dd8d48988d151941735'],['Dining and Drinking > Restaurant > Mexican Restaurant > Taco Restaurant'],b'\x00\x00\x00\x00\x01\xc0Y\xd3i\xf0^\xa2M@4\xb9\xdfeU\xc5.',"{'xmin': -103.303341, 'ymin': 20.726065, 'xmax': -103.303341, 'ymax': 20.726065}",dining and drinking > restaurant > mexican restaurant > taco restaurant,1
52d75502498e93917111f789,"Tacos ""La Franca""",20.674873339243454,-101.34493683262741,,,,,,,,MX,2014-01-16,2021-08-11,,,,,,,,['4bf58dd8d48988d151941735'],['Dining and Drinking > Restaurant > Mexican Restaurant > Taco Restaurant'],b'\x00\x00\x00\x00\x01\xc0YV\x13q\xef\xd4\x84@4\xac\xc4\x7f\xc8\xfe2',"{'xmin': -101.34493683262741, 'ymin': 20.674873339243454, 'xmax': -101.34493683262741, 'ymax': 20.674873339243454}",dining and drinking > restaurant > mexican restaurant > taco restaurant,1
56f8a6d8498e7b28d873bd0a,Tacos del cerrito,20.460763,-101.528993,,,,,,,,MX,2016-03-28,2021-08-15,,,,,,,,['4bf58dd8d48988d151941735'],['Dining and Drinking > Restaurant > Mexican Restaurant > Taco Restaurant'],b'\x00\x00\x00\x00\x01\xc0Ya\xdb\x05t\xb4\x07@4u\xf4\x90`4\xf4',"{'xmin': -101.528993, 'ymin': 20.460763, 'xmax': -101.528993, 'ymax': 20.460763}",dining and drinking > restaurant > mexican restaurant > taco restaurant,1
561d4044498e7f338198f034,Fondas el Tío Pelón,20.644605,-103.332053,Río San Juan De Dios 1555,Guadalajara,Jalisco,44870,,,,MX,2015-10-13,2021-08-14,,33 3650 5419,http://www.eltiopelon.mx,,,,,"['4bf58dd8d48988d151941735' '52e81612bcbc57f1066b7a00'
 '4bf58dd8d48988d1ce941735']","['Dining and Drinking > Restaurant > Mexican Restaurant > Taco Restaurant'
 'Dining and Drinking > Restaurant > Comfort Food Restaurant'
 'Dining and Drinking > Restaurant > Seafood Restaurant']",b'\x00\x00\x00\x00\x01\xc0Y\xd5@[9\xe2z@4\xa5\x04\xd5Q\xd6\x8c',"{'xmin': -103.332053, 'ymin': 20.644605, 'xmax': -103.332053, 'ymax': 20.644605}","dining and drinking > restaurant > mexican restaurant > taco restaurant, dining and drinking > restaurant > comfort food restaurant, dining and drinking > restaurant > seafood restaurant",1
556bb1c6498eddb8c303cd2f,Tacos May,20.740697,-103.35093,,,,,,,,MX,2015-06-01,2021-08-14,,,,,,,,['4bf58dd8d48988d151941735'],['Dining and Drinking > Restaurant > Mexican Restaurant > Taco Restaurant'],b'\x00\x00\x00\x00\x01\xc0Y\xd6u\xa3\x1aK\xdc@4\xbd\x9eQ\x8f>\xcd',"{'xmin': -103.35093, 'ymin': 20.740697, 'xmax': -103.35093, 'ymax': 20.740697}",dining and drinking > restaurant > mexican restaurant > taco restaurant,1
4f21badbe4b012e02c5bda09,El Güero Alteño,20.737790515768335,-103.41058430693478,Arco del Triunfo 364,Zapopan,Jalisco,45130,,,,MX,2012-01-26,2024-01-03,,,http://www.elgueroalteno.com,,,,,['4bf58dd8d48988d151941735'],['Dining and Drinking > Restaurant > Mexican Restaurant > Taco Restaurant'],b'\x00\x00\x00\x00\x01\xc0Y\xdaG\x03f\xa2I@4\xbc\xdf\xd6\xd8\x86#',"{'xmin': -103.41058430693478, 'ymin': 20.737790515768335, 'xmax': -103.41058430693478, 'ymax': 20.737790515768335}",dining and drinking > restaurant > mexican restaurant > taco restaurant,1
4e9daf748b81791d97cf9988,Tacos Palomino,19.118418626596597,-104.35371547937393,"Blvd. Miguel De La Madrid, Santiago",Manzanillo,COL,28860,,,,MX,2011-10-18,2020-11-30,,,,,,,,['4bf58dd8d48988d151941735'],['Dining and Drinking > Restaurant > Mexican Restaurant > Taco Restaurant'],b'\x00\x00\x00\x00\x01\xc0Z\x16\xa3F@\x00\x00@3\x1eP\xae\xe0x9',"{'xmin': -104.35371547937393, 'ymin': 19.118418626596597, 'xmax': -104.35371547937393, 'ymax': 19.118418626596597}",dining and drinking > restaurant > mexican restaurant > taco restaurant,1
509fe16ae4b0548c5d73752c,"Tacos de barbacoa ""Mario""",20.76745683464716,-103.43937731961263,,,,,,,,MX,2012-11-11,2021-08-17,,,,,,,,['4bf58dd8d48988d151941735'],['Dining and Drinking > Restaurant > Mexican Restaurant > Taco Restaurant'],b'\x00\x00\x00\x00\x01\xc0Y\xdc\x1e\xc2\x0c\x95\xc9@4\xc4x\r\x15\xe6\xb7',"{'xmin': -103.43937731961263, 'ymin': 20.76745683464716, 'xmax': -103.43937731961263, 'ymax': 20.76745683464716}",dining and drinking > restaurant > mexican restaurant > taco restaurant,1
5518e687498e1babfc28bef6,Tacos Leo,19.885447874372318,-103.59602241436612,,,,,,,,MX,2015-03-30,2021-08-16,,,,,,,,['4bf58dd8d48988d151941735'],['Dining and Drinking > Restaurant > Mexican Restaurant > Taco Restaurant'],b'\x00\x00\x00\x00\x01\xc0Y\xe6%;2X\xab@3\xe2\xac\xb6>\xbd\xe8',"{'xmin': -103.59602241436612, 'ymin': 19.885447874372318, 'xmax': -103.59602241436612, 'ymax': 19.885447874372318}",dining and drinking > restaurant > mexican restaurant > taco restaurant,1
4eec0dd5a69d8afe6959e339,Kecas Los Principes,20.693187441470474,-101.37033603590896,,,,,,,,MX,2011-12-17,2021-08-13,,,,,,,,['4bf58dd8d48988d151941735'],['Dining and Drinking > Restaurant > Mexican Restaurant > Taco Restaurant'],b'\x00\x00\x00\x00\x01\xc0YW\xb3\x95\xea\xb0\x98@4\xb1t\xbbo\x1d\x15',"{'xmin': -101.37033603590896, 'ymin': 20.693187441470474, 'xmax': -101.37033603590896, 'ymax': 20.693187441470474}",dining and drinking > restaurant > mexican restaurant > taco restaurant,1
56ad8237498e9e5b3d010888,Taquería Lalo,21.898398996340454,-102.27541727419978,,,,,,,,MX,2016-01-31,2021-08-14,,,,,,,,['4bf58dd8d48988d151941735'],['Dining and Drinking > Restaurant > Mexican Restaurant > Taco Restaurant'],b'\x00\x00\x00\x00\x01\xc0Y\x91\xa0o\xc6\\B@5\xe5\xfdz\x04\n\x9e',"{'xmin': -102.27541727419978, 'ymin': 21.898398996340454, 'xmax': -102.27541727419978, 'ymax': 21.898398996340454}",dining and drinking > restaurant > mexican restaurant > taco restaurant,1
543016a5498e648f008d34a2,tacos y gorditas baby,20.688173,-103.333915,,Guadalajara,,,,,,MX,2014-10-04,2021-08-14,,,,,,,,['4bf58dd8d48988d151941735'],['Dining and Drinking > Restaurant > Mexican Restaurant > Taco Restaurant'],"b'\x00\x00\x00\x00\x01\xc0Y\xd5^\xdd\x05)5@4\xb0,\x1b\x10\xfd~'","{'xmin': -103.333915, 'ymin': 20.688173, 'xmax': -103.333915, 'ymax': 20.688173}",dining and drinking > restaurant > mexican restaurant > taco restaurant,1
5032fe68e4b05fc6a874f6f5,tacos don javier,21.515191134512126,-104.89384033214091,,,,,,,,MX,2012-08-21,2021-08-17,,,,,,,,['4bf58dd8d48988d151941735'],['Dining and Drinking > Restaurant > Mexican Restaurant > Taco Restaurant'],b'\x00\x00\x00\x00\x01\xc0Z94\xae\x14\x99\x06@5\x83\xe3\x90\xf1\xeb1',"{'xmin': -104.89384033214091, 'ymin': 21.515191134512126, 'xmax': -104.89384033214091, 'ymax': 21.515191134512126}",dining and drinking > restaurant > mexican restaurant > taco restaurant,1
5059457ce4b04c48e3f55aac,El Choncho,21.146436141587266,-101.65082100857839,,,,,,,,MX,2012-09-19,2021-08-15,,,,,,,,['4bf58dd8d48988d151941735'],['Dining and Drinking > Restaurant > Mexican Restaurant > Taco Restaurant'],b'\x00\x00\x00\x00\x01\xc0Yi\xa7\r(\xd96@5%|\xd6\xc7\x11\xda',"{'xmin': -101.65082100857839, 'ymin': 21.146436141587266, 'xmax': -101.65082100857839, 'ymax': 21.146436141587266}",dining and drinking > restaurant > mexican restaurant > taco restaurant,1
6445c434b2cfe929b11d524d,Asi asado,20.68126247375646,-103.28701704740524,Manuel Gutierrez Najera 3336,Guadalajara,Jalisco,44760,,,,MX,2023-04-23,2023-04-23,,33 1469 0440,,,,,,['4bf58dd8d48988d151941735'],['Dining and Drinking > Restaurant > Mexican Restaurant > Taco Restaurant'],b'\x00\x00\x00\x00\x01\xc0Y\xd2^|\xc0\x00\x00@4\xaeg7\xac\xc6\xab',"{'xmin': -103.28701704740524, 'ymin': 20.68126247375646, 'xmax': -103.28701704740524, 'ymax': 20.68126247375646}",dining and drinking > restaurant > mexican restaurant > taco restaurant,1
5181516d498e2b4ffb85c151,las palmitas taco shop & beer,20.764358520507812,-103.44462585449219,,,,,,,,MX,2013-05-01,2021-08-12,,,,,,,,['4bf58dd8d48988d151941735'],['Dining and Drinking > Restaurant > Mexican Restaurant > Taco Restaurant'],b'\x00\x00\x00\x00\x01\xc0Y\xdct\xc0\x00\x00\x00@4\xc3\xad\x00\x00\x00\x00',"{'xmin': -103.44462585449219, 'ymin': 20.764358520507812, 'xmax': -103.44462585449219, 'ymax': 20.764358520507812}",dining and drinking > restaurant > mexican restaurant > taco restaurant,1
50d602ade4b00f9f0e8e7933,Tortas RULAS,20.631227,-103.348348,,,,,,,,MX,2012-12-22,2021-08-11,,,,,,,,['4bf58dd8d48988d151941735'],['Dining and Drinking > Restaurant > Mexican Restaurant > Taco Restaurant'],b'\x00\x00\x00\x00\x01\xc0Y\xd6KUh\xe8!@4\xa1\x98\x17\xb9Z)',"{'xmin': -103.348348, 'ymin': 20.631227, 'xmax': -103.348348, 'ymax': 20.631227}",dining and drinking > restaurant > mexican restaurant > taco restaurant,1
534abb30498e410a3312b425,"Loncheria ""El Chino""",21.244959,-102.336076,,,,,,,,MX,2014-04-13,2021-08-10,,,,,,,,['4bf58dd8d48988d151941735'],['Dining and Drinking > Restaurant > Mexican Restaurant > Taco Restaurant'],b'\x00\x00\x00\x00\x01\xc0Y\x95\x82D\xe9>\x1d@5>\xb5\xa2\r\xdcb',"{'xmin': -102.336076, 'ymin': 21.244959, 'xmax': -102.336076, 'ymax': 21.244959}",dining and drinking > restaurant > mexican restaurant > taco restaurant,1
52363157498ea8a780a40746,Tacones de Maria,20.739478,-103.425063,,,,,,,,MX,2013-09-15,2021-08-14,2014-09-03,,,,,,,['4bf58dd8d48988d151941735'],['Dining and Drinking > Restaurant > Mexican Restaurant > Taco Restaurant'],"b'\x00\x00\x00\x00\x01\xc0Y\xdb4;p\xefV@4\xbdNn""\x1c\x8a'","{'xmin': -103.425063, 'ymin': 20.739478, 'xmax': -103.425063, 'ymax': 20.739478}",dining and drinking > restaurant > mexican restaurant > taco restaurant,1
64bca108a6175210ec190105,Tacos Chave,20.57639,-103.36867,,San Pedro Tlaquepaque,Jalisco,45610,,,,MX,2023-07-23,2023-07-23,,,,,,,,['4bf58dd8d48988d151941735'],['Dining and Drinking > Restaurant > Mexican Restaurant > Taco Restaurant'],b'\x00\x00\x00\x00\x01\xc0Y\xd7\x98J\x0eA\x0b@4\x93\x8eK\x87\xbd\xcf',"{'xmin': -103.36867, 'ymin': 20.57639, 'xmax': -103.36867, 'ymax': 20.57639}",dining and drinking > restaurant > mexican restaurant > taco restaurant,1
547a7e70498e21f8cc1868fb,Mini tacos dorados,20.93248602561485,-101.27947944298252,,,,,,,,MX,2014-11-30,2021-08-16,,,,,,,,['4bf58dd8d48988d151941735'],['Dining and Drinking > Restaurant > Mexican Restaurant > Taco Restaurant'],b'\x00\x00\x00\x00\x01\xc0YQ\xe2\xfd\xbe\xe0\xe9@4\xee\xb7gw\xfe(',"{'xmin': -101.27947944298252, 'ymin': 20.93248602561485, 'xmax': -101.27947944298252, 'ymax': 20.93248602561485}",dining and drinking > restaurant > mexican restaurant > taco restaurant,1
57f85faf498e4aa7307b832f,Tacos Los Norteños,21.137339,-101.65714,Blvd. Hilario Medina,León,Guanajuato,,,,,MX,2016-10-08,2020-11-23,,,,,,,,['4bf58dd8d48988d151941735'],['Dining and Drinking > Restaurant > Mexican Restaurant > Taco Restaurant'],b'\x00\x00\x00\x00\x01\xc0Yj\x0e\x94\xee9.@5#(\xa6\x11w!',"{'xmin': -101.65714, 'ymin': 21.137339, 'xmax': -101.65714, 'ymax': 21.137339}",dining and drinking > restaurant > mexican restaurant > taco restaurant,1
555554c2498e231e106b03ea,Asadas Santa Rosalia,20.56801981208641,-103.44229894352517,Camino Real A Colima,Los Gavilanes,Jalisco,,,,,MX,2015-05-15,2020-11-25,,,,,,,,['4bf58dd8d48988d151941735'],['Dining and Drinking > Restaurant > Mexican Restaurant > Taco Restaurant'],b'\x00\x00\x00\x00\x01\xc0Y\xdcN\xa0:_\xbe@4\x91i\xbf\x14d%',"{'xmin': -103.44229894352517, 'ymin': 20.56801981208641, 'xmax': -103.44229894352517, 'ymax': 20.56801981208641}",dining and drinking > restaurant > mexican restaurant > taco restaurant,1
b5b7172d9667491e6c3f636b,Municipio de Tacotalpa,21.85866,-102.92423,Benito Juarez 9,Tabasco,Zacatecas,,,,,MX,2014-11-18,2023-12-06,,932 324 0080,,,,,,['4bf58dd8d48988d151941735'],['Dining and Drinking > Restaurant > Mexican Restaurant > Taco Restaurant'],b'\x00\x00\x00\x00\x01\xc0Y\xbb&\x95\x95\xfe\xda@5\xdb\xd1$Jb$',"{'xmin': -102.92423, 'ymin': 21.85866, 'xmax': -102.92423, 'ymax': 21.85866}",dining and drinking > restaurant > mexican restaurant > taco restaurant,1
5814f6ce38faca7f0d6c5781,Costilla de Res en Tacos,30.718311,-115.988604,,Vicente Guerrero,,,,,,MX,2016-10-29,2020-11-26,,,,,,,,['4bf58dd8d48988d151941735'],['Dining and Drinking > Restaurant > Mexican Restaurant > Taco Restaurant'],"b'\x00\x00\x00\x00\x01\xc0\\\xffEI\xb6,w@>\xb7\xe3:\xcd[h'","{'xmin': -115.988604, 'ymin': 30.718311, 'xmax': -115.988604, 'ymax': 30.718311}",dining and drinking > restaurant > mexican restaurant > taco restaurant,1
4f2ab391e4b04cc8ced7e2fc,Tacos Barbacoa Paco,20.650472802534097,-103.42701169445395,Moctezuma No. 5270,Zapopan,,,,,,MX,2012-02-02,2020-11-22,,33 3628 8007,,,,,,['4bf58dd8d48988d151941735'],['Dining and Drinking > Restaurant > Mexican Restaurant > Taco Restaurant'],b'\x00\x00\x00\x00\x01\xc0Y\xdbT(\xdb\xac\x1d@4\xa6\x85b\xb5\xd2H',"{'xmin': -103.42701169445395, 'ymin': 20.650472802534097, 'xmax': -103.42701169445395, 'ymax': 20.650472802534097}",dining and drinking > restaurant > mexican restaurant > taco restaurant,1
55667478498e66fcc5c25e20,Tacos Don Juan,20.612487964675136,-103.28389244269164,,,,,,,,MX,2015-05-28,2023-12-20,,373 600 1713,,,,,,['4bf58dd8d48988d151941735'],['Dining and Drinking > Restaurant > Mexican Restaurant > Taco Restaurant'],b'\x00\x00\x00\x00\x01\xc0Y\xd2+K5<L@4\x9c\xcc\x02\xe1y+',"{'xmin': -103.28389244269164, 'ymin': 20.612487964675136, 'xmax': -103.28389244269164, 'ymax': 20.612487964675136}",dining and drinking > restaurant > mexican restaurant > taco restaurant,1
50d77b88e4b028bbd78c4d31,Bife Express,22.139330903192814,-101.02129465663329,,,,,,,,MX,2012-12-23,2021-08-14,,444 825 6199,,,,,,"['4bf58dd8d48988d151941735' '4bf58dd8d48988d116941735'
 '4bf58dd8d48988d1cc941735']","['Dining and Drinking > Restaurant > Mexican Restaurant > Taco Restaurant'
 'Dining and Drinking > Bar'
 'Dining and Drinking > Restaurant > Steakhouse']",b'\x00\x00\x00\x00\x01\xc0YA\\\xe4Cts@6#\xab0\xa8\x89\x08',"{'xmin': -101.02129465663329, 'ymin': 22.139330903192814, 'xmax': -101.02129465663329, 'ymax': 22.139330903192814}","dining and drinking > restaurant > mexican restaurant > taco restaurant, dining and drinking > bar, dining and drinking > restaurant > steakhouse",1
5633a425498e1894a935307b,Les Tacos Mosqueados Bistro,21.12817404024551,-101.62876234075273,,,,,,,,MX,2015-10-30,2021-08-12,,,,,,,,['4bf58dd8d48988d151941735'],['Dining and Drinking > Restaurant > Mexican Restaurant > Taco Restaurant'],b'\x00\x00\x00\x00\x01\xc0Yh=\xa4f\x9fR@5 \xd0\x03\x8f\x0c\xf8',"{'xmin': -101.62876234075273, 'ymin': 21.12817404024551, 'xmax': -101.62876234075273, 'ymax': 21.12817404024551}",dining and drinking > restaurant > mexican restaurant > taco restaurant,1
66bc1b89ebc59a7055b912fd,Los Pericos,30.514621,-115.927728,,Pueblo Benito García,B.C.,22940,,,,MX,2024-08-14,2024-08-14,,,,,,,,['4bf58dd8d48988d151941735'],['Dining and Drinking > Restaurant > Mexican Restaurant > Taco Restaurant'],b'\x00\x00\x00\x00\x01\xc0\\\xfb_\xe5B\xe5X@>\x83\xbe3\xac\xd5\xb7',"{'xmin': -115.927728, 'ymin': 30.514621, 'xmax': -115.927728, 'ymax': 30.514621}",dining and drinking > restaurant > mexican restaurant > taco restaurant,1
4cbe4beb19ceb1f766f41ccd,Tacos Don Martin,20.476938813138787,-100.96715341561463,Fernando montes de oca,Cortázar,GTO,,,,,MX,2010-10-20,2020-11-24,,,,,,,,['4bf58dd8d48988d151941735'],['Dining and Drinking > Restaurant > Mexican Restaurant > Taco Restaurant'],b'\x00\x00\x00\x00\x01\xc0Y=\xe5\xd7p\x91\xe4@4z\x18\xa9|\x9f\xc8',"{'xmin': -100.96715341561463, 'ymin': 20.476938813138787, 'xmax': -100.96715341561463, 'ymax': 20.476938813138787}",dining and drinking > restaurant > mexican restaurant > taco restaurant,1
4f97826ce4b096253a7cf1ca,"Tacos Y Tortas ""jelipe""",21.11444402644614,-101.69655261386123,,Leon,Guanajuato,,,,,MX,2012-04-25,2020-11-25,,,,,,,,['4bf58dd8d48988d151941735'],['Dining and Drinking > Restaurant > Mexican Restaurant > Taco Restaurant'],b'\x00\x00\x00\x00\x01\xc0Yl\x94Qj\x1e\x8c@5\x1dL4&\xcf\t',"{'xmin': -101.69655261386123, 'ymin': 21.11444402644614, 'xmax': -101.69655261386123, 'ymax': 21.11444402644614}",dining and drinking > restaurant > mexican restaurant > taco restaurant,1
4e9e3a259a52cd825cd2964e,Tacos El Wero,20.6888636,-103.26613616666667,,,,,,,,MX,2011-10-19,2021-08-17,,,,,,,,['4bf58dd8d48988d151941735'],['Dining and Drinking > Restaurant > Mexican Restaurant > Taco Restaurant'],b'\x00\x00\x00\x00\x01\xc0Y\xd1\x08_\xfd\x07o@4\xb0Y]ig\xa3',"{'xmin': -103.26613616666667, 'ymin': 20.6888636, 'xmax': -103.26613616666667, 'ymax': 20.6888636}",dining and drinking > restaurant > mexican restaurant > taco restaurant,1
5361ac40498e1bb986980c34,Tacos Veros,20.769838333129883,-105.2524185180664,Av. Azucena,Fraccionamiento La Misión,Nayarit,,,,,MX,2014-05-01,2020-11-24,,,,,,,,['4bf58dd8d48988d151941735'],['Dining and Drinking > Restaurant > Mexican Restaurant > Taco Restaurant'],"b""\x00\x00\x00\x00\x01\xc0ZP'\xa0\x00\x00\x00@4\xc5\x14 \x00\x00\x00""","{'xmin': -105.2524185180664, 'ymin': 20.769838333129883, 'xmax': -105.2524185180664, 'ymax': 20.769838333129883}",dining and drinking > restaurant > mexican restaurant > taco restaurant,1
50f383a1e4b038ac86db96fa,Tacos El Geton,20.702771,-102.347579,,,,,,,,MX,2013-01-14,2021-08-15,,,,,,,,['4bf58dd8d48988d151941735'],['Dining and Drinking > Restaurant > Mexican Restaurant > Taco Restaurant'],b'\x00\x00\x00\x00\x01\xc0Y\x96>\xbb\xfdq\xb0@4\xb3\xe8\xcc\xdd\x93\xc4',"{'xmin': -102.347579, 'ymin': 20.702771, 'xmax': -102.347579, 'ymax': 20.702771}",dining and drinking > restaurant > mexican restaurant > taco restaurant,1
5368fd57498e2d56e7cf0aad,Tacos y Tortas Mena.,21.029101581395967,-101.86141471486533,,,,,,,,MX,2014-05-06,2021-08-11,,,,,,,,['4bf58dd8d48988d151941735'],['Dining and Drinking > Restaurant > Mexican Restaurant > Taco Restaurant'],b'\x00\x00\x00\x00\x01\xc0Yw!k/(\xf2@5\x07s3\x84[\x89',"{'xmin': -101.86141471486533, 'ymin': 21.029101581395967, 'xmax': -101.86141471486533, 'ymax': 21.029101581395967}",dining and drinking > restaurant > mexican restaurant > taco restaurant,1
56509a0f38faf6c7544991ac,Tacos El Cuñao,21.100674526673828,-101.67555736978903,,,,,,,,MX,2015-11-21,2021-08-15,,,,,,,,['4bf58dd8d48988d151941735'],['Dining and Drinking > Restaurant > Mexican Restaurant > Taco Restaurant'],b'\x00\x00\x00\x00\x01\xc0Yk<T\xfat4@5\x19\xc5\xceG\x9a\xb8',"{'xmin': -101.67555736978903, 'ymin': 21.100674526673828, 'xmax': -101.67555736978903, 'ymax': 21.100674526673828}",dining and drinking > restaurant > mexican restaurant > taco restaurant,1
09005c5c619a45ac77528aa1,Restaurante la Piedad,20.353321,-102.028975,"Libramiento Norte 310, 3",La Piedad,Michoacán,59340,,,,MX,2013-06-02,2023-12-06,,352 522 9590,,,,,,['4bf58dd8d48988d151941735'],['Dining and Drinking > Restaurant > Mexican Restaurant > Taco Restaurant'],b'\x00\x00\x00\x00\x01\xc0Y\x81\xda\xb9\xf5Y\xb4@4Zs>\xbb\xfdr',"{'xmin': -102.028975, 'ymin': 20.353321, 'xmax': -102.028975, 'ymax': 20.353321}",dining and drinking > restaurant > mexican restaurant > taco restaurant,1
4f11c25ae4b0042054b65d83,Tacos Cacho,21.526096060742418,-104.88147849821576,Av. Mexico,Tepic,Nay,,,,,MX,2012-01-14,2020-11-24,,,,,,,,['4bf58dd8d48988d151941735'],['Dining and Drinking > Restaurant > Mexican Restaurant > Taco Restaurant'],b'\x00\x00\x00\x00\x01\xc0Z8j$\xca}\xb0@5\x86\xae;?qp',"{'xmin': -104.88147849821576, 'ymin': 21.526096060742418, 'xmax': -104.88147849821576, 'ymax': 21.526096060742418}",dining and drinking > restaurant > mexican restaurant > taco restaurant,1
5102ec83e4b02d11c9459e52,Tacos PP,20.740831477260613,-103.40807332090681,Arco Del Triunfo,,Jalisco,,,,,MX,2013-01-25,2021-08-11,,,,,,,,['4bf58dd8d48988d151941735' '4bf58dd8d48988d158941735'],"['Dining and Drinking > Restaurant > Mexican Restaurant > Taco Restaurant'
 'Dining and Drinking > Restaurant > Swiss Restaurant']",b'\x00\x00\x00\x00\x01\xc0Y\xda\x1d\xdf\x8f\xea\x8d@4\xbd\xa7!\xb6\xae\x84',"{'xmin': -103.40807332090681, 'ymin': 20.740831477260613, 'xmax': -103.40807332090681, 'ymax': 20.740831477260613}","dining and drinking > restaurant > mexican restaurant > taco restaurant, dining and drinking > restaurant > swiss restaurant",1
51f1c072498ebcf52f6e9e64,Tacos El Chaparrito,20.72844763599765,-101.95122563562612,,,,,,,,MX,2013-07-26,2021-08-15,,,,,,,,['4bf58dd8d48988d151941735'],['Dining and Drinking > Restaurant > Mexican Restaurant > Taco Restaurant'],b'\x00\x00\x00\x00\x01\xc0Y|\xe0\xe1}\x08b@4\xba{\x8bUu[',"{'xmin': -101.95122563562612, 'ymin': 20.72844763599765, 'xmax': -101.95122563562612, 'ymax': 20.72844763599765}",dining and drinking > restaurant > mexican restaurant > taco restaurant,1
5b1439af974617002c3fe9d6,Tacos De Barbacoa Moru,20.71812,-103.35168,Av. Granaditos 84,Zapopan,Jalisco,45190,,,,MX,2018-06-03,2020-11-25,,,,,,,,['4bf58dd8d48988d151941735'],['Dining and Drinking > Restaurant > Mexican Restaurant > Taco Restaurant'],b'\x00\x00\x00\x00\x01\xc0Y\xd6\x81\xec\xd4\xaa\x11@4\xb7\xd6\xb6Z\x9a\x80',"{'xmin': -103.35168, 'ymin': 20.71812, 'xmax': -103.35168, 'ymax': 20.71812}",dining and drinking > restaurant > mexican restaurant > taco restaurant,1
5619ed96498e92e0ca4a8947,Tacos El Gavilan,22.12403668637018,-100.95962052346422,,,,,,,,MX,2015-10-11,2021-08-17,,,,,,,,['4bf58dd8d48988d151941735'],['Dining and Drinking > Restaurant > Mexican Restaurant > Taco Restaurant'],b'\x00\x00\x00\x00\x01\xc0Y=jl36Z@6\x1f\xc0\xdeGv\xd1',"{'xmin': -100.95962052346422, 'ymin': 22.12403668637018, 'xmax': -100.95962052346422, 'ymax': 22.12403668637018}",dining and drinking > restaurant > mexican restaurant > taco restaurant,1
5702b151498e8ee57dc388c7,Los gorditos,20.719244,-103.387008,Calle Francisco Javier Mina 337a,Zapopa,Jalisco,,,,,MX,2016-04-04,2021-08-16,,,,,,,,['4bf58dd8d48988d151941735'],['Dining and Drinking > Restaurant > Mexican Restaurant > Taco Restaurant'],b'\x00\x00\x00\x00\x01\xc0Y\xd8\xc4\xbd3\xd2\x95@4\xb8 _\xf1\xd8\x1f',"{'xmin': -103.387008, 'ymin': 20.719244, 'xmax': -103.387008, 'ymax': 20.719244}",dining and drinking > restaurant > mexican restaurant > taco restaurant,1
5067a9f7e4b08b705a0c2e6e,Tacos De Tabla,21.631343989117966,-102.97691998262462,,,,,,,,MX,2012-09-30,2021-08-12,,,,,,,,['4bf58dd8d48988d151941735'],['Dining and Drinking > Restaurant > Mexican Restaurant > Taco Restaurant'],b'\x00\x00\x00\x00\x01\xc0Y\xbe\x85\xdbd\x0b\xa0@5\xa1\x9f\xc2y\xc9\xb0',"{'xmin': -102.97691998262462, 'ymin': 21.631343989117966, 'xmax': -102.97691998262462, 'ymax': 21.631343989117966}",dining and drinking > restaurant > mexican restaurant > taco restaurant,1
5397c39d498ea56da15460e3,Carnes asadas El Negro,19.24445524392408,-103.757352499361,,,,,,,,MX,2014-06-11,2020-11-23,,,,,,,,['4bf58dd8d48988d151941735'],['Dining and Drinking > Restaurant > Mexican Restaurant > Taco Restaurant'],b'\x00\x00\x00\x00\x01\xc0Y\xf0xv\x9e\x13)@3>\x94\x9em\xfdX',"{'xmin': -103.757352499361, 'ymin': 19.24445524392408, 'xmax': -103.757352499361, 'ymax': 19.24445524392408}",dining and drinking > restaurant > mexican restaurant > taco restaurant,1
56d86ea3498e941edb7b6e04,Tacos de Chicharrón,20.691793,-103.35204,,,,,,,,MX,2016-03-03,2021-08-15,,,,,,,,['4bf58dd8d48988d151941735'],['Dining and Drinking > Restaurant > Mexican Restaurant > Taco Restaurant'],b'\x00\x00\x00\x00\x01\xc0Y\xd6\x87\xd2\xc7\xb8\x91@4\xb1\x19X\x96\x9a\x0b',"{'xmin': -103.35204, 'ymin': 20.691793, 'xmax': -103.35204, 'ymax': 20.691793}",dining and drinking > restaurant > mexican restaurant > taco restaurant,1
5689dcde498e20c1a6b7ce57,Tacos Alex,20.65002,-103.361963,Quetzal,Morelos,Jalisco,44910,,,,MX,2016-01-04,2021-08-11,,,,,,,,['4bf58dd8d48988d151941735'],['Dining and Drinking > Restaurant > Mexican Restaurant > Taco Restaurant'],"b'\x00\x00\x00\x00\x01\xc0Y\xd7*f\xdb\xd7,@4\xa6g\xb5\xf1\xbe\xf5'","{'xmin': -103.361963, 'ymin': 20.65002, 'xmax': -103.361963, 'ymax': 20.65002}",dining and drinking > restaurant > mexican restaurant > taco restaurant,1
5b51526b18d43b002c1c56f9,Tacos El Valedor,20.680046,-103.30214,Puerto Melaque,Guadalajara,Jalisco,44730,,,,MX,2018-07-20,2021-08-14,,,,,,,,['4bf58dd8d48988d151941735'],['Dining and Drinking > Restaurant > Mexican Restaurant > Taco Restaurant'],b'\x00\x00\x00\x00\x01\xc0Y\xd3VC\x02\xb4\x0f@4\xae\x17~\xa1\xc6\x8f',"{'xmin': -103.30214, 'ymin': 20.680046, 'xmax': -103.30214, 'ymax': 20.680046}",dining and drinking > restaurant > mexican restaurant > taco restaurant,1
4f4e58e5e4b0c132f7471855,Tacos El Panda,20.65568573704164,-103.29034157230929,,,,,,,,MX,2012-02-29,2021-08-11,,,,,,,,['4bf58dd8d48988d151941735'],['Dining and Drinking > Restaurant > Mexican Restaurant > Taco Restaurant'],b'\x00\x00\x00\x00\x01\xc0Y\xd2\x94\xf4\xd1o5@4\xa7\xdb\x05=\x0c)',"{'xmin': -103.29034157230929, 'ymin': 20.65568573704164, 'xmax': -103.29034157230929, 'ymax': 20.65568573704164}",dining and drinking > restaurant > mexican restaurant > taco restaurant,1
4dc4b11cd22dafda2f9296df,Tacos Mago,20.66537276593929,-105.22147178649902,Calle Violeta,Puerto Vallarta,Jalisco,,,,,MX,2011-05-07,2020-11-23,,,,,,,,['4bf58dd8d48988d151941735' '4bf58dd8d48988d1c1941735'],"['Dining and Drinking > Restaurant > Mexican Restaurant > Taco Restaurant'
 'Dining and Drinking > Restaurant > Mexican Restaurant']","b'\x00\x00\x00\x00\x01\xc0ZN,\x98\x00\x00\x00@4\xaaU\xde\x9d[\xba'","{'xmin': -105.22147178649902, 'ymin': 20.66537276593929, 'xmax': -105.22147178649902, 'ymax': 20.66537276593929}","dining and drinking > restaurant > mexican restaurant > taco restaurant, dining and drinking > restaurant > mexican restaurant",1
4fee68dae4b0bfd1e5683b4f,Los Trompos Van&ram,19.149814187840526,-96.12796522415687,,,,,,,,MX,2012-06-30,2020-11-22,,,,,,,,['4bf58dd8d48988d151941735'],['Dining and Drinking > Restaurant > Mexican Restaurant > Taco Restaurant'],b'\x00\x00\x00\x00\x01\xc0X\x080\x95\r1\xdc@3&Z8\xfd@z',"{'xmin': -96.12796522415687, 'ymin': 19.149814187840526, 'xmax': -96.12796522415687, 'ymax': 19.149814187840526}",dining and drinking > restaurant > mexican restaurant > taco restaurant,1
50c1c000e4b02803a1503caa,Taquería El Güero,16.8594505945587,-99.89163289486217,Av. Gabriel Avilés,Acapulco,Guerrero,,,,,MX,2012-12-07,2020-11-25,,,,,,,,['4bf58dd8d48988d151941735' '4bf58dd8d48988d1c1941735'],"['Dining and Drinking > Restaurant > Mexican Restaurant > Taco Restaurant'
 'Dining and Drinking > Restaurant > Mexican Restaurant']","b'\x00\x00\x00\x00\x01\xc0X\xf9\x10\x83j\xde""@0\xdc\x04\xf4D(J'","{'xmin': -99.89163289486217, 'ymin': 16.8594505945587, 'xmax': -99.89163289486217, 'ymax': 16.8594505945587}","dining and drinking > restaurant > mexican restaurant > taco restaurant, dining and drinking > restaurant > mexican restaurant",1
5323dcae498e2cc3f90547d6,taqueria,19.285921096801758,-99.0400390625,,,,,,,,MX,2014-03-15,2021-08-12,,,,,,,,['4bf58dd8d48988d151941735'],['Dining and Drinking > Restaurant > Mexican Restaurant > Taco Restaurant'],b'\x00\x00\x00\x00\x01\xc0X\xc2\x90\x00\x00\x00\x00@3I2 \x00\x00\x00',"{'xmin': -99.0400390625, 'ymin': 19.285921096801758, 'xmax': -99.0400390625, 'ymax': 19.285921096801758}",dining and drinking > restaurant > mexican restaurant > taco restaurant,1
52d1b5a0498e111385dd2e56,Taquería El preferido,18.881463020811683,-96.9652862793938,Peñuela,,,,,,,MX,2014-01-11,2020-11-22,,,,,,,,['4bf58dd8d48988d151941735'],['Dining and Drinking > Restaurant > Mexican Restaurant > Taco Restaurant'],b'\x00\x00\x00\x00\x01\xc0X=\xc7@\x1aQ\x87@2\xe1\xa7\x8f\x7f\x05\x01',"{'xmin': -96.9652862793938, 'ymin': 18.881463020811683, 'xmax': -96.9652862793938, 'ymax': 18.881463020811683}",dining and drinking > restaurant > mexican restaurant > taco restaurant,1
5452a2fd498e114c34c44c0b,Los Re-Tacados,19.29988512489635,-99.10411434562943,Calzada Del Hueso,,México DF,,,,,MX,2014-10-30,2021-08-14,2020-03-12,,,,,,,['4bf58dd8d48988d151941735'],['Dining and Drinking > Restaurant > Mexican Restaurant > Taco Restaurant'],b'\x00\x00\x00\x00\x01\xc0X\xc6\xa9\xcf7av@3L\xc5E\x83\xfc\x98',"{'xmin': -99.10411434562943, 'ymin': 19.29988512489635, 'xmax': -99.10411434562943, 'ymax': 19.29988512489635}",dining and drinking > restaurant > mexican restaurant > taco restaurant,1
4cd307e2ecc3a0932e429893,Tacos tec transito,19.26995999148076,-99.70418871680306,,,,,,,,MX,2010-11-04,2021-08-11,,,,,,,,['4bf58dd8d48988d151941735'],['Dining and Drinking > Restaurant > Mexican Restaurant > Taco Restaurant'],b'\x00\x00\x00\x00\x01\xc0X\xed\x11m\x8d8h@3E\x1c\x19\x16\xa3h',"{'xmin': -99.70418871680306, 'ymin': 19.26995999148076, 'xmax': -99.70418871680306, 'ymax': 19.26995999148076}",dining and drinking > restaurant > mexican restaurant > taco restaurant,1
52742ffc11d2462ff110d09a,Tacos Rosita Bonita,19.272236408595102,-99.17185901016231,Zapotecas,Tlalcoligia,México,,,,,MX,2013-11-01,2020-11-25,2018-04-19,,,,,,,['4bf58dd8d48988d151941735' '4bf58dd8d48988d1c1941735'],"['Dining and Drinking > Restaurant > Mexican Restaurant > Taco Restaurant'
 'Dining and Drinking > Restaurant > Mexican Restaurant']",b'\x00\x00\x00\x00\x01\xc0X\xca\xff\xbc\xef\n\xe2@3E\xb1I\x07\xb2K',"{'xmin': -99.17185901016231, 'ymin': 19.272236408595102, 'xmax': -99.17185901016231, 'ymax': 19.272236408595102}","dining and drinking > restaurant > mexican restaurant > taco restaurant, dining and drinking > restaurant > mexican restaurant",1
5378d580498eab7f3bc7c8d5,Tacos Sarahi,19.277099609375,-99.1274185180664,,,,,,,,MX,2014-05-18,2021-08-15,,,,,,,,['4bf58dd8d48988d151941735'],['Dining and Drinking > Restaurant > Mexican Restaurant > Taco Restaurant'],"b""\x00\x00\x00\x00\x01\xc0X\xc8'\xa0\x00\x00\x00@3F\xf0\x00\x00\x00\x00""","{'xmin': -99.1274185180664, 'ymin': 19.277099609375, 'xmax': -99.1274185180664, 'ymax': 19.277099609375}",dining and drinking > restaurant > mexican restaurant > taco restaurant,1
52926e1911d214e9f28629cc,Calzontzin,19.425113906050225,-102.01384210302928,,,,,,,,MX,2013-11-24,2021-08-14,,,,,,,,['4bf58dd8d48988d151941735'],['Dining and Drinking > Restaurant > Mexican Restaurant > Taco Restaurant'],b'\x00\x00\x00\x00\x01\xc0Y\x80\xe2\xc9\xfc\xf4d@3l\xd4C\xd3\x8f\x7f',"{'xmin': -102.01384210302928, 'ymin': 19.425113906050225, 'xmax': -102.01384210302928, 'ymax': 19.425113906050225}",dining and drinking > restaurant > mexican restaurant > taco restaurant,1
66c795933c1fe46a933f52f1,El Corralito,19.304222,-99.205052,,Tlalpan,CDMX,14210,,,,MX,2024-08-22,2024-08-22,,,,,,,,['4bf58dd8d48988d151941735'],['Dining and Drinking > Restaurant > Mexican Restaurant > Taco Restaurant'],b'\x00\x00\x00\x00\x01\xc0X\xcd\x1f\x92l~\xae@3M\xe1~4\xb9E',"{'xmin': -99.205052, 'ymin': 19.304222, 'xmax': -99.205052, 'ymax': 19.304222}",dining and drinking > restaurant > mexican restaurant > taco restaurant,1
5153accde4b0600619486a9f,Taqueria Pollos Norteños,19.151856478594304,-96.9693457360113,,,,,,,,MX,2013-03-28,2021-08-15,,,,,,,,['4bf58dd8d48988d151941735'],['Dining and Drinking > Restaurant > Mexican Restaurant > Taco Restaurant'],b'\x00\x00\x00\x00\x01\xc0X>\t\xc2\xb2\xab\xe1@3&\xe0\x10\xf1?\x8e',"{'xmin': -96.9693457360113, 'ymin': 19.151856478594304, 'xmax': -96.9693457360113, 'ymax': 19.151856478594304}",dining and drinking > restaurant > mexican restaurant > taco restaurant,1
4e715b3eae6067986e730a00,Ojo De Agua,19.286589255057322,-99.3729696223723,,Ciudad de México,Distrito Federal,,,,,MX,2011-09-15,2023-09-15,,,,,,,,['4bf58dd8d48988d151941735'],['Dining and Drinking > Restaurant > Mexican Restaurant > Taco Restaurant'],b'\x00\x00\x00\x00\x01\xc0X\xd7\xde\xbb\xfa\x9fd@3I]\xe9\xd5\xdb0',"{'xmin': -99.3729696223723, 'ymin': 19.286589255057322, 'xmax': -99.3729696223723, 'ymax': 19.286589255057322}",dining and drinking > restaurant > mexican restaurant > taco restaurant,1
51e2b606498e6371242f2b21,Mr. Chicharron,19.150143,-96.165783,,,,,,,,MX,2013-07-14,2021-08-12,,,,,,,,['4bf58dd8d48988d151941735'],['Dining and Drinking > Restaurant > Mexican Restaurant > Taco Restaurant'],"b'\x00\x00\x00\x00\x01\xc0X\n\x9c0L\xce\xe6@3&o\xc5\x8a\xb9,'","{'xmin': -96.165783, 'ymin': 19.150143, 'xmax': -96.165783, 'ymax': 19.150143}",dining and drinking > restaurant > mexican restaurant > taco restaurant,1
51b7697f498e7ff2d6feb86f,"Taquería y Lonchería ""La Tía""",20.369779,-102.768753,Sócrates,Ocotlán,JAL,,,,,MX,2013-06-11,2020-11-23,,,,,,,,['4bf58dd8d48988d151941735'],['Dining and Drinking > Restaurant > Mexican Restaurant > Taco Restaurant'],"b""\x00\x00\x00\x00\x01\xc0Y\xb13?\xc8l\xec@4^\xa9\xd6'\xbfb""","{'xmin': -102.768753, 'ymin': 20.369779, 'xmax': -102.768753, 'ymax': 20.369779}",dining and drinking > restaurant > mexican restaurant > taco restaurant,1
6249195a90f60c4273840b8c,Taquería Rinconada,19.259276,-99.120321,UH Rinconada Del Sur,Ciudad de México,CDMX,16059,,,,MX,2022-04-03,2022-04-03,,,,,,,,['4bf58dd8d48988d151941735'],['Dining and Drinking > Restaurant > Mexican Restaurant > Taco Restaurant'],b'\x00\x00\x00\x00\x01\xc0X\xc7\xb3V\xda\x01i@3B_\xe9t\xa3@',"{'xmin': -99.120321, 'ymin': 19.259276, 'xmax': -99.120321, 'ymax': 19.259276}",dining and drinking > restaurant > mexican restaurant > taco restaurant,1
610555f50c19220037cf7177,Cena,18.365099,-99.87394,calle Galeana #14,Teloloapan,Guerrero,40400,,,,MX,2021-07-31,2021-07-31,,,,,,,,['4bf58dd8d48988d151941735'],['Dining and Drinking > Restaurant > Mexican Restaurant > Taco Restaurant'],b'\x00\x00\x00\x00\x01\xc0X\xf7\xee\xa2\t\xaa\xa4@2]w \xc8\xcdd',"{'xmin': -99.87394, 'ymin': 18.365099, 'xmax': -99.87394, 'ymax': 18.365099}",dining and drinking > restaurant > mexican restaurant > taco restaurant,1
53192df911d2b89baf2063c7,Los pozoles de jungapeo,19.277720477457922,-99.65243631995713,,,,,,,,MX,2014-03-07,2021-08-12,,,,,,,,['4bf58dd8d48988d151941735'],['Dining and Drinking > Restaurant > Mexican Restaurant > Taco Restaurant'],b'\x00\x00\x00\x00\x01\xc0X\xe9\xc1\x84D<\x10@3G\x18\xb0p\x1c}',"{'xmin': -99.65243631995713, 'ymin': 19.277720477457922, 'xmax': -99.65243631995713, 'ymax': 19.277720477457922}",dining and drinking > restaurant > mexican restaurant > taco restaurant,1
4ea2998cb6347b9967da2d83,El Carboncito,19.275356157782845,-99.63494109199615,Prolongacion 5 de Mayo,Toluca de Lerdo,MEX,50140,,,,MX,2011-10-22,2020-11-23,,,,,,,,['4bf58dd8d48988d151941735'],['Dining and Drinking > Restaurant > Mexican Restaurant > Taco Restaurant'],b'\x00\x00\x00\x00\x01\xc0X\xe8\xa2\xdf\xf6@\xa4@3F}\xbd\xbcm\xf6',"{'xmin': -99.63494109199615, 'ymin': 19.275356157782845, 'xmax': -99.63494109199615, 'ymax': 19.275356157782845}",dining and drinking > restaurant > mexican restaurant > taco restaurant,1
4f12091de4b04720456b220c,"Tacos Y Carnitas ""El Yonny""",17.130088762558064,-96.80308232507167,Av. Juárez #47,,,,,,,MX,2012-01-14,2021-08-11,,,,,,,,['4bf58dd8d48988d151941735'],['Dining and Drinking > Restaurant > Mexican Restaurant > Taco Restaurant'],b'\x00\x00\x00\x00\x01\xc0X3e\xb3h\x8bl@1!M\x7fD\xc3\x95',"{'xmin': -96.80308232507167, 'ymin': 17.130088762558064, 'xmax': -96.80308232507167, 'ymax': 17.130088762558064}",dining and drinking > restaurant > mexican restaurant > taco restaurant,1
4f88ea2ce4b07f1a34f48346,Tacos de kalimuerto,19.267775093289274,-99.11554277610679,,,,,,,,MX,2012-04-14,2021-08-16,,,,,,,,['4bf58dd8d48988d151941735'],['Dining and Drinking > Restaurant > Mexican Restaurant > Taco Restaurant'],b'\x00\x00\x00\x00\x01\xc0X\xc7e\r\x87*\xbc@3D\x8c\xe8\x94\\\\',"{'xmin': -99.11554277610679, 'ymin': 19.267775093289274, 'xmax': -99.11554277610679, 'ymax': 19.267775093289274}",dining and drinking > restaurant > mexican restaurant > taco restaurant,1
5e6021952f6b440008664808,"Tacos Arabes Y Orientales ""El Reloj""",17.264746,-97.68568,Calle héroes de cananea número 5,Tlaxiaco,Oaxaca,69800,,,,MX,2020-03-04,2020-11-24,,,,,,,,['4bf58dd8d48988d151941735'],['Dining and Drinking > Restaurant > Mexican Restaurant > Taco Restaurant'],b'\x00\x00\x00\x00\x01\xc0Xk\xe2.]\xe1]@1C\xc6d\xd3\xbf/',"{'xmin': -97.68568, 'ymin': 17.264746, 'xmax': -97.68568, 'ymax': 17.264746}",dining and drinking > restaurant > mexican restaurant > taco restaurant,1
4d7edb82dd4a6ea84d0f7125,Taqueria Los Volcanes,19.69452636776674,-103.45716834068298,,Zapotlan el Grande,Jalisco,,,,,MX,2011-03-15,2020-11-30,,,,,,,,['4bf58dd8d48988d151941735'],['Dining and Drinking > Restaurant > Mexican Restaurant > Taco Restaurant'],b'\x00\x00\x00\x00\x01\xc0Y\xddB?\x00\x00\x00@3\xb1\xccz\xe3\xc4\x90',"{'xmin': -103.45716834068298, 'ymin': 19.69452636776674, 'xmax': -103.45716834068298, 'ymax': 19.69452636776674}",dining and drinking > restaurant > mexican restaurant > taco restaurant,1
4d7702683b756ea8aa10cc42,Tacos El Gallo,19.291223679313777,-99.03261568630904,Antonio Sierra 11A,Mexico City,Distrito Federal,,,,,MX,2011-03-09,2020-11-25,,,,,,,,['4bf58dd8d48988d151941735'],['Dining and Drinking > Restaurant > Mexican Restaurant > Taco Restaurant'],"b'\x00\x00\x00\x00\x01\xc0X\xc2\x16`\x1a\x82,@3J\x8d\xa2\x92y5'","{'xmin': -99.03261568630904, 'ymin': 19.291223679313777, 'xmax': -99.03261568630904, 'ymax': 19.291223679313777}",dining and drinking > restaurant > mexican restaurant > taco restaurant,1
566ba405498eb723591d443b,Garnachas Doña Ramona,18.839256,-97.10171,,,,,,,,MX,2015-12-12,2021-08-16,,,,,,,,['4bf58dd8d48988d151941735'],['Dining and Drinking > Restaurant > Mexican Restaurant > Taco Restaurant'],b'\x00\x00\x00\x00\x01\xc0XF\x82j\xa8\xebF@2\xd6\xd9{0\xf8\xc6',"{'xmin': -97.10171, 'ymin': 18.839256, 'xmax': -97.10171, 'ymax': 18.839256}",dining and drinking > restaurant > mexican restaurant > taco restaurant,1
50de81bae4b05f4591ac4cdf,Taqueria El Dumbo,17.275063397789154,-97.67811363099212,,,,,,,,MX,2012-12-29,2020-11-23,,,,,,,,['4bf58dd8d48988d151941735'],['Dining and Drinking > Restaurant > Mexican Restaurant > Taco Restaurant'],b'\x00\x00\x00\x00\x01\xc0Xkf6\xb7\x05O@1Fj\x8e\t\xd4\xc0',"{'xmin': -97.67811363099212, 'ymin': 17.275063397789154, 'xmax': -97.67811363099212, 'ymax': 17.275063397789154}",dining and drinking > restaurant > mexican restaurant > taco restaurant,1
560d993f498e829599ded165,Tacos Borrachos,19.30485190199604,-99.20220660459351,,,,,,,,MX,2015-10-01,2021-08-15,,,,,,,,['4bf58dd8d48988d151941735' '56aa371be4b08b9a8d57350b'],"['Dining and Drinking > Restaurant > Mexican Restaurant > Taco Restaurant'
 'Dining and Drinking > Food Stand']",b'\x00\x00\x00\x00\x01\xc0X\xcc\xf0\xf3\xf8p\xeb@3N\n\xc652G',"{'xmin': -99.20220660459351, 'ymin': 19.30485190199604, 'xmax': -99.20220660459351, 'ymax': 19.30485190199604}","dining and drinking > restaurant > mexican restaurant > taco restaurant, dining and drinking > food stand",1
5661de51498e184c55d8cc2b,Tacos y Gorditas,19.26356,-99.53835,,,,,,,,MX,2015-12-04,2021-08-10,,,,,,,,['4bf58dd8d48988d151941735'],['Dining and Drinking > Restaurant > Mexican Restaurant > Taco Restaurant'],b'\x00\x00\x00\x00\x01\xc0X\xe2tS\x8e\xf3M@3Cx\xab\x0c\x88\xa4',"{'xmin': -99.53835, 'ymin': 19.26356, 'xmax': -99.53835, 'ymax': 19.26356}",dining and drinking > restaurant > mexican restaurant > taco restaurant,1
51809317498e1c09cd9acd72,Taqueria El Caras,18.80053225932383,-97.1847744851124,Avenida Hidalgo,Ciudad Mendoza,Veracruz,,,,,MX,2013-05-01,2020-11-25,,,,,,,,['4bf58dd8d48988d151941735'],['Dining and Drinking > Restaurant > Mexican Restaurant > Taco Restaurant'],b'\x00\x00\x00\x00\x01\xc0XK\xd3X\\\xacZ@2\xcc\xef\xae\xa10X',"{'xmin': -97.1847744851124, 'ymin': 18.80053225932383, 'xmax': -97.1847744851124, 'ymax': 18.80053225932383}",dining and drinking > restaurant > mexican restaurant > taco restaurant,1
4f80c8dde4b0e533acb005f8,La Bodeguita,16.840329,-99.912732,,,,,,,,MX,2012-04-07,2023-12-19,,744 486 1541,,,,,,['4bf58dd8d48988d151941735'],['Dining and Drinking > Restaurant > Mexican Restaurant > Taco Restaurant'],b'\x00\x00\x00\x00\x01\xc0X\xfaj3z\x80\xd0@0\xd7\x1f\xcd$\xe1a',"{'xmin': -99.912732, 'ymin': 16.840329, 'xmax': -99.912732, 'ymax': 16.840329}",dining and drinking > restaurant > mexican restaurant > taco restaurant,1
4e30dc25fa76e3c907942a5d,Taqueria El Pino,18.644020398539862,-99.2088862579029,,Zacatepec de Hidalgo,Morelos,,,,,MX,2011-07-28,2023-12-20,,734 120 4024,,,,,,['4bf58dd8d48988d151941735'],['Dining and Drinking > Restaurant > Mexican Restaurant > Taco Restaurant'],b'\x00\x00\x00\x00\x01\xc0X\xcd^dw\x91\xb7@2\xa4\xde\x85U\xaf\x83',"{'xmin': -99.2088862579029, 'ymin': 18.644020398539862, 'xmax': -99.2088862579029, 'ymax': 18.644020398539862}",dining and drinking > restaurant > mexican restaurant > taco restaurant,1
5615ef2c498e04296c11658e,"Taqueria ""El Piñas""",19.24605662755843,-99.07923700673197,,,,,,,,MX,2015-10-08,2021-08-10,,,,,,,,['4bf58dd8d48988d151941735'],['Dining and Drinking > Restaurant > Mexican Restaurant > Taco Restaurant'],"b'\x00\x00\x00\x00\x01\xc0X\xc5\x128\x18""\xfe@3>\xfd\x910S\xd8'","{'xmin': -99.07923700673197, 'ymin': 19.24605662755843, 'xmax': -99.07923700673197, 'ymax': 19.24605662755843}",dining and drinking > restaurant > mexican restaurant > taco restaurant,1
62fff34bc103ce5bf2e57e45,Carnitas,19.27685,-99.605842,,Casa Blanca,Mexico,52175,,,,MX,2022-08-19,2022-08-19,,,,,,,,['4bf58dd8d48988d151941735'],['Dining and Drinking > Restaurant > Mexican Restaurant > Taco Restaurant'],"b'\x00\x00\x00\x00\x01\xc0X\xe6\xc6\x1d\x86""\xc4@3F\xdf\xa4?\xe5\xc9'","{'xmin': -99.605842, 'ymin': 19.27685, 'xmax': -99.605842, 'ymax': 19.27685}",dining and drinking > restaurant > mexican restaurant > taco restaurant,1
4e99049b6c252a15c14251f0,Tacos Jimmy,18.832145,-96.796546,,Yanga,Veracruz-Llave,,,,,MX,2011-10-15,2020-11-26,,,,,,,,['4bf58dd8d48988d151941735'],['Dining and Drinking > Restaurant > Mexican Restaurant > Taco Restaurant'],b'\x00\x00\x00\x00\x01\xc0X2\xfa\x9c\x12\xf0\x9e@2\xd5\x07th\x87\xa9',"{'xmin': -96.796546, 'ymin': 18.832145, 'xmax': -96.796546, 'ymax': 18.832145}",dining and drinking > restaurant > mexican restaurant > taco restaurant,1
557726ba498ea08eba672893,"Cochinita Pibil ""Suyi""",19.285276457484073,-99.65739094341018,Gomes Farías,Toluca,México,50000,,,,MX,2015-06-09,2020-11-23,,,,,,,,['4bf58dd8d48988d151941735'],['Dining and Drinking > Restaurant > Mexican Restaurant > Taco Restaurant'],b'\x00\x00\x00\x00\x01\xc0X\xea\x12\xb1v\xa8\x88@3I\x07\xe0\xbf6|',"{'xmin': -99.65739094341018, 'ymin': 19.285276457484073, 'xmax': -99.65739094341018, 'ymax': 19.285276457484073}",dining and drinking > restaurant > mexican restaurant > taco restaurant,1
526ca9d211d22cac10bc292c,"Tizon ""primos""",18.773462,-95.762384,,,,,,,,MX,2013-10-27,2021-08-14,,,,,,,,['4bf58dd8d48988d151941735'],['Dining and Drinking > Restaurant > Mexican Restaurant > Taco Restaurant'],b'\x00\x00\x00\x00\x01\xc0W\xf0\xca\xe6B\xbf\x98@2\xc6\x01\x9b\n\xb2\xe1',"{'xmin': -95.762384, 'ymin': 18.773462, 'xmax': -95.762384, 'ymax': 18.773462}",dining and drinking > restaurant > mexican restaurant > taco restaurant,1
57620f09498e3b6a90c928ba,"Tacos De Suadero  ""Carlos El Villas",19.331316,-99.041214,,,,,,,,MX,2016-06-16,2021-08-10,,,,,,,,['4bf58dd8d48988d151941735'],['Dining and Drinking > Restaurant > Mexican Restaurant > Taco Restaurant'],b'\x00\x00\x00\x00\x01\xc0X\xc2\xa3@\x0b\x88\xca@3T\xd1 \x18\xa4<',"{'xmin': -99.041214, 'ymin': 19.331316, 'xmax': -99.041214, 'ymax': 19.331316}",dining and drinking > restaurant > mexican restaurant > taco restaurant,1
5b920bc5610f04002cb21e06,Tacos El Amigo 2,16.80012,-99.80626,,Acapulco,GRO,39890,,,,MX,2018-09-07,2020-11-22,,,,,,,,['4bf58dd8d48988d151941735'],['Dining and Drinking > Restaurant > Mexican Restaurant > Taco Restaurant'],"b'\x00\x00\x00\x00\x01\xc0X\xf3\x99\xc3\x8b\x04\xab@0\xcc\xd4\xaa\x10\xe0""'","{'xmin': -99.80626, 'ymin': 16.80012, 'xmax': -99.80626, 'ymax': 16.80012}",dining and drinking > restaurant > mexican restaurant > taco restaurant,1
4f60d445e4b0f4b0a39cbf73,tacos del arbolito de la CONAGUA,17.533287048339844,-99.4935073852539,,,,,,,,MX,2012-03-14,2021-08-16,,,,,,,,['4bf58dd8d48988d151941735'],['Dining and Drinking > Restaurant > Mexican Restaurant > Taco Restaurant'],b'\x00\x00\x00\x00\x01\xc0X\xdf\x95\xa0\x00\x00\x00@1\x88\x85\x80\x00\x00\x00',"{'xmin': -99.4935073852539, 'ymin': 17.533287048339844, 'xmax': -99.4935073852539, 'ymax': 17.533287048339844}",dining and drinking > restaurant > mexican restaurant > taco restaurant,1
4fd2dd9be4b06383cc0422d8,Taqueria El Bigotaco,19.416844520084766,-102.04340986197926,,,,,,,,MX,2012-06-09,2021-08-15,,,,,,,,['4bf58dd8d48988d151941735'],['Dining and Drinking > Restaurant > Mexican Restaurant > Taco Restaurant'],b'\x00\x00\x00\x00\x01\xc0Y\x82\xc7:(a\x96@3j\xb6R\x8dG\xe8',"{'xmin': -102.04340986197926, 'ymin': 19.416844520084766, 'xmax': -102.04340986197926, 'ymax': 19.416844520084766}",dining and drinking > restaurant > mexican restaurant > taco restaurant,1
51e174a3498e3b69574c6089,Antojitos Sarita,19.053355,-99.241503,,,,,,,,MX,2013-07-13,2021-08-13,,,,,,,,['4bf58dd8d48988d151941735'],['Dining and Drinking > Restaurant > Mexican Restaurant > Taco Restaurant'],b'\x00\x00\x00\x00\x01\xc0X\xcft\xc8\xff\xb8\xb2@3\r\xa8\xac\\\x13\xfd',"{'xmin': -99.241503, 'ymin': 19.053355, 'xmax': -99.241503, 'ymax': 19.053355}",dining and drinking > restaurant > mexican restaurant > taco restaurant,1
57144d1c498ea53db685edcd,Taquería El Rubí,18.08679016129952,-96.16097109066192,,,,,,,,MX,2016-04-18,2021-08-17,,,,,,,,['4bf58dd8d48988d151941735'],['Dining and Drinking > Restaurant > Mexican Restaurant > Taco Restaurant'],b'\x00\x00\x00\x00\x01\xc0X\nMY\xb0\x7f\xa4@2\x167\xe1He`',"{'xmin': -96.16097109066192, 'ymin': 18.08679016129952, 'xmax': -96.16097109066192, 'ymax': 18.08679016129952}",dining and drinking > restaurant > mexican restaurant > taco restaurant,1
526ff6c711d2b947d4612c22,"Carnitas Guanajuatenses ""La luz""",17.079290306711332,-96.70475527720171,,,,,,,,MX,2013-10-29,2021-08-15,,,,,,,,['4bf58dd8d48988d151941735'],['Dining and Drinking > Restaurant > Mexican Restaurant > Taco Restaurant'],b'\x00\x00\x00\x00\x01\xc0X-\x1a\xb5\xe0\xd0\xf2@1\x14L^\x9a7\t',"{'xmin': -96.70475527720171, 'ymin': 17.079290306711332, 'xmax': -96.70475527720171, 'ymax': 17.079290306711332}",dining and drinking > restaurant > mexican restaurant > taco restaurant,1
5402038b498ed36cb8cf6661,"TAQUITOS ""BETOS""",19.265398478732386,-99.64867295925532,Calle Manuel Doblado,Toluca,Mexico,50180,,,,MX,2014-08-30,2020-11-23,,,,,,,,['4bf58dd8d48988d151941735'],['Dining and Drinking > Restaurant > Mexican Restaurant > Taco Restaurant'],"b""\x00\x00\x00\x00\x01\xc0X\xe9\x83\xdb\x96sF@3C\xf1'\x9a\x90R""","{'xmin': -99.64867295925532, 'ymin': 19.265398478732386, 'xmax': -99.64867295925532, 'ymax': 19.265398478732386}",dining and drinking > restaurant > mexican restaurant > taco restaurant,1
4e97400b7ee65b1674e1f4ed,Los Tacos del Chavo,20.56264618155203,-103.27915727799184,,San José El Verde,Jalisco,,,,,MX,2011-10-13,2020-11-22,,,,,,,,['4bf58dd8d48988d151941735'],['Dining and Drinking > Restaurant > Mexican Restaurant > Taco Restaurant'],b'\x00\x00\x00\x00\x01\xc0Y\xd1\xdd\xb6|\xda\x95@4\x90\t\x94\x84\xfc9',"{'xmin': -103.27915727799184, 'ymin': 20.56264618155203, 'xmax': -103.27915727799184, 'ymax': 20.56264618155203}",dining and drinking > restaurant > mexican restaurant > taco restaurant,1
50a02f83e4b0c6336ed1f076,Antojitos Mexicanos Doña Lupita,18.993739,-99.099929,,,,,,,,MX,2012-11-11,2021-08-17,,,,,,,,['4bf58dd8d48988d151941735'],['Dining and Drinking > Restaurant > Mexican Restaurant > Taco Restaurant'],b'\x00\x00\x00\x00\x01\xc0X\xc6e<\x9a\xbb\x02@2\xfee\xad\xd9\xc2\x7f',"{'xmin': -99.099929, 'ymin': 18.993739, 'xmax': -99.099929, 'ymax': 18.993739}",dining and drinking > restaurant > mexican restaurant > taco restaurant,1
543d4fe3498ead5eaf5e177d,Taquería Súper Tacos,19.157163,-96.19617,,,,,,,,MX,2014-10-14,2020-11-25,,,,,,,,['4bf58dd8d48988d151941735'],['Dining and Drinking > Restaurant > Mexican Restaurant > Taco Restaurant'],b'\x00\x00\x00\x00\x01\xc0X\x0c\x8e\x0c\x9d\x9d4@3(;\xd5\x99$)',"{'xmin': -96.19617, 'ymin': 19.157163, 'xmax': -96.19617, 'ymax': 19.157163}",dining and drinking > restaurant > mexican restaurant > taco restaurant,1
54d44cbf498ea948f5fdec94,El Fogon,19.315778579080852,-99.06903347977068,,,,,,,,MX,2015-02-06,2021-08-12,,,,,,,,['4bf58dd8d48988d151941735'],['Dining and Drinking > Restaurant > Mexican Restaurant > Taco Restaurant'],b'\x00\x00\x00\x00\x01\xc0X\xc4k\x0bf|m@3P\xd6\xddm\xed\xfb',"{'xmin': -99.06903347977068, 'ymin': 19.315778579080852, 'xmax': -99.06903347977068, 'ymax': 19.315778579080852}",dining and drinking > restaurant > mexican restaurant > taco restaurant,1
4f499a2ee4b092e0ca2c8ef6,Los Cavernícolas,19.2507266998291,-99.60875701904297,,,,,,,,MX,2012-02-26,2021-08-11,,,,,,,,['4bf58dd8d48988d151941735'],['Dining and Drinking > Restaurant > Mexican Restaurant > Taco Restaurant'],b'\x00\x00\x00\x00\x01\xc0X\xe6\xf5\xe0\x00\x00\x00@3@/\xa0\x00\x00\x00',"{'xmin': -99.60875701904297, 'ymin': 19.2507266998291, 'xmax': -99.60875701904297, 'ymax': 19.2507266998291}",dining and drinking > restaurant > mexican restaurant > taco restaurant,1
6077ae31e04c4d3be44c14de,Taqueria Los Molcas,15.851418,-97.05288,,Brisas de Zicatela,OAX,70934,,,,MX,2021-04-15,2021-04-15,,,,,,,,['4bf58dd8d48988d151941735'],['Dining and Drinking > Restaurant > Mexican Restaurant > Taco Restaurant'],b'\x00\x00\x00\x00\x01\xc0XCbb\xcb\xa73@/\xb3\xed\x0fbs\x93',"{'xmin': -97.05288, 'ymin': 15.851418, 'xmax': -97.05288, 'ymax': 15.851418}",dining and drinking > restaurant > mexican restaurant > taco restaurant,1
4c30bef9ed37a593a44c6903,El Chivo II,19.167798643574177,-96.11772124425178,Mar Baltico,Boca del Rio,Veracruz,,,,,MX,2010-07-04,2020-11-23,,,,,,,,['4bf58dd8d48988d1c1941735' '4bf58dd8d48988d151941735'],"['Dining and Drinking > Restaurant > Mexican Restaurant'
 'Dining and Drinking > Restaurant > Mexican Restaurant > Taco Restaurant']",b'\x00\x00\x00\x00\x01\xc0X\x07\x88\xbe\xaf\x86\xc6@3*\xf4\xda\x16v\xd9',"{'xmin': -96.11772124425178, 'ymin': 19.167798643574177, 'xmax': -96.11772124425178, 'ymax': 19.167798643574177}","dining and drinking > restaurant > mexican restaurant, dining and drinking > restaurant > mexican restaurant > taco restaurant",1
5d3b63edf2d14000071af31f,Cochipodromo,19.328798,-99.17376,Avenida Antonio delfín Madrigal 58 (adentro de la Madriguera),,,,,,,MX,2019-07-26,2021-08-13,,,,,,,,['4bf58dd8d48988d151941735'],['Dining and Drinking > Restaurant > Mexican Restaurant > Taco Restaurant'],"b'\x00\x00\x00\x00\x01\xc0X\xcb\x1e\xe2CV\x97@3T,\x1b\x10\xfd~'","{'xmin': -99.17376, 'ymin': 19.328798, 'xmax': -99.17376, 'ymax': 19.328798}",dining and drinking > restaurant > mexican restaurant > taco restaurant,1
5261dcb0498e6872a9fa3162,Ricos tacos al carbón,19.304524,-99.059981,Av. Tlahuac,,,,,,,MX,2013-10-19,2021-08-14,,,,,,,,['4bf58dd8d48988d151941735'],['Dining and Drinking > Restaurant > Mexican Restaurant > Taco Restaurant'],b'\x00\x00\x00\x00\x01\xc0X\xc3\xd6\xba\x8cXh@3M\xf5H\xec\xd8\xdc',"{'xmin': -99.059981, 'ymin': 19.304524, 'xmax': -99.059981, 'ymax': 19.304524}",dining and drinking > restaurant > mexican restaurant > taco restaurant,1
57c62333498ec4bf407793a3,"Taquería ""Los Farolitos""",18.09277,-96.108706,,,,,,,,MX,2016-08-31,2020-11-22,,,,,,,,['4bf58dd8d48988d151941735'],['Dining and Drinking > Restaurant > Mexican Restaurant > Taco Restaurant'],b'\x00\x00\x00\x00\x01\xc0X\x06\xf5\n\x02\xb8A@2\x17\xbf\xc6T\x0c\xc8',"{'xmin': -96.108706, 'ymin': 18.09277, 'xmax': -96.108706, 'ymax': 18.09277}",dining and drinking > restaurant > mexican restaurant > taco restaurant,1
5414f716498e522008553503,Taquería Angel,17.105001169234832,-96.76560330217815,,,,,,,,MX,2014-09-14,2021-08-12,,,,,,,,['4bf58dd8d48988d151941735'],['Dining and Drinking > Restaurant > Mexican Restaurant > Taco Restaurant'],b'\x00\x00\x00\x00\x01\xc0X0\xff\xa4\xfe$%@1\x1a\xe1[K\xe7\xc6',"{'xmin': -96.76560330217815, 'ymin': 17.105001169234832, 'xmax': -96.76560330217815, 'ymax': 17.105001169234832}",dining and drinking > restaurant > mexican restaurant > taco restaurant,1
5af85bb4a0215b002cc054be,Barbacoa Wuicho,19.308019,-99.163542,,Mexico City,CDMX,04660,,,,MX,2018-05-13,2020-11-22,,,,,,,,['4bf58dd8d48988d151941735'],['Dining and Drinking > Restaurant > Mexican Restaurant > Taco Restaurant'],b'\x00\x00\x00\x00\x01\xc0X\xcawx\xddap@3N\xdaUK\x8b\xf0',"{'xmin': -99.163542, 'ymin': 19.308019, 'xmax': -99.163542, 'ymax': 19.308019}",dining and drinking > restaurant > mexican restaurant > taco restaurant,1
4c206c05e923ef3b60ec4e54,Los Pioneros,19.978395504003053,-102.28266656398773,Martínez de Navarrete 320,Zamora,México,56960,,,,MX,2010-06-22,2020-11-23,,351 515 8190,,,,,,['4bf58dd8d48988d1c1941735' '4bf58dd8d48988d151941735'],"['Dining and Drinking > Restaurant > Mexican Restaurant'
 'Dining and Drinking > Restaurant > Mexican Restaurant > Taco Restaurant']",b'\x00\x00\x00\x00\x01\xc0Y\x92\x175\x80\x00\x00@3\xfax \xb4?\x1e',"{'xmin': -102.28266656398773, 'ymin': 19.978395504003053, 'xmax': -102.28266656398773, 'ymax': 19.978395504003053}","dining and drinking > restaurant > mexican restaurant, dining and drinking > restaurant > mexican restaurant > taco restaurant",1
