fsq_place_id,name,latitude,longitude,address,locality,region,postcode,admin_region,post_town,po_box,country,date_created,date_refreshed,date_closed,tel,website,email,facebook_id,instagram,twitter,fsq_category_ids,fsq_category_labels,geom,bbox,labels_str,taco_restaurant
517f076d498ee8a7d6b56a0b,Tacos De Pescado Los Globos,31.866223,-116.602369,Los Globos,Ensenada,B.C.,22840,,,,MX,2013-04-29,2020-11-22,,,,,,,,['4bf58dd8d48988d151941735'],['Dining and Drinking > Restaurant > Mexican Restaurant > Taco Restaurant'],b'\x00\x00\x00\x00\x01\xc0]&\x8d6\xb4\xc7\xf3@?\xdd\xc0\xca`\x0b\x03',"{'xmin': -116.602369, 'ymin': 31.866223, 'xmax': -116.602369, 'ymax': 31.866223}",dining and drinking > restaurant > mexican restaurant > taco restaurant,1
5247445811d2708ad0cad063,Tacos Sicodelicos RACING,31.851909637451172,-116.58963012695312,,,,,,,,MX,2013-09-28,2021-08-13,,,,,,,,['4bf58dd8d48988d151941735'],['Dining and Drinking > Restaurant > Mexican Restaurant > Taco Restaurant'],b'\x00\x00\x00\x00\x01\xc0]%\xbc\x80\x00\x00\x00@?\xda\x16\xc0\x00\x00\x00',"{'xmin': -116.58963012695312, 'ymin': 31.851909637451172, 'xmax': -116.58963012695312, 'ymax': 31.851909637451172}",dining and drinking > restaurant > mexican restaurant > taco restaurant,1
4ffbae7ee4b08c8c54aa80aa,Asadero Los Cuates,32.476274,-114.75661,,,,,,,,MX,2012-07-10,2023-12-20,,653 530 0000,,,,,,['4bf58dd8d48988d151941735'],['Dining and Drinking > Restaurant > Mexican Restaurant > Taco Restaurant'],b'\x00\x00\x00\x00\x01\xc0\\\xb0lLYt\xe6@@<\xf6\x8b\xe2\xf7\xb1',"{'xmin': -114.75661, 'ymin': 32.476274, 'xmax': -114.75661, 'ymax': 32.476274}",dining and drinking > restaurant > mexican restaurant > taco restaurant,1
4f258539e4b047657acbec7a,Birriería Chuy,32.48463338220175,-116.93860626909496,,Tijuana,Baja California,,,,,MX,2012-01-29,2020-11-25,,,,,,,,['4bf58dd8d48988d151941735'],['Dining and Drinking > Restaurant > Mexican Restaurant > Taco Restaurant'],b'\x00\x00\x00\x00\x01\xc0]<\x12 \x07eW@@>\x08ww\x8d\x9e',"{'xmin': -116.93860626909496, 'ymin': 32.48463338220175, 'xmax': -116.93860626909496, 'ymax': 32.48463338220175}",dining and drinking > restaurant > mexican restaurant > taco restaurant,1
5de368e9c46a6e0008a981b5,Asadero Los Tacones,32.628006,-115.444838,,Mexicali,BC,21285,,,,MX,2019-12-01,2020-11-22,,,,,,,,['4bf58dd8d48988d151941735'],['Dining and Drinking > Restaurant > Mexican Restaurant > Taco Restaurant'],"b""\x00\x00\x00\x00\x01\xc0\\\xdcx9\xcd\x81(@@Pb\x80'\xd8\x8c""","{'xmin': -115.444838, 'ymin': 32.628006, 'xmax': -115.444838, 'ymax': 32.628006}",dining and drinking > restaurant > mexican restaurant > taco restaurant,1
5076e3cde4b024f6d605c20b,Burros Cadillac,31.783037185668945,-116.59043884277344,,,,,,,,MX,2012-10-11,2021-08-23,,,,,,,,['4bf58dd8d48988d151941735'],['Dining and Drinking > Restaurant > Mexican Restaurant > Taco Restaurant'],b'\x00\x00\x00\x00\x01\xc0]%\xc9\xc0\x00\x00\x00@?\xc8u \x00\x00\x00',"{'xmin': -116.59043884277344, 'ymin': 31.783037185668945, 'xmax': -116.59043884277344, 'ymax': 31.783037185668945}",dining and drinking > restaurant > mexican restaurant > taco restaurant,1
57f3c065498eb98d1c73006b,Luigie Guisados,31.86495,-116.609726,,Ensenada,Baja California,,,,,MX,2016-10-04,2020-11-25,,,,,,,,['4bf58dd8d48988d151941735'],['Dining and Drinking > Restaurant > Mexican Restaurant > Taco Restaurant'],"b""\x00\x00\x00\x00\x01\xc0]'\x05\xc03aV@?\xddm\\\xfa\xac\xda""","{'xmin': -116.609726, 'ymin': 31.86495, 'xmax': -116.609726, 'ymax': 31.86495}",dining and drinking > restaurant > mexican restaurant > taco restaurant,1
4e3dfbda1fc7f3d8d476210a,Mr.Taco,31.866214126035807,-116.60642981529236,calle 9,Ensenada,Baja California,22840,,,,MX,2011-08-07,2023-12-19,,646 127 4037,,,,,,['4bf58dd8d48988d151941735' '4bf58dd8d48988d1c1941735'],"['Dining and Drinking > Restaurant > Mexican Restaurant > Taco Restaurant'
 'Dining and Drinking > Restaurant > Mexican Restaurant']",b'\x00\x00\x00\x00\x01\xc0]&\xcf\xbf\x00\x00\x00@?\xdd\xc05~\xa82',"{'xmin': -116.60642981529236, 'ymin': 31.866214126035807, 'xmax': -116.60642981529236, 'ymax': 31.866214126035807}","dining and drinking > restaurant > mexican restaurant > taco restaurant, dining and drinking > restaurant > mexican restaurant",1
590790e8cab41062319aecbf,Tacos Lolita,32.492947,-116.97066,,Tijuana,Baja California,,,,,MX,2017-05-01,2020-11-22,,,,,,,,['4bf58dd8d48988d151941735'],['Dining and Drinking > Restaurant > Mexican Restaurant > Taco Restaurant'],b'\x00\x00\x00\x00\x01\xc0]>\x1fK\x1e\xe2C@@?\x18\xe3%\xd4\xa6',"{'xmin': -116.97066, 'ymin': 32.492947, 'xmax': -116.97066, 'ymax': 32.492947}",dining and drinking > restaurant > mexican restaurant > taco restaurant,1
5da94487eda24b0008f3a5d7,El Zarpazo (Loyola),31.834232,-116.605774,,Ensenada,Baja California,22890,,,,MX,2019-10-18,2020-11-23,,,,,,,,['4bf58dd8d48988d151941735'],['Dining and Drinking > Restaurant > Mexican Restaurant > Taco Restaurant'],b'\x00\x00\x00\x00\x01\xc0]&\xc5\x00O\xb1\x18@?\xd5\x90:uF\xd4',"{'xmin': -116.605774, 'ymin': 31.834232, 'xmax': -116.605774, 'ymax': 31.834232}",dining and drinking > restaurant > mexican restaurant > taco restaurant,1
4de59d8b52b16c61fe39aaf8,Tacos De La Lico,20.680048,-103.290349,Jose Ma. Iglecias,,,,,,,MX,2011-06-01,2021-08-11,,,,,,,,['4bf58dd8d48988d151941735'],['Dining and Drinking > Restaurant > Mexican Restaurant > Taco Restaurant'],b'\x00\x00\x00\x00\x01\xc0Y\xd2\x95\x13\xf8\xdbI@4\xae\x17\xa0/\xb5\xd0',"{'xmin': -103.290349, 'ymin': 20.680048, 'xmax': -103.290349, 'ymax': 20.680048}",dining and drinking > restaurant > mexican restaurant > taco restaurant,1
4e380953d164374eb68c6c09,"Taquitos al Vapor ""El Callejero""",21.87265217681317,-102.29178951767277,Valentín Gómez Farias,Aguascalientes,Aguascalientes,,,,,MX,2011-08-02,2020-11-30,,,,,,,,['4bf58dd8d48988d151941735'],['Dining and Drinking > Restaurant > Mexican Restaurant > Taco Restaurant'],"b'\x00\x00\x00\x00\x01\xc0Y\x92\xac\xad\xf0\xee\x17@5\xdff""\x102\x1e'","{'xmin': -102.29178951767277, 'ymin': 21.87265217681317, 'xmax': -102.29178951767277, 'ymax': 21.87265217681317}",dining and drinking > restaurant > mexican restaurant > taco restaurant,1
54e81820498edbb9644f2b27,"Órdenes Mario's de Bistec, Adobada y Chorizo",20.63515,-103.31174,Progreso,,,,,,,MX,2015-02-21,2021-08-12,,,,,,,,['4bf58dd8d48988d151941735'],['Dining and Drinking > Restaurant > Mexican Restaurant > Taco Restaurant'],b'\x00\x00\x00\x00\x01\xc0Y\xd3\xf3\x8cT6\xb9@4\xa2\x990\xbe\r\xed',"{'xmin': -103.31174, 'ymin': 20.63515, 'xmax': -103.31174, 'ymax': 20.63515}",dining and drinking > restaurant > mexican restaurant > taco restaurant,1
56a42007498e0e513a72e8fb,El Revolucionario,22.132755333542914,-101.03324739941542,Sierra Vista #760 Local 1 Planta Baja,San Luis Potosí,San Luis Potosí,,,,,MX,2016-01-24,2020-11-25,,,,,,,,['4bf58dd8d48988d151941735'],['Dining and Drinking > Restaurant > Mexican Restaurant > Taco Restaurant'],b'\x00\x00\x00\x00\x01\xc0YB \xb9\xb3J\xa4@6!\xfc@\xe7\xef\xb7',"{'xmin': -101.03324739941542, 'ymin': 22.132755333542914, 'xmax': -101.03324739941542, 'ymax': 22.132755333542914}",dining and drinking > restaurant > mexican restaurant > taco restaurant,1
4fa93a01e4b04e4b06b76399,Tacos Beto Muuuuy Ricos,20.687374,-103.376825,Eulogio Parra 2380,Guadalajara,Jalisco,,,,,MX,2012-05-08,2021-08-12,,,,,,,,['4bf58dd8d48988d151941735'],['Dining and Drinking > Restaurant > Mexican Restaurant > Taco Restaurant'],"b'\x00\x00\x00\x00\x01\xc0Y\xd8\x1d\xe6\x9a\xd4,@4\xaf\xf7\xbe\x12\x1e\xe6'","{'xmin': -103.376825, 'ymin': 20.687374, 'xmax': -103.376825, 'ymax': 20.687374}",dining and drinking > restaurant > mexican restaurant > taco restaurant,1
5d6c7771e1edd60008458c7d,Taqueria Machetes,20.677298,-103.39081,Golfo de Cortes 2960,Guadalajara,Jalisco,44690,,,,MX,2019-09-02,2021-08-11,,,,,,,,['4bf58dd8d48988d151941735'],['Dining and Drinking > Restaurant > Mexican Restaurant > Taco Restaurant'],b'\x00\x00\x00\x00\x01\xc0Y\xd9\x03\x07\xf2<\xc9@4\xadcf\xd7\xa5n',"{'xmin': -103.39081, 'ymin': 20.677298, 'xmax': -103.39081, 'ymax': 20.677298}",dining and drinking > restaurant > mexican restaurant > taco restaurant,1
63489d4cfe18f72e926471fb,Don Miguelón,20.589054,-103.44479,,Palomar,Jalisco,45643,,,,MX,2022-10-13,2022-10-13,,,,,,,,['4bf58dd8d48988d151941735'],['Dining and Drinking > Restaurant > Mexican Restaurant > Taco Restaurant'],b'\x00\x00\x00\x00\x01\xc0Y\xdcwpy\xe5\x9f@4\x96\xcc>1\x93\xf7',"{'xmin': -103.44479, 'ymin': 20.589054, 'xmax': -103.44479, 'ymax': 20.589054}",dining and drinking > restaurant > mexican restaurant > taco restaurant,1
51282aa6e4b0fd50ad380ca4,Los Griles,20.6568523367622,-103.4235092997551,Av. Manuel J Clouthier 1346,Zapopan,Jalisco,45030,,,,MX,2013-02-23,2020-11-30,,33 1538 0820,,,,,losgriles,['4bf58dd8d48988d151941735' '4bf58dd8d48988d1df931735'],"['Dining and Drinking > Restaurant > Mexican Restaurant > Taco Restaurant'
 'Dining and Drinking > Restaurant > BBQ Joint']","b""\x00\x00\x00\x00\x01\xc0Y\xdb\x1a\xc6\xc0\x00\x00@4\xa8'y\x88\xb1\xe0""","{'xmin': -103.4235092997551, 'ymin': 20.6568523367622, 'xmax': -103.4235092997551, 'ymax': 20.6568523367622}","dining and drinking > restaurant > mexican restaurant > taco restaurant, dining and drinking > restaurant > bbq joint",1
502442a7e4b0f454b914a218,Tacos El Charrasco,21.24601562086955,-102.33242028262184,,,,,,,,MX,2012-08-09,2021-08-16,,,,,,,,['4bf58dd8d48988d151941735'],['Dining and Drinking > Restaurant > Mexican Restaurant > Taco Restaurant'],b'\x00\x00\x00\x00\x01\xc0Y\x95F_\xb8\x98\xd3@5>\xfa\xe15\xf0\x9a',"{'xmin': -102.33242028262184, 'ymin': 21.24601562086955, 'xmax': -102.33242028262184, 'ymax': 21.24601562086955}",dining and drinking > restaurant > mexican restaurant > taco restaurant,1
4f656700e4b0ce431e12af9b,Taqueria Jalisco,22.16242443169114,-100.96283779629175,,,,,,,,MX,2012-03-18,2021-08-13,,,,,,,,['4bf58dd8d48988d151941735'],['Dining and Drinking > Restaurant > Mexican Restaurant > Taco Restaurant'],"b'\x00\x00\x00\x00\x01\xc0Y=\x9f""k\x9b@@6)\x94\xa5\xc6/Q'","{'xmin': -100.96283779629175, 'ymin': 22.16242443169114, 'xmax': -100.96283779629175, 'ymax': 22.16242443169114}",dining and drinking > restaurant > mexican restaurant > taco restaurant,1
53211c19498eb588c98d0d84,Taco Way,20.669194169674846,-103.42952874483582,Av. Beethoven,,,,,,,MX,2014-03-13,2021-08-11,,,,,,,,['4bf58dd8d48988d151941735'],['Dining and Drinking > Restaurant > Mexican Restaurant > Taco Restaurant'],b'\x00\x00\x00\x00\x01\xc0Y\xdb}f!\xf0\xc1@4\xabPO!mf',"{'xmin': -103.42952874483582, 'ymin': 20.669194169674846, 'xmax': -103.42952874483582, 'ymax': 20.669194169674846}",dining and drinking > restaurant > mexican restaurant > taco restaurant,1
4f9ad465e4b0d2bd61cc5232,Los Tacuches,20.68731589162593,-103.37645541792735,,,,,,,,MX,2012-04-27,2021-08-13,,,,,,,,['4bf58dd8d48988d151941735' '4bf58dd8d48988d1df931735'],"['Dining and Drinking > Restaurant > Mexican Restaurant > Taco Restaurant'
 'Dining and Drinking > Restaurant > BBQ Joint']","b'\x00\x00\x00\x00\x01\xc0Y\xd8\x17\xd8w\x19\x99@4\xaf\xf3\xef,\x8d\xf0'","{'xmin': -103.37645541792735, 'ymin': 20.68731589162593, 'xmax': -103.37645541792735, 'ymax': 20.68731589162593}","dining and drinking > restaurant > mexican restaurant > taco restaurant, dining and drinking > restaurant > bbq joint",1
56ce5fa9cd103e325100d22b,Pa'los Tacos!,20.645598,-103.373108,Isla Palos Esquina Peru,Guadalajara,Jalisco,,,,,MX,2016-02-25,2021-08-15,,,,,,,,['4bf58dd8d48988d151941735'],['Dining and Drinking > Restaurant > Mexican Restaurant > Taco Restaurant'],b'\x00\x00\x00\x00\x01\xc0Y\xd7\xe1\x00`x\x10@4\xa5E\xe9\x18\\\xee',"{'xmin': -103.373108, 'ymin': 20.645598, 'xmax': -103.373108, 'ymax': 20.645598}",dining and drinking > restaurant > mexican restaurant > taco restaurant,1
55c6f33f498eff6d61951b83,Tacos Don Efras,20.127845764160156,-101.18013000488281,,,,,,,,MX,2015-08-09,2021-08-11,,,,,,,,['4bf58dd8d48988d151941735'],['Dining and Drinking > Restaurant > Mexican Restaurant > Taco Restaurant'],b'\x00\x00\x00\x00\x01\xc0YK\x87@\x00\x00\x00@4 \xba\x80\x00\x00\x00',"{'xmin': -101.18013000488281, 'ymin': 20.127845764160156, 'xmax': -101.18013000488281, 'ymax': 20.127845764160156}",dining and drinking > restaurant > mexican restaurant > taco restaurant,1
59849fc6db1d816c641c9669,Tacos De Barbacoa Meche,20.635426,-103.37349,,Guadalajara,Jalisco,44960,,,,MX,2017-08-04,2021-08-11,,,,,,,,['4bf58dd8d48988d151941735'],['Dining and Drinking > Restaurant > Mexican Restaurant > Taco Restaurant'],b'\x00\x00\x00\x00\x01\xc0Y\xd7\xe7B\x99\xd8\x84@4\xa2\xabGA\x071',"{'xmin': -103.37349, 'ymin': 20.635426, 'xmax': -103.37349, 'ymax': 20.635426}",dining and drinking > restaurant > mexican restaurant > taco restaurant,1
5239c1f811d28cf9547c2cec,Tacos De Barbacoa El Güero S.L.P. (Los De Beny),22.103328176038186,-100.95725316517533,,,,,,,,MX,2013-09-18,2021-08-11,,,,,,,,['4bf58dd8d48988d151941735'],['Dining and Drinking > Restaurant > Mexican Restaurant > Taco Restaurant'],b'\x00\x00\x00\x00\x01\xc0Y=C\xa2\xc7\x9a\xea@6\x1as\xb7 \xd6\xdf',"{'xmin': -100.95725316517533, 'ymin': 22.103328176038186, 'xmax': -100.95725316517533, 'ymax': 22.103328176038186}",dining and drinking > restaurant > mexican restaurant > taco restaurant,1
5925c35266f3cd52178d5ec1,Taquería El Güero,20.66361601552128,-103.4309309720993,San Luis Gonzaga 635-A,Arcos de Guadalupe,"Zapopan, Jalisco",45037,,,,MX,2017-05-24,2020-11-22,2017-09-09,33 2302 0787,,,,,,['4bf58dd8d48988d151941735'],['Dining and Drinking > Restaurant > Mexican Restaurant > Taco Restaurant'],b'\x00\x00\x00\x00\x01\xc0Y\xdb\x94_\x80\x00\x00@4\xa9\xe2\xbd;\xc4\x07',"{'xmin': -103.4309309720993, 'ymin': 20.66361601552128, 'xmax': -103.4309309720993, 'ymax': 20.66361601552128}",dining and drinking > restaurant > mexican restaurant > taco restaurant,1
54baa725498ec165df9a54ca,Tacos Lore,20.64841371892922,-103.70673058524874,,,,,,,,MX,2015-01-17,2021-08-12,,,,,,,,['4bf58dd8d48988d151941735'],['Dining and Drinking > Restaurant > Mexican Restaurant > Taco Restaurant'],b'\x00\x00\x00\x00\x01\xc0Y\xed;\x12\xeb\xae{@4\xa5\xfeq\x05\x14(',"{'xmin': -103.70673058524874, 'ymin': 20.64841371892922, 'xmax': -103.70673058524874, 'ymax': 20.64841371892922}",dining and drinking > restaurant > mexican restaurant > taco restaurant,1
50e081a7e4b01580a695aba4,"Tacos tuxpeños ""Don Rafa""",19.19754518253188,-103.74691429887777,,,,,,,,MX,2012-12-30,2020-11-21,,,,,,,,['4bf58dd8d48988d151941735'],['Dining and Drinking > Restaurant > Mexican Restaurant > Taco Restaurant'],b'\x00\x00\x00\x00\x01\xc0Y\xef\xcdq\xa1\xa6\x11@32\x92R2t\xef',"{'xmin': -103.74691429887777, 'ymin': 19.19754518253188, 'xmax': -103.74691429887777, 'ymax': 19.19754518253188}",dining and drinking > restaurant > mexican restaurant > taco restaurant,1
500c0074e4b02ee07b846e2b,Tacos Al Vapor,20.606936,-103.401213,,,,,,,,MX,2012-07-22,2021-08-13,,,,,,,,['4bf58dd8d48988d151941735'],['Dining and Drinking > Restaurant > Mexican Restaurant > Taco Restaurant'],b'\x00\x00\x00\x00\x01\xc0Y\xd9\xadyJn\xb9@4\x9b`(^\xc3\xdb',"{'xmin': -103.401213, 'ymin': 20.606936, 'xmax': -103.401213, 'ymax': 20.606936}",dining and drinking > restaurant > mexican restaurant > taco restaurant,1
5033c34be4b0a6a992eb521a,Tacos Leon,21.107148960012246,-101.68747472129351,Vebustiano carranza,Leon,Guanajuato,,,,,MX,2012-08-21,2023-12-20,,477 712 9126,,,,,,['4bf58dd8d48988d151941735'],['Dining and Drinking > Restaurant > Mexican Restaurant > Taco Restaurant'],b'\x00\x00\x00\x00\x01\xc0Yk\xff\x95\xf92\x12@5\x1bn\x1d?\r\x92',"{'xmin': -101.68747472129351, 'ymin': 21.107148960012246, 'xmax': -101.68747472129351, 'ymax': 21.107148960012246}",dining and drinking > restaurant > mexican restaurant > taco restaurant,1
65ed16e79ec58320c9d2b89a,"Taqueria ""El Rincón""",21.118567,-101.68687,,León de los Aldama,Guanajuato,37000,,,,MX,2024-03-10,2024-03-10,,,,,,,,['4bf58dd8d48988d151941735'],['Dining and Drinking > Restaurant > Mexican Restaurant > Taco Restaurant'],b'\x00\x00\x00\x00\x01\xc0Yk\xf5\xad\x96\xa6\xa0@5\x1eZh+b\x84',"{'xmin': -101.68687, 'ymin': 21.118567, 'xmax': -101.68687, 'ymax': 21.118567}",dining and drinking > restaurant > mexican restaurant > taco restaurant,1
5402872c498e6650fc97db9a,Super Taquería Carlota,21.01475528152105,-101.85771205396397,Mercado De Comida,San Francisco Del Rincón,Guanajuato,,,,,MX,2014-08-31,2020-11-24,,,,,,,,['4bf58dd8d48988d151941735'],['Dining and Drinking > Restaurant > Mexican Restaurant > Taco Restaurant'],b'\x00\x00\x00\x00\x01\xc0Yv\xe4\xc1\x19JA@5\x03\xc7\x00\x8b\x93\x81',"{'xmin': -101.85771205396397, 'ymin': 21.01475528152105, 'xmax': -101.85771205396397, 'ymax': 21.01475528152105}",dining and drinking > restaurant > mexican restaurant > taco restaurant,1
637c28df3468f40697996143,El Pinche Taco,21.031579,-101.258193,Plaza San Javier,San Javier,Guanajuato,36020,,,,MX,2022-11-22,2022-11-22,,,,,,,,['4bf58dd8d48988d151941735'],['Dining and Drinking > Restaurant > Mexican Restaurant > Taco Restaurant'],b'\x00\x00\x00\x00\x01\xc0YP\x86;\xee\xc3\x98@5\x08\x15\x8f\xb4=\x8a',"{'xmin': -101.258193, 'ymin': 21.031579, 'xmax': -101.258193, 'ymax': 21.031579}",dining and drinking > restaurant > mexican restaurant > taco restaurant,1
4df5006cb0fb807158c78b27,Gorditas y Quesadillas “La Huerta”,20.578404417791774,-101.20074219413353,Av. Faja de Oro #505,Salamanca,GTO,36740,,,,MX,2011-06-12,2023-12-21,,464 641 5077,,,,,,['4bf58dd8d48988d1c1941735' '4bf58dd8d48988d151941735'],"['Dining and Drinking > Restaurant > Mexican Restaurant'
 'Dining and Drinking > Restaurant > Mexican Restaurant > Taco Restaurant']",b'\x00\x00\x00\x00\x01\xc0YL\xd8\xf5\xc9\xae\xc5@4\x94\x12O\xdaG\x10',"{'xmin': -101.20074219413353, 'ymin': 20.578404417791774, 'xmax': -101.20074219413353, 'ymax': 20.578404417791774}","dining and drinking > restaurant > mexican restaurant, dining and drinking > restaurant > mexican restaurant > taco restaurant",1
4eeadce84690d308260fb470,Tacos Lucio&lucila,20.750047843212787,-105.25497457711752,,,,,,,,MX,2011-12-16,2021-08-12,,,,,,,,['4bf58dd8d48988d151941735'],['Dining and Drinking > Restaurant > Mexican Restaurant > Taco Restaurant'],"b'\x00\x00\x00\x00\x01\xc0ZPQ\x80\xe3\x81\xff@4\xc0\x03""\xad\x08\xc5'","{'xmin': -105.25497457711752, 'ymin': 20.750047843212787, 'xmax': -105.25497457711752, 'ymax': 20.750047843212787}",dining and drinking > restaurant > mexican restaurant > taco restaurant,1
57795877498e5a7c13713d36,Don Meli Birria de Borrego,20.651192,-103.43957,,,,,,,,MX,2016-07-03,2021-08-13,,,,,,,,['4bf58dd8d48988d151941735'],['Dining and Drinking > Restaurant > Mexican Restaurant > Taco Restaurant'],b'\x00\x00\x00\x00\x01\xc0Y\xdc!\xea5\x93`@4\xa6\xb4\x84\xd7j\xb6',"{'xmin': -103.43957, 'ymin': 20.651192, 'xmax': -103.43957, 'ymax': 20.651192}",dining and drinking > restaurant > mexican restaurant > taco restaurant,1
547cc010498e21f8cc4089bd,"tacos quesadillas y mas ""migue""",21.141691207885742,-101.66429901123047,,,,,,,,MX,2014-12-01,2021-08-16,,,,,,,,['4bf58dd8d48988d151941735'],['Dining and Drinking > Restaurant > Mexican Restaurant > Taco Restaurant'],b'\x00\x00\x00\x00\x01\xc0Yj\x83\xe0\x00\x00\x00@5$E\xe0\x00\x00\x00',"{'xmin': -101.66429901123047, 'ymin': 21.141691207885742, 'xmax': -101.66429901123047, 'ymax': 21.141691207885742}",dining and drinking > restaurant > mexican restaurant > taco restaurant,1
4faf65ffe4b08a2bb9b106e8,"Taqueria ""Los Cochinitos""",21.034710050323117,-104.36726039018512,,,,,,,,MX,2012-05-13,2021-08-13,,,,,,,,['4bf58dd8d48988d151941735'],['Dining and Drinking > Restaurant > Mexican Restaurant > Taco Restaurant'],b'\x00\x00\x00\x00\x01\xc0Z\x17\x811\xb9=\x86@5\x08\xe2\xc2\x02\xfa\xf5',"{'xmin': -104.36726039018512, 'ymin': 21.034710050323117, 'xmax': -104.36726039018512, 'ymax': 21.034710050323117}",dining and drinking > restaurant > mexican restaurant > taco restaurant,1
5750fdfd498eba016c1bc7b4,Tacos Romero,22.131616414530562,-100.9854776409711,Coronel Romero 1307,San Luis POTOSÍ,,,,,,MX,2016-06-03,2020-11-25,,,,,,,,['4bf58dd8d48988d151941735'],['Dining and Drinking > Restaurant > Mexican Restaurant > Taco Restaurant'],b'\x00\x00\x00\x00\x01\xc0Y?\x12\x10\xcf\xba?@6!\xb1\x9d\x04\x06\x8a',"{'xmin': -100.9854776409711, 'ymin': 22.131616414530562, 'xmax': -100.9854776409711, 'ymax': 22.131616414530562}",dining and drinking > restaurant > mexican restaurant > taco restaurant,1
516e11fde4b0d8b7d24de270,Tacos Rio Nilo,20.648172,-103.317096,Rio Nilo,Guadalajara,Jalisco,,,,,MX,2013-04-17,2021-08-15,,,,,,,,['4bf58dd8d48988d151941735'],['Dining and Drinking > Restaurant > Mexican Restaurant > Taco Restaurant'],b'\x00\x00\x00\x00\x01\xc0Y\xd4KM\x05lQ@4\xa5\xee\x99\xa6.\xd3',"{'xmin': -103.317096, 'ymin': 20.648172, 'xmax': -103.317096, 'ymax': 20.648172}",dining and drinking > restaurant > mexican restaurant > taco restaurant,1
4e21f94988774a43b76fd0a6,El pescadito Taquerias,20.645876225744214,-105.22639153352651,Av. Grandes Lagos,Puerto Vallarta,Jalisco,,,,,MX,2011-07-16,2020-11-21,,,,,,,,['4bf58dd8d48988d1ce941735' '4bf58dd8d48988d151941735'],"['Dining and Drinking > Restaurant > Seafood Restaurant'
 'Dining and Drinking > Restaurant > Mexican Restaurant > Taco Restaurant']",b'\x00\x00\x00\x00\x01\xc0ZN}2\xea%\x9c@4\xa5X$\xf2\xd5\xd7',"{'xmin': -105.22639153352651, 'ymin': 20.645876225744214, 'xmax': -105.22639153352651, 'ymax': 20.645876225744214}","dining and drinking > restaurant > seafood restaurant, dining and drinking > restaurant > mexican restaurant > taco restaurant",1
52ed23b211d2e0abd92796d6,"Gorditas y Quesadillas ""El Sagrado Corazón""",20.580502702517578,-101.20340396106798,Blvd. Veracruz,,,,,,,MX,2014-02-01,2021-08-17,,,,,,,,['4bf58dd8d48988d151941735'],['Dining and Drinking > Restaurant > Mexican Restaurant > Taco Restaurant'],b'\x00\x00\x00\x00\x01\xc0YM\x04\x92\x0c*|@4\x94\x9b\xd3:\x8dx',"{'xmin': -101.20340396106798, 'ymin': 20.580502702517578, 'xmax': -101.20340396106798, 'ymax': 20.580502702517578}",dining and drinking > restaurant > mexican restaurant > taco restaurant,1
550328b6498e3471c313d887,"tacos de guisados ""Don Aurelio""",20.741473957647013,-103.412649650006,Arco Trajano,Zapopan,Jalisco,45130,,,,MX,2015-03-13,2020-11-24,,,,,,,,['4bf58dd8d48988d151941735'],['Dining and Drinking > Restaurant > Mexican Restaurant > Taco Restaurant'],b'\x00\x00\x00\x00\x01\xc0Y\xdah\xda\x13\xde\xd3@4\xbd\xd1<\xbe\xed\xfb',"{'xmin': -103.412649650006, 'ymin': 20.741473957647013, 'xmax': -103.412649650006, 'ymax': 20.741473957647013}",dining and drinking > restaurant > mexican restaurant > taco restaurant,1
4d5234b09d49370420b5d539,"Taquería ""La Esquinita""",20.62311645707626,-103.41555525498785,Sierra de Mazamitla,Zapopan,Jalisco,,,,,MX,2011-02-09,2020-11-30,,,,,,,,['4bf58dd8d48988d151941735'],['Dining and Drinking > Restaurant > Mexican Restaurant > Taco Restaurant'],b'\x00\x00\x00\x00\x01\xc0Y\xda\x98u\x11v\xa4@4\x9f\x84\x8fd\xbd\xef',"{'xmin': -103.41555525498785, 'ymin': 20.62311645707626, 'xmax': -103.41555525498785, 'ymax': 20.62311645707626}",dining and drinking > restaurant > mexican restaurant > taco restaurant,1
5093196ce4b0f17ed431d9e7,Taqueria Bermudez,20.392637896710575,-101.18436935864831,,,,,,,,MX,2012-11-02,2021-08-13,,,,,,,,['4bf58dd8d48988d151941735'],['Dining and Drinking > Restaurant > Mexican Restaurant > Taco Restaurant'],b'\x00\x00\x00\x00\x01\xc0YK\xcc\xb5#q\xdb@4d\x83\xea\xcd\x8a\xca',"{'xmin': -101.18436935864831, 'ymin': 20.392637896710575, 'xmax': -101.18436935864831, 'ymax': 20.392637896710575}",dining and drinking > restaurant > mexican restaurant > taco restaurant,1
5025b9b5e4b0844f8ea28e16,Tacos Juancho,20.71559124614958,-103.36156677218098,Enrique Díaz Se León,Guadalajara,Jalisco,,,,,MX,2012-08-11,2020-11-23,,,,,,,,['4bf58dd8d48988d151941735'],['Dining and Drinking > Restaurant > Mexican Restaurant > Taco Restaurant'],b'\x00\x00\x00\x00\x01\xc0Y\xd7#\xe8\xf5u\x9b@4\xb70\xfc\xe7\x84.',"{'xmin': -103.36156677218098, 'ymin': 20.71559124614958, 'xmax': -103.36156677218098, 'ymax': 20.71559124614958}",dining and drinking > restaurant > mexican restaurant > taco restaurant,1
507de844e4b0fac9b0a188de,Tacos Raul,20.656498690676642,-103.33123694575795,5 De Febrero,Guadalajara,Jalisco,,,,,MX,2012-10-16,2021-08-16,,,,,,,,['4bf58dd8d48988d151941735'],['Dining and Drinking > Restaurant > Mexican Restaurant > Taco Restaurant'],b'\x00\x00\x00\x00\x01\xc0Y\xd52\xfcrPx@4\xa8\x10LVR\xb0',"{'xmin': -103.33123694575795, 'ymin': 20.656498690676642, 'xmax': -103.33123694575795, 'ymax': 20.656498690676642}",dining and drinking > restaurant > mexican restaurant > taco restaurant,1
565fb28e498ee5110ef16060,mario tacos,20.679929,-101.381471,,,,,,,,MX,2015-12-03,2021-08-16,,,,,,,,['4bf58dd8d48988d151941735'],['Dining and Drinking > Restaurant > Mexican Restaurant > Taco Restaurant'],b'\x00\x00\x00\x00\x01\xc0YXj\x05WW\xd6@4\xae\x0f\xd3\xb2\x9a\x1c',"{'xmin': -101.381471, 'ymin': 20.679929, 'xmax': -101.381471, 'ymax': 20.679929}",dining and drinking > restaurant > mexican restaurant > taco restaurant,1
507211c4e4b0339d31954906,Taco deli,21.783909336901655,-102.28063779626987,,,,,,,,MX,2012-10-07,2020-11-24,,,,,,,,['4bf58dd8d48988d151941735'],['Dining and Drinking > Restaurant > Mexican Restaurant > Taco Restaurant'],b'\x00\x00\x00\x00\x01\xc0Y\x91\xf5\xf8;@\n@5\xc8\xaeHE\x05\x8b',"{'xmin': -102.28063779626987, 'ymin': 21.783909336901655, 'xmax': -102.28063779626987, 'ymax': 21.783909336901655}",dining and drinking > restaurant > mexican restaurant > taco restaurant,1
4fd75d6ae4b0b5e7102812d3,Tacos Lupita,20.42890792884735,-101.72359085764609,Morelos,Penjamo,Gto,36900,,,,MX,2012-06-12,2020-11-23,,,,,,,,['4bf58dd8d48988d151941735'],['Dining and Drinking > Restaurant > Mexican Restaurant > Taco Restaurant'],b'\x00\x00\x00\x00\x01\xc0YnOP\x07Q\x92@4m\xcc\xe8\xf7d\xfc',"{'xmin': -101.72359085764609, 'ymin': 20.42890792884735, 'xmax': -101.72359085764609, 'ymax': 20.42890792884735}",dining and drinking > restaurant > mexican restaurant > taco restaurant,1
56a41414498e42e607125167,Pepe's Tacos,21.114898517222024,-101.65449413200878,,,,,,,,MX,2016-01-24,2021-08-15,,,,,,,,['4bf58dd8d48988d151941735'],['Dining and Drinking > Restaurant > Mexican Restaurant > Taco Restaurant'],b'\x00\x00\x00\x00\x01\xc0Yi\xe3;[\x19\xb4@5\x1di\xfd=\xd3\xd6',"{'xmin': -101.65449413200878, 'ymin': 21.114898517222024, 'xmax': -101.65449413200878, 'ymax': 21.114898517222024}",dining and drinking > restaurant > mexican restaurant > taco restaurant,1
566a5cbe498e8921f665a3f6,Tacos Samy,20.431744,-101.72206,,,,,,,,MX,2015-12-11,2021-09-02,,,,,,,,['4bf58dd8d48988d151941735'],['Dining and Drinking > Restaurant > Mexican Restaurant > Taco Restaurant'],b'\x00\x00\x00\x00\x01\xc0Yn6;%o\xfc@4n\x86\xc6X>\x85',"{'xmin': -101.72206, 'ymin': 20.431744, 'xmax': -101.72206, 'ymax': 20.431744}",dining and drinking > restaurant > mexican restaurant > taco restaurant,1
5b816f682aff31002c237337,Las Delicicias Tapatias,21.90591,-102.289578,,Aguascalientes,AGS,20140,,,,MX,2018-08-25,2020-11-30,,,,,,,,['4bf58dd8d48988d151941735'],['Dining and Drinking > Restaurant > Mexican Restaurant > Taco Restaurant'],b'\x00\x00\x00\x00\x01\xc0Y\x92\x88r)\xe9\x08@5\xe7\xe9\xb7\xbf\x1e\x8e',"{'xmin': -102.289578, 'ymin': 21.90591, 'xmax': -102.289578, 'ymax': 21.90591}",dining and drinking > restaurant > mexican restaurant > taco restaurant,1
530a13f011d27285f3451dc8,tacos morados,19.685876533285423,-101.17324680248831,,,,,,,,MX,2014-02-23,2021-08-14,,,,,,,,['4bf58dd8d48988d151941735'],['Dining and Drinking > Restaurant > Mexican Restaurant > Taco Restaurant'],b'\x00\x00\x00\x00\x01\xc0YK\x16y\xc1\xb4\xba@3\xaf\x95\x9a\xbf\x8e\x04',"{'xmin': -101.17324680248831, 'ymin': 19.685876533285423, 'xmax': -101.17324680248831, 'ymax': 19.685876533285423}",dining and drinking > restaurant > mexican restaurant > taco restaurant,1
52b3bd2e498e19e0047bac18,"Tacos ""Los Gueros""",21.09330617057136,-101.66598112439023,,,,,,,,MX,2013-12-20,2021-08-15,,,,,,,,['4bf58dd8d48988d151941735'],['Dining and Drinking > Restaurant > Mexican Restaurant > Taco Restaurant'],b'\x00\x00\x00\x00\x01\xc0Yj\x9foK@\x99@5\x17\xe2\xe9\xc7\x1ev',"{'xmin': -101.66598112439023, 'ymin': 21.09330617057136, 'xmax': -101.66598112439023, 'ymax': 21.09330617057136}",dining and drinking > restaurant > mexican restaurant > taco restaurant,1
50a52782e4b0560e84dd94a5,Carnitas Los Ponchos,30.565536,-115.943527,,,,,,,,MX,2012-11-15,2021-08-13,,,,,,,,['4bf58dd8d48988d151941735'],['Dining and Drinking > Restaurant > Mexican Restaurant > Taco Restaurant'],"b""\x00\x00\x00\x00\x01\xc0\\\xfcb\xbf\x11\xf9'@>\x90\xc6\xf7\xa0\xb5\xee""","{'xmin': -115.943527, 'ymin': 30.565536, 'xmax': -115.943527, 'ymax': 30.565536}",dining and drinking > restaurant > mexican restaurant > taco restaurant,1
52c0ec56498eff230f6bf9bb,No Que No,21.154861706260597,-101.65272149283423,,,,,,,,MX,2013-12-30,2021-08-17,,,,,,,,['4bf58dd8d48988d151941735'],['Dining and Drinking > Restaurant > Mexican Restaurant > Taco Restaurant'],"b""\x00\x00\x00\x00\x01\xc0Yi\xc60^G\xa3@5'\xa5\x04K\xca\xc2""","{'xmin': -101.65272149283423, 'ymin': 21.154861706260597, 'xmax': -101.65272149283423, 'ymax': 21.154861706260597}",dining and drinking > restaurant > mexican restaurant > taco restaurant,1
5102ca4fe4b00e3872eb494a,Tacos Joven,20.676880376595182,-103.35756401928812,,,,,,,,MX,2013-01-25,2021-08-11,,,,,,,,['4bf58dd8d48988d151941735'],['Dining and Drinking > Restaurant > Mexican Restaurant > Taco Restaurant'],b'\x00\x00\x00\x00\x01\xc0Y\xd6\xe2T2Dg@4\xadH\x08H\xc7\xcd',"{'xmin': -103.35756401928812, 'ymin': 20.676880376595182, 'xmax': -103.35756401928812, 'ymax': 20.676880376595182}",dining and drinking > restaurant > mexican restaurant > taco restaurant,1
621ff032363b145720c89171,"Tacos y Tripitas ""El Cache""",20.681062813167987,-103.29730089016948,José María Iglesias #2738,Guadalajara,Jalisco,44740,,,,MX,2022-03-02,2023-09-13,,33 2182 5692,,,,,,['4bf58dd8d48988d151941735'],['Dining and Drinking > Restaurant > Mexican Restaurant > Taco Restaurant'],b'\x00\x00\x00\x00\x01\xc0Y\xd3\x06\xfaP\x16`@4\xaeZ!\xed\x14\t',"{'xmin': -103.29730089016948, 'ymin': 20.681062813167987, 'xmax': -103.29730089016948, 'ymax': 20.681062813167987}",dining and drinking > restaurant > mexican restaurant > taco restaurant,1
56d86024498ec386bd899698,Quesadillas Casa Blanca,21.151262,-101.683975,,,,,,,,MX,2016-03-03,2021-08-14,,,,,,,,['4bf58dd8d48988d151941735'],['Dining and Drinking > Restaurant > Mexican Restaurant > Taco Restaurant'],b'\x00\x00\x00\x00\x01\xc0Yk\xc6?\x14\x12\x06@5&\xb9\x1b? \xa7',"{'xmin': -101.683975, 'ymin': 21.151262, 'xmax': -101.683975, 'ymax': 21.151262}",dining and drinking > restaurant > mexican restaurant > taco restaurant,1
50e10a85e4b083ca7c6caceb,Tacos Don Juan,22.154747,-100.974306,,,,,,,,MX,2012-12-31,2021-08-17,,,,,,,,['4bf58dd8d48988d151941735'],['Dining and Drinking > Restaurant > Mexican Restaurant > Taco Restaurant'],"b""\x00\x00\x00\x00\x01\xc0Y>[\x07\x8d\x92\xfb@6'\x9d\x7f\xd8't""","{'xmin': -100.974306, 'ymin': 22.154747, 'xmax': -100.974306, 'ymax': 22.154747}",dining and drinking > restaurant > mexican restaurant > taco restaurant,1
54b4541c498e46b9ea798d55,Tacos el Cochi,20.644643,-103.319549,,,,,,,,MX,2015-01-12,2021-08-10,,,,,,,,['4bf58dd8d48988d151941735'],['Dining and Drinking > Restaurant > Mexican Restaurant > Taco Restaurant'],b'\x00\x00\x00\x00\x01\xc0Y\xd4s}\xa6\x1e\x0c@4\xa5\x07R\xda\x98g',"{'xmin': -103.319549, 'ymin': 20.644643, 'xmax': -103.319549, 'ymax': 20.644643}",dining and drinking > restaurant > mexican restaurant > taco restaurant,1
5232895f11d23b7ca27fe4ec,La Palapita,19.941262,-105.253284,,,,,,,,MX,2013-09-13,2021-08-11,,,,,,,,['4bf58dd8d48988d151941735'],['Dining and Drinking > Restaurant > Mexican Restaurant > Taco Restaurant'],b'\x00\x00\x00\x00\x01\xc0ZP5\xce\x18&g@3\xf0\xf6\x8b\xe2\xf7\xb1',"{'xmin': -105.253284, 'ymin': 19.941262, 'xmax': -105.253284, 'ymax': 19.941262}",dining and drinking > restaurant > mexican restaurant > taco restaurant,1
56400d07cd108b8d961e447f,tacos el vecino,22.127066536594814,-100.90049823814088,,,,,,,,MX,2015-11-09,2021-08-16,,,,,,,,['4bf58dd8d48988d151941735'],['Dining and Drinking > Restaurant > Mexican Restaurant > Taco Restaurant'],b'\x00\x00\x00\x00\x01\xc0Y9\xa1\xc3\\\xba\xed@6 \x87n\xbb\x179',"{'xmin': -100.90049823814088, 'ymin': 22.127066536594814, 'xmax': -100.90049823814088, 'ymax': 22.127066536594814}",dining and drinking > restaurant > mexican restaurant > taco restaurant,1
50882325e4b0339e5b594fba,Tacos / Tortas Adobada,20.657376,-103.378755,,,,,,,,MX,2012-10-24,2021-08-10,,,,,,,,['4bf58dd8d48988d151941735'],['Dining and Drinking > Restaurant > Mexican Restaurant > Taco Restaurant'],"b'\x00\x00\x00\x00\x01\xc0Y\xd8=\x85\x9c\x8c\x93@4\xa8I\xcb%,\xe0'","{'xmin': -103.378755, 'ymin': 20.657376, 'xmax': -103.378755, 'ymax': 20.657376}",dining and drinking > restaurant > mexican restaurant > taco restaurant,1
51b610b0498e61766654c975,Taqueria Alex,19.235687,-103.724876,,,,,,,,MX,2013-06-10,2023-12-20,,312 314 7837,,,,,,['4bf58dd8d48988d151941735'],['Dining and Drinking > Restaurant > Mexican Restaurant > Taco Restaurant'],b'\x00\x00\x00\x00\x01\xc0Y\xeed^Ni\xf0@3<U\xfb\xb5\x17\xa4',"{'xmin': -103.724876, 'ymin': 19.235687, 'xmax': -103.724876, 'ymax': 19.235687}",dining and drinking > restaurant > mexican restaurant > taco restaurant,1
50f4db17e4b04c87a86ac7a8,Tacos Juan,21.019865507527385,-101.25823817211203,Calle Alhóndiga,Guanajuato,Guanajuato,,,,,MX,2013-01-15,2020-11-22,,,,,,,,['4bf58dd8d48988d151941735'],['Dining and Drinking > Restaurant > Mexican Restaurant > Taco Restaurant'],b'\x00\x00\x00\x00\x01\xc0YP\x86\xf9e\xf33@5\x05\x15\xe7\xe9&\x08',"{'xmin': -101.25823817211203, 'ymin': 21.019865507527385, 'xmax': -101.25823817211203, 'ymax': 21.019865507527385}",dining and drinking > restaurant > mexican restaurant > taco restaurant,1
5170f8b95262fdce32bc152a,Tacos Ibarra,20.718206315507555,-103.33400130271912,Daniel Larios Cárdenas #1155,Guadalajara,Jalisco,44240,,,,MX,2013-04-19,2021-08-17,,,,,,,,['4bf58dd8d48988d151941735'],['Dining and Drinking > Restaurant > Mexican Restaurant > Taco Restaurant'],b'\x00\x00\x00\x00\x01\xc0Y\xd5`G\x00\x00\x00@4\xb7\xdc^|\xe2\xb7',"{'xmin': -103.33400130271912, 'ymin': 20.718206315507555, 'xmax': -103.33400130271912, 'ymax': 20.718206315507555}",dining and drinking > restaurant > mexican restaurant > taco restaurant,1
5775534a498ecadab1238e16,Los Chamorros de las Güeras,20.52287,-100.818528,,,,,,,,MX,2016-06-30,2021-08-13,,,,,,,,"['4bf58dd8d48988d151941735' '5744ccdfe4b0c0459246b4ca'
 '4bf58dd8d48988d10e941735']","['Dining and Drinking > Restaurant > Mexican Restaurant > Taco Restaurant'
 'Dining and Drinking > Restaurant > Middle Eastern Restaurant > Kurdish Restaurant'
 'Dining and Drinking > Restaurant > Greek Restaurant']",b'\x00\x00\x00\x00\x01\xc0Y4b\xc3C\xb7\x0f@4\x85\xda\xce\xee\x0f=',"{'xmin': -100.818528, 'ymin': 20.52287, 'xmax': -100.818528, 'ymax': 20.52287}","dining and drinking > restaurant > mexican restaurant > taco restaurant, dining and drinking > restaurant > middle eastern restaurant > kurdish restaurant, dining and drinking > restaurant > greek restaurant",1
56624af0498e895247cd39a0,Tacos Felix,19.771580166714223,-104.36686635017395,plaza mision texas 14,autlan,jalisco,48900,,,,MX,2015-12-05,2020-11-23,,,,,,,,['4bf58dd8d48988d151941735'],['Dining and Drinking > Restaurant > Mexican Restaurant > Taco Restaurant'],b'\x00\x00\x00\x00\x01\xc0Z\x17z\xbd\x00\x00\x00@3\xc5\x86G\x1eG\xa2',"{'xmin': -104.36686635017395, 'ymin': 19.771580166714223, 'xmax': -104.36686635017395, 'ymax': 19.771580166714223}",dining and drinking > restaurant > mexican restaurant > taco restaurant,1
4f1a20a1e4b0a62717b29d2a,"Tacos Al Pastor ""Rulas""",20.723701907123836,-103.39389673620182,Corona 297,Zapopan,Jalisco,,,,,MX,2012-01-21,2020-11-23,,,,,,,,['4bf58dd8d48988d151941735' '4bf58dd8d48988d1c1941735'],"['Dining and Drinking > Restaurant > Mexican Restaurant > Taco Restaurant'
 'Dining and Drinking > Restaurant > Mexican Restaurant']",b'\x00\x00\x00\x00\x01\xc0Y\xd95\x9a\xa7\xff;@4\xb9D\x877&S',"{'xmin': -103.39389673620182, 'ymin': 20.723701907123836, 'xmax': -103.39389673620182, 'ymax': 20.723701907123836}","dining and drinking > restaurant > mexican restaurant > taco restaurant, dining and drinking > restaurant > mexican restaurant",1
51aea855498e88a09d7d1939,"Tacos ""El Six Flags""",22.133962,-100.969827,,,,,,,,MX,2013-06-05,2021-08-11,,,,,,,,['4bf58dd8d48988d151941735'],['Dining and Drinking > Restaurant > Mexican Restaurant > Taco Restaurant'],"b'\x00\x00\x00\x00\x01\xc0Y>\x11\xa5C\xf1\xc7@6""KUh\xe8!'","{'xmin': -100.969827, 'ymin': 22.133962, 'xmax': -100.969827, 'ymax': 22.133962}",dining and drinking > restaurant > mexican restaurant > taco restaurant,1
5648a93f498eefbc57c0c76f,Tacos Toreados,20.311202,-103.592585,,,,,,,,MX,2015-11-15,2020-11-26,,,,,,,,['4bf58dd8d48988d151941735'],['Dining and Drinking > Restaurant > Mexican Restaurant > Taco Restaurant'],"b'\x00\x00\x00\x00\x01\xc0Y\xe5\xec\xe9\xa2\xc6i@4O\xaa\xef,s&'","{'xmin': -103.592585, 'ymin': 20.311202, 'xmax': -103.592585, 'ymax': 20.311202}",dining and drinking > restaurant > mexican restaurant > taco restaurant,1
583b93c38cfe54761217bb74,Tacos Don Ángel,20.476957,-100.967155,,Cortazar,Guanajuato,,,,,MX,2016-11-28,2020-11-25,,,,,,,,['4bf58dd8d48988d151941735'],['Dining and Drinking > Restaurant > Mexican Restaurant > Taco Restaurant'],b'\x00\x00\x00\x00\x01\xc0Y=\xe5\xde\x15\xcam@4z\x19\xda\x9c\x99(',"{'xmin': -100.967155, 'ymin': 20.476957, 'xmax': -100.967155, 'ymax': 20.476957}",dining and drinking > restaurant > mexican restaurant > taco restaurant,1
61a3a52cebe07632af34cf48,Birrieria Tequepexpan,20.661285,-103.431326,Agronomos,Zapopan,JAL,45036,,,,MX,2021-11-28,2021-11-28,,33 2828 9597,,,,,,['4bf58dd8d48988d151941735'],['Dining and Drinking > Restaurant > Mexican Restaurant > Taco Restaurant'],b'\x00\x00\x00\x00\x01\xc0Y\xdb\x9a\xd8]\xfa\x87@4\xa9I\xf9HU\xda',"{'xmin': -103.431326, 'ymin': 20.661285, 'xmax': -103.431326, 'ymax': 20.661285}",dining and drinking > restaurant > mexican restaurant > taco restaurant,1
50101391e4b0871c8a632568,Tacos De Barbacoa,20.703901199534048,-103.36181137823826,,,,,,,,MX,2012-07-25,2021-08-11,,,,,,,,['4bf58dd8d48988d151941735'],['Dining and Drinking > Restaurant > Mexican Restaurant > Taco Restaurant'],"b""\x00\x00\x00\x00\x01\xc0Y\xd7'\xea\xe96\xa8@4\xb42\xdew\x9d)""","{'xmin': -103.36181137823826, 'ymin': 20.703901199534048, 'xmax': -103.36181137823826, 'ymax': 20.703901199534048}",dining and drinking > restaurant > mexican restaurant > taco restaurant,1
4faea1c0e4b078fd5b2d8939,Loncheria el Mono,21.879133011892506,-102.29503589736187,Rayon,Aguascalientes,AGS,,,,,MX,2012-05-12,2020-11-24,,,,,,,,['4bf58dd8d48988d151941735'],['Dining and Drinking > Restaurant > Mexican Restaurant > Taco Restaurant'],b'\x00\x00\x00\x00\x01\xc0Y\x92\xe1\xde>\x94-@5\xe1\x0e\xdcn\xe9\x8c',"{'xmin': -102.29503589736187, 'ymin': 21.879133011892506, 'xmax': -102.29503589736187, 'ymax': 21.879133011892506}",dining and drinking > restaurant > mexican restaurant > taco restaurant,1
5d0ef59c4fa07300300450a6,Tacos El Chato,20.69496,-103.312332,,Guadalajara,JAL,44330,,,,MX,2019-06-23,2021-08-15,,,,,,,,['4bf58dd8d48988d151941735'],['Dining and Drinking > Restaurant > Mexican Restaurant > Taco Restaurant'],b'\x00\x00\x00\x00\x01\xc0Y\xd3\xfd?[_\xa2@4\xb1\xe8\xe6\x08\x075',"{'xmin': -103.312332, 'ymin': 20.69496, 'xmax': -103.312332, 'ymax': 20.69496}",dining and drinking > restaurant > mexican restaurant > taco restaurant,1
4d8397c35e70224b5a09fb08,Tacos De Guisado La Doña,21.885148,-102.272207,Av Convención de 1914 ote,Aguascalientes,AGS,,,,,MX,2011-03-18,2020-11-23,,,,,,,,['4bf58dd8d48988d151941735'],['Dining and Drinking > Restaurant > Mexican Restaurant > Taco Restaurant'],b'\x00\x00\x00\x00\x01\xc0Y\x91k\xd6\xe8\xaf\x81@5\xe2\x99\x0f0\x1e\xac',"{'xmin': -102.272207, 'ymin': 21.885148, 'xmax': -102.272207, 'ymax': 21.885148}",dining and drinking > restaurant > mexican restaurant > taco restaurant,1
65d81bb1adddf556df556dab,Tacos Fermín,20.699844,-103.38439,,Guadalajara,Jalisco,44639,,,,MX,2024-02-23,2024-02-23,,,,,,,,['4bf58dd8d48988d151941735'],['Dining and Drinking > Restaurant > Mexican Restaurant > Taco Restaurant'],b'\x00\x00\x00\x00\x01\xc0Y\xd8\x99\xd8\x83\xba4@4\xb3(\xf9\xf4MD',"{'xmin': -103.38439, 'ymin': 20.699844, 'xmax': -103.38439, 'ymax': 20.699844}",dining and drinking > restaurant > mexican restaurant > taco restaurant,1
55d7d67e498e1d9946c08486,Las Ke Sabrosas,20.630138397216797,-105.2139663696289,,,,,,,,MX,2015-08-22,2021-08-15,,,,,,,,['4bf58dd8d48988d151941735'],['Dining and Drinking > Restaurant > Mexican Restaurant > Taco Restaurant'],b'\x00\x00\x00\x00\x01\xc0ZM\xb1\xa0\x00\x00\x00@4\xa1P\xc0\x00\x00\x00',"{'xmin': -105.2139663696289, 'ymin': 20.630138397216797, 'xmax': -105.2139663696289, 'ymax': 20.630138397216797}",dining and drinking > restaurant > mexican restaurant > taco restaurant,1
51dcca58498ed4c3650ee993,"Taqueria Camarena ""tino""",20.141675,-101.181486,5 De Mayo,Uriangato,,,,,,MX,2013-07-10,2020-11-22,,,,,,,,['4bf58dd8d48988d151941735'],['Dining and Drinking > Restaurant > Mexican Restaurant > Taco Restaurant'],b'\x00\x00\x00\x00\x01\xc0YK\x9dwt\xab\xa4@4$D\xd0\x13\xa9*',"{'xmin': -101.181486, 'ymin': 20.141675, 'xmax': -101.181486, 'ymax': 20.141675}",dining and drinking > restaurant > mexican restaurant > taco restaurant,1
50d2623be4b0656ca04cea1a,Tacos Mary,21.812256,-100.931523,Libramiento Villa De reyes #90,,,,,,,MX,2012-12-20,2021-08-14,,,,,,,,['4bf58dd8d48988d151941735'],['Dining and Drinking > Restaurant > Mexican Restaurant > Taco Restaurant'],b'\x00\x00\x00\x00\x01\xc0Y;\x9e\x12\xa5\x1e2@5\xcf\xf0\x02[\xfa\xd3',"{'xmin': -100.931523, 'ymin': 21.812256, 'xmax': -100.931523, 'ymax': 21.812256}",dining and drinking > restaurant > mexican restaurant > taco restaurant,1
4c2ad1608abca593e850ff1f,Tacos El Cañas,19.26704,-103.73824498333333,Av Benito Juárez,Ciudad de Villa de Álvarez,Colima,,,,,MX,2010-06-30,2020-11-25,,,,,,,,['4bf58dd8d48988d151941735'],['Dining and Drinking > Restaurant > Mexican Restaurant > Taco Restaurant'],b'\x00\x00\x00\x00\x01\xc0Y\xef?g\xe2\xf6\x93@3D\\\xbb\xc2\xb9N',"{'xmin': -103.73824498333333, 'ymin': 19.26704, 'xmax': -103.73824498333333, 'ymax': 19.26704}",dining and drinking > restaurant > mexican restaurant > taco restaurant,1
5071b686e4b0db7c165dfa53,Tacos El Asadero,20.740609,-105.263663,,,,,,,,MX,2012-10-07,2020-11-21,,,,,,,,['4bf58dd8d48988d151941735'],['Dining and Drinking > Restaurant > Mexican Restaurant > Taco Restaurant'],b'\x00\x00\x00\x00\x01\xc0ZP\xdf\xda\xc6\x8a\x93@4\xbd\x98\x8d*\x1f\x8e',"{'xmin': -105.263663, 'ymin': 20.740609, 'xmax': -105.263663, 'ymax': 20.740609}",dining and drinking > restaurant > mexican restaurant > taco restaurant,1
361580dd1ccc4b32b080295c,Tacos Sitio 15,20.663987,-105.213952,Emiliano Zapata 508,Puerto Vallarta,Jalisco,48314,,,,MX,2013-03-24,2024-11-02,,322 224 8872,,,142967102436771.0,,,['4bf58dd8d48988d151941735' '4d4b7105d754a06378d81259'],"['Dining and Drinking > Restaurant > Mexican Restaurant > Taco Restaurant'
 'Retail']",b'\x00\x00\x00\x00\x01\xc0ZM\xb1c\xba\xba|@4\xa9\xfb\rQ\xf8\x1a',"{'xmin': -105.213952, 'ymin': 20.663987, 'xmax': -105.213952, 'ymax': 20.663987}","dining and drinking > restaurant > mexican restaurant > taco restaurant, retail",1
3a2c824d8e59415b5fbd26f3,Taqueria,21.135233,-101.703619,Avenida Miguel de Cervantes Saavedra 1404,,Guanajuato,37330,,,,MX,2010-11-04,2024-07-16,,,,,,,,['4bf58dd8d48988d151941735'],['Dining and Drinking > Restaurant > Mexican Restaurant > Taco Restaurant'],"b'\x00\x00\x00\x00\x01\xc0Ym\x08\x17\xfcv\x08@5""\x9e\xa1@W\x08'","{'xmin': -101.703619, 'ymin': 21.135233, 'xmax': -101.703619, 'ymax': 21.135233}",dining and drinking > restaurant > mexican restaurant > taco restaurant,1
56aece25498e5de4588525ef,"Tacos ""El Cachu""",20.955919,-105.35245,,Lo De Marcos,Nayarit,,,,,MX,2016-02-01,2020-11-25,,,,,,,,['4bf58dd8d48988d151941735'],['Dining and Drinking > Restaurant > Mexican Restaurant > Taco Restaurant'],b'\x00\x00\x00\x00\x01\xc0ZV\x8e\x8aq\xdej@4\xf4\xb7\x1b\x8a\xa0\x02',"{'xmin': -105.35245, 'ymin': 20.955919, 'xmax': -105.35245, 'ymax': 20.955919}",dining and drinking > restaurant > mexican restaurant > taco restaurant,1
4c183ab7d4d9c928e03bef29,Taqueria Tom,20.67862668993054,-103.36128093451755,Gregorio Davila,Guadalajara,Jalisco,,,,,MX,2010-06-16,2021-08-11,,,,,,,,['4bf58dd8d48988d1c1941735' '4bf58dd8d48988d151941735'],"['Dining and Drinking > Restaurant > Mexican Restaurant'
 'Dining and Drinking > Restaurant > Mexican Restaurant > Taco Restaurant']",b'\x00\x00\x00\x00\x01\xc0Y\xd7\x1f:\x11\x9a\xf5@4\xad\xbaz\x8fq\xc4',"{'xmin': -103.36128093451755, 'ymin': 20.67862668993054, 'xmax': -103.36128093451755, 'ymax': 20.67862668993054}","dining and drinking > restaurant > mexican restaurant, dining and drinking > restaurant > mexican restaurant > taco restaurant",1
5967b6bad0a14964e122e093,Tacos Del Güero,20.696737,-103.372,Av. Circunvalación,Guadalajara,Jalisco,44620,,,,MX,2017-07-13,2021-08-15,,,,,,,,['4bf58dd8d48988d151941735'],['Dining and Drinking > Restaurant > Mexican Restaurant > Taco Restaurant'],b'\x00\x00\x00\x00\x01\xc0Y\xd7\xce\xd9\x16\x87+@4\xb2][$\xe9\xc4',"{'xmin': -103.372, 'ymin': 20.696737, 'xmax': -103.372, 'ymax': 20.696737}",dining and drinking > restaurant > mexican restaurant > taco restaurant,1
547cc34f498ea9baa921f9ef,Tacos el guero,21.884951516652013,-102.31849669623325,,,,,,,,MX,2014-12-01,2021-08-15,,,,,,,,['4bf58dd8d48988d151941735'],['Dining and Drinking > Restaurant > Mexican Restaurant > Taco Restaurant'],b'\x00\x00\x00\x00\x01\xc0Y\x94b?\xf7\x8d-@5\xe2\x8c.\xbe\x90\xe5',"{'xmin': -102.31849669623325, 'ymin': 21.884951516652013, 'xmax': -102.31849669623325, 'ymax': 21.884951516652013}",dining and drinking > restaurant > mexican restaurant > taco restaurant,1
52ce259011d2b87b2c93964b,Caminito,19.25465526655231,-103.71452093124388,Felipe Sevilla del Río #201,Colima,Colima,28017,,,,MX,2014-01-09,2020-11-24,,,,,734302809930038.0,,,"['4bf58dd8d48988d16c941735' '4bf58dd8d48988d151941735'
 '4bf58dd8d48988d1bd941735']","['Dining and Drinking > Restaurant > Burger Joint'
 'Dining and Drinking > Restaurant > Mexican Restaurant > Taco Restaurant'
 'Dining and Drinking > Restaurant > Salad Restaurant']",b'\x00\x00\x00\x00\x01\xc0Y\xed\xba\xb5\xff\xff\xff@3A1\x16i\x98\xa9',"{'xmin': -103.71452093124388, 'ymin': 19.25465526655231, 'xmax': -103.71452093124388, 'ymax': 19.25465526655231}","dining and drinking > restaurant > burger joint, dining and drinking > restaurant > mexican restaurant > taco restaurant, dining and drinking > restaurant > salad restaurant",1
4f259666e4b0085e4b250a6e,El Gallito,20.678674617296103,-103.42138519307653,Av. Patria,Zapopan,Jalisco,,,,,MX,2012-01-29,2020-11-24,,,,,,,,['4bf58dd8d48988d151941735'],['Dining and Drinking > Restaurant > Mexican Restaurant > Taco Restaurant'],b'\x00\x00\x00\x00\x01\xc0Y\xda\xf7\xf9\x99\xd2\x12@4\xad\xbd\x9e\xa5\xe9~',"{'xmin': -103.42138519307653, 'ymin': 20.678674617296103, 'xmax': -103.42138519307653, 'ymax': 20.678674617296103}",dining and drinking > restaurant > mexican restaurant > taco restaurant,1
5cff100cf5e9d7002ce3056e,Tacos Papis,21.109849,-101.669409,Blvd. Mariano Escobedo,León,GTO,37480,,,,MX,2019-06-11,2023-09-12,,,,,,,,['4bf58dd8d48988d151941735'],['Dining and Drinking > Restaurant > Mexican Restaurant > Taco Restaurant'],b'\x00\x00\x00\x00\x01\xc0Yj\xd7\x98\xd8\xa9z@5\x1c\x1f\x10f\x7f\x91',"{'xmin': -101.669409, 'ymin': 21.109849, 'xmax': -101.669409, 'ymax': 21.109849}",dining and drinking > restaurant > mexican restaurant > taco restaurant,1
576b2d81498e5fc813dcffd7,Taquería El Tapatío,21.885542,-102.296738,Lic. Benito Juarez 428,Centro,Aguascalientes,20000,,,,MX,2016-06-23,2021-08-12,,,,,,,,['4bf58dd8d48988d151941735'],['Dining and Drinking > Restaurant > Mexican Restaurant > Taco Restaurant'],b'\x00\x00\x00\x00\x01\xc0Y\x92\xfd\xc1a^\xc0@5\xe2\xb2\xe1i<\x04',"{'xmin': -102.296738, 'ymin': 21.885542, 'xmax': -102.296738, 'ymax': 21.885542}",dining and drinking > restaurant > mexican restaurant > taco restaurant,1
52d2e81311d27883dc5c4aa6,Tacos Toño,20.688491821289062,-103.29164123535156,,,,,,,,MX,2014-01-12,2021-08-12,,,,,,,,['4bf58dd8d48988d151941735'],['Dining and Drinking > Restaurant > Mexican Restaurant > Taco Restaurant'],b'\x00\x00\x00\x00\x01\xc0Y\xd2\xaa@\x00\x00\x00@4\xb0A\x00\x00\x00\x00',"{'xmin': -103.29164123535156, 'ymin': 20.688491821289062, 'xmax': -103.29164123535156, 'ymax': 20.688491821289062}",dining and drinking > restaurant > mexican restaurant > taco restaurant,1
4fb5aba8e4b014d752825397,Tacos no ñame,20.680233,-101.370232,,,,,,,,MX,2012-05-18,2021-08-11,,,,,,,,['4bf58dd8d48988d151941735'],['Dining and Drinking > Restaurant > Mexican Restaurant > Taco Restaurant'],b'\x00\x00\x00\x00\x01\xc0YW\xb1\xe1\x8e\xfb\xb1@4\xae#\xbf\xf8\xa8\xf4',"{'xmin': -101.370232, 'ymin': 20.680233, 'xmax': -101.370232, 'ymax': 20.680233}",dining and drinking > restaurant > mexican restaurant > taco restaurant,1
4ee286b6f79052212b006c37,Tacos al Vapor Las Güeras,20.712884018847213,-103.35605801770238,,"Zapopan, JAL",,,,,,MX,2011-12-09,2021-08-12,,33 3629 2169,,,,,,['4bf58dd8d48988d151941735'],['Dining and Drinking > Restaurant > Mexican Restaurant > Taco Restaurant'],b'\x00\x00\x00\x00\x01\xc0Y\xd6\xc9\xa7\x91`\xa9@4\xb6\x7f\x91*\xca2',"{'xmin': -103.35605801770238, 'ymin': 20.712884018847213, 'xmax': -103.35605801770238, 'ymax': 20.712884018847213}",dining and drinking > restaurant > mexican restaurant > taco restaurant,1
50797b9fe4b0c316871bbb26,El birrias del fracc,20.7688572144536,-103.44205265020908,,,,,,,,MX,2012-10-13,2021-08-16,,,,,,,,['4bf58dd8d48988d151941735'],['Dining and Drinking > Restaurant > Mexican Restaurant > Taco Restaurant'],b'\x00\x00\x00\x00\x01\xc0Y\xdcJ\x972\xf0\x85@4\xc4\xd3\xd3\x8f_3',"{'xmin': -103.44205265020908, 'ymin': 20.7688572144536, 'xmax': -103.44205265020908, 'ymax': 20.7688572144536}",dining and drinking > restaurant > mexican restaurant > taco restaurant,1
4e7a06697d8bb7882ae98e49,"Tacos ""El Mai""",20.748376436546433,-103.38842687248896,,,,,,,,MX,2011-09-21,2021-08-16,,,,,,,,['4bf58dd8d48988d151941735'],['Dining and Drinking > Restaurant > Mexican Restaurant > Taco Restaurant'],b'\x00\x00\x00\x00\x01\xc0Y\xd8\xdb\xfcb\x8e\x92@4\xbf\x95\x99 \x10_',"{'xmin': -103.38842687248896, 'ymin': 20.748376436546433, 'xmax': -103.38842687248896, 'ymax': 20.748376436546433}",dining and drinking > restaurant > mexican restaurant > taco restaurant,1
55fecd3e498e70097a1501a7,Barbacoa de Borrego El Buen Santiago,21.924293375766165,-102.31309950927476,Blvd. Luis Donaldo Colosio,Aguascalientes,Aguascalientes,,,,,MX,2015-09-20,2020-11-30,,,,,,,,['4bf58dd8d48988d1c1941735' '4bf58dd8d48988d151941735'],"['Dining and Drinking > Restaurant > Mexican Restaurant'
 'Dining and Drinking > Restaurant > Mexican Restaurant > Taco Restaurant']",b'\x00\x00\x00\x00\x01\xc0Y\x94\t\xd2\x86.\xa4@5\xec\x9e}\x9c\xd3;',"{'xmin': -102.31309950927476, 'ymin': 21.924293375766165, 'xmax': -102.31309950927476, 'ymax': 21.924293375766165}","dining and drinking > restaurant > mexican restaurant, dining and drinking > restaurant > mexican restaurant > taco restaurant",1
4f660cb8e4b09987d2c9caae,Tacos el amigo,20.697163506565794,-103.36498711905436,Av. Plan de San Luis,Guadalajara,Jalisco,,,,,MX,2012-03-18,2021-08-12,,,,,,,,['4bf58dd8d48988d151941735'],['Dining and Drinking > Restaurant > Mexican Restaurant > Taco Restaurant'],b'\x00\x00\x00\x00\x01\xc0Y\xd7[\xf2\xee\xf3/@4\xb2yN\xbc\xaa.',"{'xmin': -103.36498711905436, 'ymin': 20.697163506565794, 'xmax': -103.36498711905436, 'ymax': 20.697163506565794}",dining and drinking > restaurant > mexican restaurant > taco restaurant,1
4fde120ce4b0ec5a8f7ee725,Don Tacon,21.17231297891638,-101.65918436107309,Samuel Morse S/N,Leon,Guanajuato,,,,,MX,2012-06-17,2020-11-25,,,,,,,,['4bf58dd8d48988d151941735'],['Dining and Drinking > Restaurant > Mexican Restaurant > Taco Restaurant'],"b'\x00\x00\x00\x00\x01\xc0Yj0\x13\x9a5\xfd@5,\x1c\xb4\x11\x1fH'","{'xmin': -101.65918436107309, 'ymin': 21.17231297891638, 'xmax': -101.65918436107309, 'ymax': 21.17231297891638}",dining and drinking > restaurant > mexican restaurant > taco restaurant,1
574ba373498ec640858e9fb6,Tacos Chava,20.524727,-100.80601,,,,,,,,MX,2016-05-30,2021-08-14,,,,,,,,"['4bf58dd8d48988d151941735' '4bf58dd8d48988d10f941735'
 '4bf58dd8d48988d10e941735']","['Dining and Drinking > Restaurant > Mexican Restaurant > Taco Restaurant'
 'Dining and Drinking > Restaurant > Indian Restaurant'
 'Dining and Drinking > Restaurant > Greek Restaurant']",b'\x00\x00\x00\x00\x01\xc0Y3\x95\xaa\xf7\x8f\xef@4\x86T\x828T\x04',"{'xmin': -100.80601, 'ymin': 20.524727, 'xmax': -100.80601, 'ymax': 20.524727}","dining and drinking > restaurant > mexican restaurant > taco restaurant, dining and drinking > restaurant > indian restaurant, dining and drinking > restaurant > greek restaurant",1
54adec90498ef392577d0be9,Taqueria Los Búhos,20.702443285850038,-101.35566865083064,,,,,,,,MX,2015-01-08,2021-08-10,,,,,,,,['4bf58dd8d48988d151941735'],['Dining and Drinking > Restaurant > Mexican Restaurant > Taco Restaurant'],b'\x00\x00\x00\x00\x01\xc0YV\xc3Fq\xe1\xec@4\xb3\xd3R\xbc\x05L',"{'xmin': -101.35566865083064, 'ymin': 20.702443285850038, 'xmax': -101.35566865083064, 'ymax': 20.702443285850038}",dining and drinking > restaurant > mexican restaurant > taco restaurant,1
51259ebfe4b0f9ed88e29d51,Taco Cabaña,20.631782581484675,-103.42430845988933,,,,,,,,MX,2013-02-21,2021-08-12,,,,,,,,['4bf58dd8d48988d1c1941735' '4bf58dd8d48988d151941735'],"['Dining and Drinking > Restaurant > Mexican Restaurant'
 'Dining and Drinking > Restaurant > Mexican Restaurant > Taco Restaurant']","b""\x00\x00\x00\x00\x01\xc0Y\xdb'\xde\xab\xa9\x03@4\xa1\xbc\x80\xd5\xa8\xbd""","{'xmin': -103.42430845988933, 'ymin': 20.631782581484675, 'xmax': -103.42430845988933, 'ymax': 20.631782581484675}","dining and drinking > restaurant > mexican restaurant, dining and drinking > restaurant > mexican restaurant > taco restaurant",1
5e271f56b1c9ed000867b32f,"Tacos ""El Güero""",20.33884,-102.020096,,La Piedad de Cavadas,Michoacán,59300,,,,MX,2020-01-21,2020-11-23,,,,,,,,['4bf58dd8d48988d151941735'],['Dining and Drinking > Restaurant > Mexican Restaurant > Taco Restaurant'],b'\x00\x00\x00\x00\x01\xc0Y\x81I@\xbb\xb1\xf2@4V\xbe7\xde\x93\x9f',"{'xmin': -102.020096, 'ymin': 20.33884, 'xmax': -102.020096, 'ymax': 20.33884}",dining and drinking > restaurant > mexican restaurant > taco restaurant,1
5074da78e4b0e2c61dd8db37,Asa2 Los Norteños,20.729677040988086,-103.43775018899603,Av. Santa Margarita 4436,Zapopan,JAL,,,,,MX,2012-10-10,2020-11-24,,,,,,,,['4bf58dd8d48988d151941735'],['Dining and Drinking > Restaurant > Mexican Restaurant > Taco Restaurant'],b'\x00\x00\x00\x00\x01\xc0Y\xdc\x04\x19^c\x92@4\xba\xcc\x1dS\xaf\x96',"{'xmin': -103.43775018899603, 'ymin': 20.729677040988086, 'xmax': -103.43775018899603, 'ymax': 20.729677040988086}",dining and drinking > restaurant > mexican restaurant > taco restaurant,1
c6ca52f833064db15cf67109,Menuderia Olimpica,20.654966,-103.321245,Olimpica 665,Guadalajara,Jalisco,44840,,,,MX,2013-05-03,2024-10-28,,33 3650 2846,,,,,,['4bf58dd8d48988d151941735'],['Dining and Drinking > Restaurant > Mexican Restaurant > Taco Restaurant'],b'\x00\x00\x00\x00\x01\xc0Y\xd4\x8fG0@:@4\xa7\xab\xda\r\xfd\xf0',"{'xmin': -103.321245, 'ymin': 20.654966, 'xmax': -103.321245, 'ymax': 20.654966}",dining and drinking > restaurant > mexican restaurant > taco restaurant,1
5792ecbf498e5f2813d581ff,Tacos del Arroyo,20.209824,-101.136751,,,,,,,,MX,2016-07-23,2021-08-11,,,,,,,,['4bf58dd8d48988d151941735'],['Dining and Drinking > Restaurant > Mexican Restaurant > Taco Restaurant'],"b'\x00\x00\x00\x00\x01\xc0YH\xc0\x87D,\x80@45\xb7\x06\x91\xeay'","{'xmin': -101.136751, 'ymin': 20.209824, 'xmax': -101.136751, 'ymax': 20.209824}",dining and drinking > restaurant > mexican restaurant > taco restaurant,1
506f93bde4b0a3c91169fcae,Pako's Takos,19.689843070091644,-101.23627031704294,,,,,,,,MX,2012-10-06,2021-08-16,,,,,,,,['4bf58dd8d48988d151941735'],['Dining and Drinking > Restaurant > Mexican Restaurant > Taco Restaurant'],b'\x00\x00\x00\x00\x01\xc0YO\x1f\r\x89-\xc2@3\xb0\x99\x8e1ju',"{'xmin': -101.23627031704294, 'ymin': 19.689843070091644, 'xmax': -101.23627031704294, 'ymax': 19.689843070091644}",dining and drinking > restaurant > mexican restaurant > taco restaurant,1
4f01333329c201c6fe9bdb5e,Tacos La Perla,20.700594,-103.316422,Nudo De Cempoaltepelt,,,,,,,MX,2012-01-02,2021-08-17,,,,,,,,['4bf58dd8d48988d151941735'],['Dining and Drinking > Restaurant > Mexican Restaurant > Taco Restaurant'],b'\x00\x00\x00\x00\x01\xc0Y\xd4@B\x0fo\t@4\xb3Z \xdd\xc6\x19',"{'xmin': -103.316422, 'ymin': 20.700594, 'xmax': -103.316422, 'ymax': 20.700594}",dining and drinking > restaurant > mexican restaurant > taco restaurant,1
574b0759498ed48af6848f2a,Sopes y larguitas doña vicky,20.03476,-100.723543,,,,,,,,MX,2016-05-29,2021-08-12,,,,,,,,['4bf58dd8d48988d151941735'],['Dining and Drinking > Restaurant > Mexican Restaurant > Taco Restaurant'],b'\x00\x00\x00\x00\x01\xc0Y.N\x87L\x8f\xfc@4\x08\xe6\x08\x075~',"{'xmin': -100.723543, 'ymin': 20.03476, 'xmax': -100.723543, 'ymax': 20.03476}",dining and drinking > restaurant > mexican restaurant > taco restaurant,1
66425fe393613f264d86247d,Pechan San Pancho,21.026104,-101.856346,Calle José María Morelos 603,San Francisco del Rincón,Gto.,36300,,,,MX,2024-05-13,2024-05-13,,,,,,,,['4bf58dd8d48988d151941735'],['Dining and Drinking > Restaurant > Mexican Restaurant > Taco Restaurant'],b'\x00\x00\x00\x00\x01\xc0Yv\xce_t\x03\xde@5\x06\xae\xc0rKw',"{'xmin': -101.856346, 'ymin': 21.026104, 'xmax': -101.856346, 'ymax': 21.026104}",dining and drinking > restaurant > mexican restaurant > taco restaurant,1
581565f938fab0b1455131c5,El Tacotal,20.84985,-103.42477,,,,,,,,MX,2016-10-30,2020-11-25,,,,,,,,['4bf58dd8d48988d151941735'],['Dining and Drinking > Restaurant > Mexican Restaurant > Taco Restaurant'],b'\x00\x00\x00\x00\x01\xc0Y\xdb/n\x82\x94\x9a@4\xd9\x8f\xc5\x04\x81o',"{'xmin': -103.42477, 'ymin': 20.84985, 'xmax': -103.42477, 'ymax': 20.84985}",dining and drinking > restaurant > mexican restaurant > taco restaurant,1
5185db18498ef5bca1b9e02a,tacos del triangulito,20.63640785217285,-103.3875961303711,,,,,,,,MX,2013-05-05,2021-08-12,,,,,,,,['4bf58dd8d48988d151941735'],['Dining and Drinking > Restaurant > Mexican Restaurant > Taco Restaurant'],b'\x00\x00\x00\x00\x01\xc0Y\xd8\xce`\x00\x00\x00@4\xa2\xeb\xa0\x00\x00\x00',"{'xmin': -103.3875961303711, 'ymin': 20.63640785217285, 'xmax': -103.3875961303711, 'ymax': 20.63640785217285}",dining and drinking > restaurant > mexican restaurant > taco restaurant,1
4fdd446ce4b05c4e3b5465a5,Taquería Circunvalación,20.694532,-103.32308,Circunvalación Oblatos,Guadalajara,Jalisco,44320,,,,MX,2012-06-17,2021-08-14,,,,,,,,['4bf58dd8d48988d151941735'],['Dining and Drinking > Restaurant > Mexican Restaurant > Taco Restaurant'],b'\x00\x00\x00\x00\x01\xc0Y\xd4\xadW\xbc\x7fx@4\xb1\xcc\xd9b\x06\x85',"{'xmin': -103.32308, 'ymin': 20.694532, 'xmax': -103.32308, 'ymax': 20.694532}",dining and drinking > restaurant > mexican restaurant > taco restaurant,1
4f2c9c52e4b059914e36761a,Orale k'taco,19.091322632509293,-104.29978517224359,,,,,,,,MX,2012-02-04,2021-08-16,,,,,,,,['4bf58dd8d48988d151941735'],['Dining and Drinking > Restaurant > Mexican Restaurant > Taco Restaurant'],b'\x00\x00\x00\x00\x01\xc0Z\x13/\xae%\xa7*@3\x17`\xeb\x88\x03\x15',"{'xmin': -104.29978517224359, 'ymin': 19.091322632509293, 'xmax': -104.29978517224359, 'ymax': 19.091322632509293}",dining and drinking > restaurant > mexican restaurant > taco restaurant,1
4f974647e4b0eee0a566c370,Los Aztecas,20.68732217809943,-103.42707790444292,Juan Palomar y Arias #530,Zapopan,JAL,,,,,MX,2012-04-25,2020-11-23,,,,,,,,['4bf58dd8d48988d151941735'],['Dining and Drinking > Restaurant > Mexican Restaurant > Taco Restaurant'],b'\x00\x00\x00\x00\x01\xc0Y\xdbU>\x90\x1bM@4\xaf\xf4X\xa4\xc0\xa6',"{'xmin': -103.42707790444292, 'ymin': 20.68732217809943, 'xmax': -103.42707790444292, 'ymax': 20.68732217809943}",dining and drinking > restaurant > mexican restaurant > taco restaurant,1
4d883a427139b1f7646a9dd4,Tacos El Guero,20.6219954123937,-103.3706280618056,8 de Julio 3625,Guadalajara,Jalisco,,,,,MX,2011-03-22,2021-08-14,,,,,,,,['4bf58dd8d48988d151941735'],['Dining and Drinking > Restaurant > Mexican Restaurant > Taco Restaurant'],b'\x00\x00\x00\x00\x01\xc0Y\xd7\xb8^\xc3\x1b\xd6@4\x9f;\x17b~4',"{'xmin': -103.3706280618056, 'ymin': 20.6219954123937, 'xmax': -103.3706280618056, 'ymax': 20.6219954123937}",dining and drinking > restaurant > mexican restaurant > taco restaurant,1
53b77b59498eb71c639dae75,"Tacos ""Los Cuñados""",21.149891239134043,-101.70257903775814,,,,,,,,MX,2014-07-05,2021-08-13,,,,,,,,['4bf58dd8d48988d151941735'],['Dining and Drinking > Restaurant > Mexican Restaurant > Taco Restaurant'],b'\x00\x00\x00\x00\x01\xc0Yl\xf7\x0e\x11\x81\xb0@5&_E\xb2\t\xa2',"{'xmin': -101.70257903775814, 'ymin': 21.149891239134043, 'xmax': -101.70257903775814, 'ymax': 21.149891239134043}",dining and drinking > restaurant > mexican restaurant > taco restaurant,1
4f766690e4b0e8caa4d6a81a,Taqueria Jalisco,20.70098123846222,-101.36213407024833,,,,,,,,MX,2012-03-31,2021-08-12,,,,,,,,['4bf58dd8d48988d151941735'],['Dining and Drinking > Restaurant > Mexican Restaurant > Taco Restaurant'],b'\x00\x00\x00\x00\x01\xc0YW-4a\x1e\xf9@4\xb3s\x81\xa6N\x08',"{'xmin': -101.36213407024833, 'ymin': 20.70098123846222, 'xmax': -101.36213407024833, 'ymax': 20.70098123846222}",dining and drinking > restaurant > mexican restaurant > taco restaurant,1
5348d16e498ea481e6538580,El Pastorcito de San Luis,22.144769997085547,-101.02009177207947,Guadalcázar 115 - 1,Lomas 1a Secc,San Luis Potosí,78210,,,,MX,2014-04-12,2021-08-13,,,,,,,,['4bf58dd8d48988d151941735'],['Dining and Drinking > Restaurant > Mexican Restaurant > Taco Restaurant'],b'\x00\x00\x00\x00\x01\xc0YAI/\x00\x00\x00@6%\x0f\xa5\x82\xec\xa8',"{'xmin': -101.02009177207947, 'ymin': 22.144769997085547, 'xmax': -101.02009177207947, 'ymax': 22.144769997085547}",dining and drinking > restaurant > mexican restaurant > taco restaurant,1
5c036231a92d98002c5e5732,taco nuestro,19.264713,-103.702356,,Colima,COL,28018,,,,MX,2018-12-02,2020-11-23,,,,,,,,['4bf58dd8d48988d151941735'],['Dining and Drinking > Restaurant > Mexican Restaurant > Taco Restaurant'],b'\x00\x00\x00\x00\x01\xc0Y\xec\xf3f\x94\x89\x8f@3C\xc4;-\xd3x',"{'xmin': -103.702356, 'ymin': 19.264713, 'xmax': -103.702356, 'ymax': 19.264713}",dining and drinking > restaurant > mexican restaurant > taco restaurant,1
54445aa7498edd6718d559da,Taquería Pitin,20.70498051725936,-102.32868478891679,,,,,,,,MX,2014-10-20,2021-08-14,,,,,,,,['4bf58dd8d48988d151941735'],['Dining and Drinking > Restaurant > Mexican Restaurant > Taco Restaurant'],b'\x00\x00\x00\x00\x01\xc0Y\x95\t+\xec\xc5\xc7@4\xb4y\x9ai\xf25',"{'xmin': -102.32868478891679, 'ymin': 20.70498051725936, 'xmax': -102.32868478891679, 'ymax': 20.70498051725936}",dining and drinking > restaurant > mexican restaurant > taco restaurant,1
4e6429637d8b85408a6a4af1,Tacos Don Ramón,20.998124067352606,-101.29257966170844,,Guanajuato,Guanajuato,,,,,MX,2011-09-05,2020-11-22,,,,,,,,['4bf58dd8d48988d151941735'],['Dining and Drinking > Restaurant > Mexican Restaurant > Taco Restaurant'],b'\x00\x00\x00\x00\x01\xc0YR\xb9\xa0\x0b\xa0\xcd@4\xff\x85\x0f\x12\xa1D',"{'xmin': -101.29257966170844, 'ymin': 20.998124067352606, 'xmax': -101.29257966170844, 'ymax': 20.998124067352606}",dining and drinking > restaurant > mexican restaurant > taco restaurant,1
4f9dfd8ce4b0606430bb61ce,Don Taco,20.519900269720466,-100.81560000608435,,,,,,,,MX,2012-04-30,2021-08-11,,,,,,,,['4bf58dd8d48988d151941735'],['Dining and Drinking > Restaurant > Mexican Restaurant > Taco Restaurant'],b'\x00\x00\x00\x00\x01\xc0Y42\xca^/\xfb@4\x85\x18/\x1f\xa1\x88',"{'xmin': -100.81560000608435, 'ymin': 20.519900269720466, 'xmax': -100.81560000608435, 'ymax': 20.519900269720466}",dining and drinking > restaurant > mexican restaurant > taco restaurant,1
576c09bd498e41306e22c01e,"Tacos ""TARE""",20.486015,-100.968754,,,,,,,,MX,2016-06-23,2021-08-13,,,,,,,,['4bf58dd8d48988d151941735'],['Dining and Drinking > Restaurant > Mexican Restaurant > Taco Restaurant'],b'\x00\x00\x00\x00\x01\xc0Y>\x00\x10\xc6\xf7\xa1@4|kz\xa2]\x8d',"{'xmin': -100.968754, 'ymin': 20.486015, 'xmax': -100.968754, 'ymax': 20.486015}",dining and drinking > restaurant > mexican restaurant > taco restaurant,1
501d5949e4b01ea6a22cf2e5,Tacos Don Rafa Carrtera Colima Gdl,19.267906,-103.676405,,,,,,,,MX,2012-08-04,2020-11-25,,,,,,,,['4bf58dd8d48988d151941735'],['Dining and Drinking > Restaurant > Mexican Restaurant > Taco Restaurant'],b'\x00\x00\x00\x00\x01\xc0Y\xebJ82vu@3D\x95|\xd4f\xf5',"{'xmin': -103.676405, 'ymin': 19.267906, 'xmax': -103.676405, 'ymax': 19.267906}",dining and drinking > restaurant > mexican restaurant > taco restaurant,1
4ed29bb430f81894b0f7eb80,Gorditas Y Quesadillas Francia,21.139909381768213,-101.68948146210519,,León de Los Aldama,Guanajuato,,,,,MX,2011-11-27,2020-11-25,,,,,,,,['4bf58dd8d48988d151941735'],['Dining and Drinking > Restaurant > Mexican Restaurant > Taco Restaurant'],b'\x00\x00\x00\x00\x01\xc0Yl v\xda\xbc*@5#\xd1\x19\xeb\x19\x1a',"{'xmin': -101.68948146210519, 'ymin': 21.139909381768213, 'xmax': -101.68948146210519, 'ymax': 21.139909381768213}",dining and drinking > restaurant > mexican restaurant > taco restaurant,1
5546e430498eac1183544268,"Taqueria ""Magaña""",21.189982,-104.637615,,,,,,,,MX,2015-05-04,2020-11-30,,,,,,,,['4bf58dd8d48988d151941735'],['Dining and Drinking > Restaurant > Mexican Restaurant > Taco Restaurant'],b'\x00\x00\x00\x00\x01\xc0Z(\xce\xaf%\x1c\x19@50\xa2\xa9\x0c\xd4$',"{'xmin': -104.637615, 'ymin': 21.189982, 'xmax': -104.637615, 'ymax': 21.189982}",dining and drinking > restaurant > mexican restaurant > taco restaurant,1
4dd8995752b1a5c6446ad603,Tacos Charles,20.65622,-103.41912,Labna 1131,Zapopan,JAL,45054,,,,MX,2011-05-22,2020-11-24,,,,,,,,['4bf58dd8d48988d151941735'],['Dining and Drinking > Restaurant > Mexican Restaurant > Taco Restaurant'],b'\x00\x00\x00\x00\x01\xc0Y\xda\xd2\xdc\xb1F_@4\xa7\xfe\x08\xae\xfb+',"{'xmin': -103.41912, 'ymin': 20.65622, 'xmax': -103.41912, 'ymax': 20.65622}",dining and drinking > restaurant > mexican restaurant > taco restaurant,1
5637cb84498e1b96ff8d5053,carnitas tacambaro michoacan,20.673259,-103.366041,,Guadalajara,,,,,,MX,2015-11-02,2021-08-15,,,,,,,,['4bf58dd8d48988d151941735'],['Dining and Drinking > Restaurant > Mexican Restaurant > Taco Restaurant'],b'\x00\x00\x00\x00\x01\xc0Y\xd7m7:\xff\xb0@4\xacZ\xb3\xaa\xbc\xd8',"{'xmin': -103.366041, 'ymin': 20.673259, 'xmax': -103.366041, 'ymax': 20.673259}",dining and drinking > restaurant > mexican restaurant > taco restaurant,1
57562d26498e3362917e78be,Tacos De Menudo La Huasteca,18.470894,-97.39121,3 Norte,Tehuacán,,,,,,MX,2016-06-07,2020-11-22,,,,,,,,['4bf58dd8d48988d151941735'],['Dining and Drinking > Restaurant > Mexican Restaurant > Taco Restaurant'],b'\x00\x00\x00\x00\x01\xc0XY\t\x95\xaa\xf7\x90@2x\x8c\x82Y\xe1\xf4',"{'xmin': -97.39121, 'ymin': 18.470894, 'xmax': -97.39121, 'ymax': 18.470894}",dining and drinking > restaurant > mexican restaurant > taco restaurant,1
514a8045e4b0b5a9c154d0a4,Tacos El Mopri,14.904132,-92.261705,,,,,,,,MX,2013-03-21,2021-08-15,,,,,,,,['4bf58dd8d48988d151941735'],['Dining and Drinking > Restaurant > Mexican Restaurant > Taco Restaurant'],b'\x00\x00\x00\x00\x01\xc0W\x10\xbf\xc6T\x0c\xc8@-\xce\xeac\xb6\x88\xbe',"{'xmin': -92.261705, 'ymin': 14.904132, 'xmax': -92.261705, 'ymax': 14.904132}",dining and drinking > restaurant > mexican restaurant > taco restaurant,1
4f05fb907ee5ff2e8ced6bf7,Carnitas,17.443026666225894,-99.55096006393433,Guerrero,Ciudad de México,Distrito Federal,10700,,,,MX,2012-01-05,2020-11-30,,,,,,,,['4bf58dd8d48988d151941735'],['Dining and Drinking > Restaurant > Mexican Restaurant > Taco Restaurant'],b'\x00\x00\x00\x00\x01\xc0X\xe3B\xee\x00\x00\x00@1qj2\x12\xb25',"{'xmin': -99.55096006393433, 'ymin': 17.443026666225894, 'xmax': -99.55096006393433, 'ymax': 17.443026666225894}",dining and drinking > restaurant > mexican restaurant > taco restaurant,1
54013a8c498e28387c03ab17,los caudillos tacos & grill,19.23246829710074,-99.55935365977011,,,,,,,,MX,2014-08-30,2020-11-30,,,,,,,,['4bf58dd8d48988d151941735'],['Dining and Drinking > Restaurant > Mexican Restaurant > Taco Restaurant'],b'\x00\x00\x00\x00\x01\xc0X\xe3\xccsJ\xe7\x13@3;\x83\n\xd5g\x8d',"{'xmin': -99.55935365977011, 'ymin': 19.23246829710074, 'xmax': -99.55935365977011, 'ymax': 19.23246829710074}",dining and drinking > restaurant > mexican restaurant > taco restaurant,1
4efde85ed3e364d5fa83e559,Plaza Corregidora,19.700953344033984,-101.1940881070896,,Morelia,,,,,,MX,2011-12-30,2020-11-30,,,,,,,,['4bf58dd8d48988d151941735'],['Dining and Drinking > Restaurant > Mexican Restaurant > Taco Restaurant'],b'\x00\x00\x00\x00\x01\xc0YLk\xf0\x86\x1f\x83@3\xb3q\xad\xa8\xa5\xd6',"{'xmin': -101.1940881070896, 'ymin': 19.700953344033984, 'xmax': -101.1940881070896, 'ymax': 19.700953344033984}",dining and drinking > restaurant > mexican restaurant > taco restaurant,1
4e3f52dfb61cb577be90f736,Taqueria Los Compadres,14.886254203391465,-92.25272901935331,,,,,,,,MX,2011-08-08,2020-11-21,,,,,,,,['4bf58dd8d48988d151941735'],['Dining and Drinking > Restaurant > Mexican Restaurant > Taco Restaurant'],"b'\x00\x00\x00\x00\x01\xc0W\x10,\xb6V7\xd9@-\xc5\xc3\x1cg\x04\x8b'","{'xmin': -92.25272901935331, 'ymin': 14.886254203391465, 'xmax': -92.25272901935331, 'ymax': 14.886254203391465}",dining and drinking > restaurant > mexican restaurant > taco restaurant,1
5892809d6cda1c3ed2925a11,stappy,19.297154,-99.137247,,,,,,,,MX,2017-02-02,2021-08-17,,,,,,,,['4bf58dd8d48988d151941735'],['Dining and Drinking > Restaurant > Mexican Restaurant > Taco Restaurant'],b'\x00\x00\x00\x00\x01\xc0X\xc8\xc8\xa7\xa4\x1eX@3L\x12H\xd7\xe0&',"{'xmin': -99.137247, 'ymin': 19.297154, 'xmax': -99.137247, 'ymax': 19.297154}",dining and drinking > restaurant > mexican restaurant > taco restaurant,1
58759a6f2f91cb1cb3ba9247,Taco Ducks's,19.82039,-101.7813,5 de Febrero 837,Zacapu,Michoacán,58630,,,,MX,2017-01-11,2020-11-20,,,,,,,,['4bf58dd8d48988d151941735'],['Dining and Drinking > Restaurant > Mexican Restaurant > Taco Restaurant'],"b""\x00\x00\x00\x00\x01\xc0Yr\x00\xd1\xb7\x17Y@3\xd2\x05\x14;\xf7'""","{'xmin': -101.7813, 'ymin': 19.82039, 'xmax': -101.7813, 'ymax': 19.82039}",dining and drinking > restaurant > mexican restaurant > taco restaurant,1
5aee7f05a89b5a002499cda1,Taqueria Jackelino,19.293608461771427,-99.16248635692652,69A Calle José María Morelos,Ciudad de México,CDMX,14050,,,,MX,2018-05-06,2020-11-22,,,,,,,,['4bf58dd8d48988d151941735'],['Dining and Drinking > Restaurant > Mexican Restaurant > Taco Restaurant'],b'\x00\x00\x00\x00\x01\xc0X\xcaf--B\xeb@3K)\xec\x95#\x1c',"{'xmin': -99.16248635692652, 'ymin': 19.293608461771427, 'xmax': -99.16248635692652, 'ymax': 19.293608461771427}",dining and drinking > restaurant > mexican restaurant > taco restaurant,1
4c86a24ee602b1f7bbe0c17a,Paseo de la Salmonela,19.335070654755302,-99.18100278582607,Paseo de las Facultades,Ciudad de México,Distrito Federal,,,,,MX,2010-09-07,2020-11-20,,,,,,,,['4bf58dd8d48988d1c1941735' '4bf58dd8d48988d151941735'],"['Dining and Drinking > Restaurant > Mexican Restaurant'
 'Dining and Drinking > Restaurant > Mexican Restaurant > Taco Restaurant']",b'\x00\x00\x00\x00\x01\xc0X\xcb\x95\x8c\xb5f\xe7@3U\xc70\xc0\x05\xf9',"{'xmin': -99.18100278582607, 'ymin': 19.335070654755302, 'xmax': -99.18100278582607, 'ymax': 19.335070654755302}","dining and drinking > restaurant > mexican restaurant, dining and drinking > restaurant > mexican restaurant > taco restaurant",1
50e1dbe8e4b0f6f2d82026f7,Tacos del Chamizal,17.53867015168277,-101.27469048736349,,,,,,,,MX,2012-12-31,2021-08-16,,,,,,,,['4bf58dd8d48988d151941735'],['Dining and Drinking > Restaurant > Mexican Restaurant > Taco Restaurant'],b'\x00\x00\x00\x00\x01\xc0YQ\x94\x87h\xef\xe7@1\x89\xe6I|\xcf\x11',"{'xmin': -101.27469048736349, 'ymin': 17.53867015168277, 'xmax': -101.27469048736349, 'ymax': 17.53867015168277}",dining and drinking > restaurant > mexican restaurant > taco restaurant,1
4f2eaa93e4b059915047513f,Carnitas Don Beto,18.950205,-99.248175,Calzada de Los Reyes,Cuernavaca,Morelos,,,,,MX,2012-02-05,2020-11-23,,,,,,,,['4bf58dd8d48988d151941735'],['Dining and Drinking > Restaurant > Mexican Restaurant > Taco Restaurant'],b'\x00\x00\x00\x00\x01\xc0X\xcf\xe2\x19e+\xd4@2\xf3@\xa2\x87~\xe5',"{'xmin': -99.248175, 'ymin': 18.950205, 'xmax': -99.248175, 'ymax': 18.950205}",dining and drinking > restaurant > mexican restaurant > taco restaurant,1
5122c953e4b007a51b29490a,Gorditacos,18.926508,-99.221259,,,,,,,,MX,2013-02-19,2021-08-11,,,,,,,,['4bf58dd8d48988d151941735'],['Dining and Drinking > Restaurant > Mexican Restaurant > Taco Restaurant'],b'\x00\x00\x00\x00\x01\xc0X\xce)\x1b\x82<\x86@2\xed/\xa0\xd7{|',"{'xmin': -99.221259, 'ymin': 18.926508, 'xmax': -99.221259, 'ymax': 18.926508}",dining and drinking > restaurant > mexican restaurant > taco restaurant,1
5015ef8fe4b06a7cdb7e998c,gorditas guicho dominguez,18.842045367316185,-97.12520933506437,,,,,,,,MX,2012-07-30,2021-08-11,,,,,,,,['4bf58dd8d48988d151941735'],['Dining and Drinking > Restaurant > Mexican Restaurant > Taco Restaurant'],b'\x00\x00\x00\x00\x01\xc0XH\x03n\x03\xd0X@2\xd7\x90I\x02_\x0f',"{'xmin': -97.12520933506437, 'ymin': 18.842045367316185, 'xmax': -97.12520933506437, 'ymax': 18.842045367316185}",dining and drinking > restaurant > mexican restaurant > taco restaurant,1
4ea624305c5c6cec78e21553,El Chuy,16.224267387946767,-92.12106904085388,,Comitán de Domínguez,Chiapas,,,,,MX,2011-10-25,2020-11-24,,,,,,,,['4bf58dd8d48988d151941735'],['Dining and Drinking > Restaurant > Mexican Restaurant > Taco Restaurant'],b'\x00\x00\x00\x00\x01\xc0W\x07\xbf\x98\\\xc1\xa2@09i\x96h\xcal',"{'xmin': -92.12106904085388, 'ymin': 16.224267387946767, 'xmax': -92.12106904085388, 'ymax': 16.224267387946767}",dining and drinking > restaurant > mexican restaurant > taco restaurant,1
535c79a9498e5e0f8bc5b861,tacos el guero,18.86122534384844,-97.09563845929266,Circunvalacion,Orizaba,veracruz,94300,,,,MX,2014-04-27,2020-11-24,,,,,,,,['4bf58dd8d48988d151941735'],['Dining and Drinking > Restaurant > Mexican Restaurant > Taco Restaurant'],b'\x00\x00\x00\x00\x01\xc0XF\x1e\xf0\xc5\xb9\xb7@2\xdcyC\x9eP\xbe',"{'xmin': -97.09563845929266, 'ymin': 18.86122534384844, 'xmax': -97.09563845929266, 'ymax': 18.86122534384844}",dining and drinking > restaurant > mexican restaurant > taco restaurant,1
537830da11d2b93afe5e087c,El Mezquite,18.38197135925293,-97.25899505615234,,,,,,,,MX,2014-05-18,2020-11-22,,,,,,,,['4bf58dd8d48988d151941735'],['Dining and Drinking > Restaurant > Mexican Restaurant > Taco Restaurant'],b'\x00\x00\x00\x00\x01\xc0XP\x93`\x00\x00\x00@2a\xc8\xe0\x00\x00\x00',"{'xmin': -97.25899505615234, 'ymin': 18.38197135925293, 'xmax': -97.25899505615234, 'ymax': 18.38197135925293}",dining and drinking > restaurant > mexican restaurant > taco restaurant,1
5065d55de4b036a527ad4eac,Tacos Don Miguel,19.282673666098063,-99.59443841192444,,,,,,,,MX,2012-09-28,2020-11-24,,,,,,,,['4bf58dd8d48988d151941735'],['Dining and Drinking > Restaurant > Mexican Restaurant > Taco Restaurant'],"b""\x00\x00\x00\x00\x01\xc0X\xe6\x0bGh\xac\xe8@3H]M'T\xe4""","{'xmin': -99.59443841192444, 'ymin': 19.282673666098063, 'xmax': -99.59443841192444, 'ymax': 19.282673666098063}",dining and drinking > restaurant > mexican restaurant > taco restaurant,1
501cc695e4b03f68ac345948,Taqueria OLY,18.930797181327996,-99.23907741282108,Av Morelos Norte,Cuernavaca,,,,,,MX,2012-08-04,2020-11-22,,,,,,,,['4bf58dd8d48988d151941735'],['Dining and Drinking > Restaurant > Mexican Restaurant > Taco Restaurant'],b'\x00\x00\x00\x00\x01\xc0X\xcfM\x0bYQ\xd8@2\xeeH\xb9]\x03B',"{'xmin': -99.23907741282108, 'ymin': 18.930797181327996, 'xmax': -99.23907741282108, 'ymax': 18.930797181327996}",dining and drinking > restaurant > mexican restaurant > taco restaurant,1
53d9a596498e751d2cef0bec,Guacamole,19.277670244114457,-99.11820852214433,,,,,,,,MX,2014-07-31,2021-08-17,,,,,,,,['4bf58dd8d48988d151941735'],['Dining and Drinking > Restaurant > Mexican Restaurant > Taco Restaurant'],b'\x00\x00\x00\x00\x01\xc0X\xc7\x90\xbaz-\xfa@3G\x15e\xa9\x8b?',"{'xmin': -99.11820852214433, 'ymin': 19.277670244114457, 'xmax': -99.11820852214433, 'ymax': 19.277670244114457}",dining and drinking > restaurant > mexican restaurant > taco restaurant,1
52f6728911d299629403e7ae,Carnitas El Zapata,19.2907963033386,-99.13696300551278,,,,,,,,MX,2014-02-08,2021-08-11,,,,,,,,['4bf58dd8d48988d151941735'],['Dining and Drinking > Restaurant > Mexican Restaurant > Taco Restaurant'],b'\x00\x00\x00\x00\x01\xc0X\xc8\xc4\x00{\\\x1d@3Jq\xa0d\xa3\x11',"{'xmin': -99.13696300551278, 'ymin': 19.2907963033386, 'xmax': -99.13696300551278, 'ymax': 19.2907963033386}",dining and drinking > restaurant > mexican restaurant > taco restaurant,1
571ae08f498e52f5b042bade,"Taqueria ""El Chef""",16.852694,-99.847781,,,,,,,,MX,2016-04-23,2021-08-16,,,,,,,,['4bf58dd8d48988d151941735'],['Dining and Drinking > Restaurant > Mexican Restaurant > Taco Restaurant'],"b""\x00\x00\x00\x00\x01\xc0X\xf6B\x0b=J\xe4@0\xdaJ'k~\xd4""","{'xmin': -99.847781, 'ymin': 16.852694, 'xmax': -99.847781, 'ymax': 16.852694}",dining and drinking > restaurant > mexican restaurant > taco restaurant,1
4f6be53fe4b0e42840d6aae1,Cenaduria Rossy,19.083892092060186,-102.35451145226423,,,,,,,,MX,2012-03-23,2023-12-19,,453 534 2494,,,,,,['4bf58dd8d48988d151941735'],['Dining and Drinking > Restaurant > Mexican Restaurant > Taco Restaurant'],b'\x00\x00\x00\x00\x01\xc0Y\x96\xb0P\xcdb\x12@3\x15y\xf3\xbf\xca\xa1',"{'xmin': -102.35451145226423, 'ymin': 19.083892092060186, 'xmax': -102.35451145226423, 'ymax': 19.083892092060186}",dining and drinking > restaurant > mexican restaurant > taco restaurant,1
54dd7e1a498e57d0482855ce,"Taquería al Carbón ""Charmín""",18.93166649612732,-99.1900323006085,,Cuernavaca,Morelos,,,,,MX,2015-02-13,2020-11-25,,,,,,,,['4bf58dd8d48988d151941735'],['Dining and Drinking > Restaurant > Mexican Restaurant > Taco Restaurant'],b'\x00\x00\x00\x00\x01\xc0X\xcc)}=\x13\x04@2\xee\x81\xb2\x0b\xa5P',"{'xmin': -99.1900323006085, 'ymin': 18.93166649612732, 'xmax': -99.1900323006085, 'ymax': 18.93166649612732}",dining and drinking > restaurant > mexican restaurant > taco restaurant,1
56722958498ee0cb5aea269a,I ❤️ Tla,15.764538,-96.130408,Calle Vialidad 5 Lote 3 Mza 5,Bahías De Huatulco,Oaxaca,70989,,,,MX,2015-12-17,2020-11-25,,,,,,,ilovetlayudas,['4bf58dd8d48988d151941735'],['Dining and Drinking > Restaurant > Mexican Restaurant > Taco Restaurant'],b'\x00\x00\x00\x00\x01\xc0X\x08X\x9a\xcb\xc8\xc1@/\x87q\x86U\x197',"{'xmin': -96.130408, 'ymin': 15.764538, 'xmax': -96.130408, 'ymax': 15.764538}",dining and drinking > restaurant > mexican restaurant > taco restaurant,1
4f75e428e4b0c0edd5f258b4,Quesadillas Sixtin,19.292005426976484,-99.12666023501134,,tlalpan,,,,,,MX,2012-03-30,2020-11-24,,,,,,,,['4bf58dd8d48988d151941735'],['Dining and Drinking > Restaurant > Mexican Restaurant > Taco Restaurant'],b'\x00\x00\x00\x00\x01\xc0X\xc8\x1b3\x87\xc4\xf4@3J\xc0\xde\x1f\x1eW',"{'xmin': -99.12666023501134, 'ymin': 19.292005426976484, 'xmax': -99.12666023501134, 'ymax': 19.292005426976484}",dining and drinking > restaurant > mexican restaurant > taco restaurant,1
5420d49b498e32acece2e6bd,el machin,17.050517105697605,-96.63094520493716,,,,,,,,MX,2014-09-23,2021-08-15,,,,,,,,['4bf58dd8d48988d151941735'],['Dining and Drinking > Restaurant > Mexican Restaurant > Taco Restaurant'],b'\x00\x00\x00\x00\x01\xc0X(ag\xff1{@1\x0c\xee\xb0d\xdc\x1b',"{'xmin': -96.63094520493716, 'ymin': 17.050517105697605, 'xmax': -96.63094520493716, 'ymax': 17.050517105697605}",dining and drinking > restaurant > mexican restaurant > taco restaurant,1
58d9237e7b88a710099b24d6,Tacos El Carnalito,18.337549,-99.525609,Periférico frente a Iglesia de la Santa Cruz,Iguala de la Independencia,GRO,40000,,,,MX,2017-03-27,2020-11-30,,,,,,,,['4bf58dd8d48988d151941735'],['Dining and Drinking > Restaurant > Mexican Restaurant > Taco Restaurant'],b'\x00\x00\x00\x00\x01\xc0X\xe1\xa3\x93\xee^\xee@2Vi\x9c{\xcc)',"{'xmin': -99.525609, 'ymin': 18.337549, 'xmax': -99.525609, 'ymax': 18.337549}",dining and drinking > restaurant > mexican restaurant > taco restaurant,1
575c296d498ee1cbfd915271,EL PIBILCITO,18.362948,-95.796785,,,,,,,,MX,2016-06-11,2021-08-17,,,,,,,,['4bf58dd8d48988d151941735'],['Dining and Drinking > Restaurant > Mexican Restaurant > Taco Restaurant'],b'\x00\x00\x00\x00\x01\xc0W\xf2\xfe\x86\x83<`@2\\\xea(\xfe&\x0b',"{'xmin': -95.796785, 'ymin': 18.362948, 'xmax': -95.796785, 'ymax': 18.362948}",dining and drinking > restaurant > mexican restaurant > taco restaurant,1
54efddc8498e2fcc7d6b6713,Andinos taqueria,19.41274,-102.055389,,,,,,,,MX,2015-02-27,2021-08-13,,,,,,,,['4bf58dd8d48988d151941735'],['Dining and Drinking > Restaurant > Mexican Restaurant > Taco Restaurant'],b'\x00\x00\x00\x00\x01\xc0Y\x83\x8b~M\xe3\xb9@3i\xa9T!\xc0D',"{'xmin': -102.055389, 'ymin': 19.41274, 'xmax': -102.055389, 'ymax': 19.41274}",dining and drinking > restaurant > mexican restaurant > taco restaurant,1
4fc989dde4b0efaf518cad4c,Taquería La Chicana,17.029022254731554,-96.72767565286031,Calle Hornos #401,Oaxaca,Oaxaca,,,,,MX,2012-06-02,2020-11-24,,,,,,,,['4bf58dd8d48988d151941735'],['Dining and Drinking > Restaurant > Mexican Restaurant > Taco Restaurant'],b'\x00\x00\x00\x00\x01\xc0X.\x92<\xe6\xc8Z@1\x07n\x00\xa2\xed\x9f',"{'xmin': -96.72767565286031, 'ymin': 17.029022254731554, 'xmax': -96.72767565286031, 'ymax': 17.029022254731554}",dining and drinking > restaurant > mexican restaurant > taco restaurant,1
4eb599b693ad2365703e584d,Rica Cecina,18.90423845,-99.219375,,Cuernavaca,Morelos,,,,,MX,2011-11-05,2020-11-22,,,,,,,,['4bf58dd8d48988d151941735'],['Dining and Drinking > Restaurant > Mexican Restaurant > Taco Restaurant'],b'\x00\x00\x00\x00\x01\xc0X\xce\n=p\xa3\xd7@2\xe7|+\xca\x89&',"{'xmin': -99.219375, 'ymin': 18.90423845, 'xmax': -99.219375, 'ymax': 18.90423845}",dining and drinking > restaurant > mexican restaurant > taco restaurant,1
4fd2bb66e4b0b916e9ed739e,Taqueria El Infierno,19.417198868254,-102.0329693215981,Calzada La Fuente,,,,,,,MX,2012-06-09,2021-08-15,,,,,,,,['4bf58dd8d48988d151941735'],['Dining and Drinking > Restaurant > Mexican Restaurant > Taco Restaurant'],b'\x00\x00\x00\x00\x01\xc0Y\x82\x1c+[\x82@@3j\xcd\x8b\x87\x14C',"{'xmin': -102.0329693215981, 'ymin': 19.417198868254, 'xmax': -102.0329693215981, 'ymax': 19.417198868254}",dining and drinking > restaurant > mexican restaurant > taco restaurant,1
515a4b4ee4b0f68bfbfe94bf,Tacos Checo,19.27680613039667,-99.14361273382804,,,,,,,,MX,2013-04-02,2021-08-15,,,,,,,,['4bf58dd8d48988d151941735'],['Dining and Drinking > Restaurant > Mexican Restaurant > Taco Restaurant'],b'\x00\x00\x00\x00\x01\xc0X\xc90\xf3v\xc5(@3F\xdc\xc4=b\xd1',"{'xmin': -99.14361273382804, 'ymin': 19.27680613039667, 'xmax': -99.14361273382804, 'ymax': 19.27680613039667}",dining and drinking > restaurant > mexican restaurant > taco restaurant,1
4d86a8b05e70224b74943b09,El Pariente,19.715531989211605,-101.17324726340036,Periférico Revolución 879,Morelia,Michoacán de Ocampo,,,,,MX,2011-03-21,2020-11-30,,,,,,,,['4bf58dd8d48988d1c1941735' '4bf58dd8d48988d151941735'],"['Dining and Drinking > Restaurant > Mexican Restaurant'
 'Dining and Drinking > Restaurant > Mexican Restaurant > Taco Restaurant']",b'\x00\x00\x00\x00\x01\xc0YK\x16{\xb0\x9bD@3\xb7-\x1a\xbc\xe7\xda',"{'xmin': -101.17324726340036, 'ymin': 19.715531989211605, 'xmax': -101.17324726340036, 'ymax': 19.715531989211605}","dining and drinking > restaurant > mexican restaurant, dining and drinking > restaurant > mexican restaurant > taco restaurant",1
4e7d4c278b81fa0f5af819ad,Xanadu,18.472236978049214,-97.39123211423866,,Tehuacán,Puebla,,,,,MX,2011-09-24,2023-12-21,,238 380 4092,,,,,,['4bf58dd8d48988d151941735'],['Dining and Drinking > Restaurant > Mexican Restaurant > Taco Restaurant'],b'\x00\x00\x00\x00\x01\xc0XY\t\xf2k\xf33@2x\xe4\x85\xc8\xae\xe9',"{'xmin': -97.39123211423866, 'ymin': 18.472236978049214, 'xmax': -97.39123211423866, 'ymax': 18.472236978049214}",dining and drinking > restaurant > mexican restaurant > taco restaurant,1
53e3d769498e939aba8a0f5c,Tacos Tezontle,19.26285257882018,-99.11331882770858,Canal de Tezontle,"Mexico City, Mexico",DF,08040,,,,MX,2014-08-07,2020-11-25,,,,,282959591889368.0,,,['4bf58dd8d48988d151941735' '4bf58dd8d48988d1c1941735'],"['Dining and Drinking > Restaurant > Mexican Restaurant > Taco Restaurant'
 'Dining and Drinking > Restaurant > Mexican Restaurant']",b'\x00\x00\x00\x00\x01\xc0X\xc7@\x9d\x9c\xc1\xe2@3CJN}\xb3\xb2',"{'xmin': -99.11331882770858, 'ymin': 19.26285257882018, 'xmax': -99.11331882770858, 'ymax': 19.26285257882018}","dining and drinking > restaurant > mexican restaurant > taco restaurant, dining and drinking > restaurant > mexican restaurant",1
52924ed111d2bb1113b38daf,barbacoa Doña Pera,19.321535840671807,-99.10946671587416,,,,,,,,MX,2013-11-24,2021-08-16,,,,,,,,['4bf58dd8d48988d151941735'],['Dining and Drinking > Restaurant > Mexican Restaurant > Taco Restaurant'],"b'\x00\x00\x00\x00\x01\xc0X\xc7\x01\x80\xaf+\x86@3RP,@-b'","{'xmin': -99.10946671587416, 'ymin': 19.321535840671807, 'xmax': -99.10946671587416, 'ymax': 19.321535840671807}",dining and drinking > restaurant > mexican restaurant > taco restaurant,1
51661719e4b0fa984f314ab1,Los Chuchos,19.331747140652453,-99.21200795996376,,,,,,,,MX,2013-04-11,2021-08-10,,,,,,,,['4bf58dd8d48988d151941735'],['Dining and Drinking > Restaurant > Mexican Restaurant > Taco Restaurant'],b'\x00\x00\x00\x00\x01\xc0X\xcd\x91\x89\xd5\xa2N@3T\xedao\xa4\xd0',"{'xmin': -99.21200795996376, 'ymin': 19.331747140652453, 'xmax': -99.21200795996376, 'ymax': 19.331747140652453}",dining and drinking > restaurant > mexican restaurant > taco restaurant,1
57369496498eb22a2c4c3491,Tacos El Papi,19.258152,-99.08146,,,,,,,,MX,2016-05-14,2021-08-11,,,,,,,,['4bf58dd8d48988d151941735'],['Dining and Drinking > Restaurant > Mexican Restaurant > Taco Restaurant'],b'\x00\x00\x00\x00\x01\xc0X\xc56\xa4\x00\xfb\xa9@3B\x16?\xdde\xa1',"{'xmin': -99.08146, 'ymin': 19.258152, 'xmax': -99.08146, 'ymax': 19.258152}",dining and drinking > restaurant > mexican restaurant > taco restaurant,1
5861a812469aef7d5396aca1,Mustacos,17.54313278727585,-99.50111389160155,Paseo Alejandro Cervantes Delgado,Chilpancingo,Guerrero,39080,,,,MX,2016-12-26,2020-11-24,,,,,,,,['4bf58dd8d48988d151941735'],['Dining and Drinking > Restaurant > Mexican Restaurant > Taco Restaurant'],b'\x00\x00\x00\x00\x01\xc0X\xe0\x12?\xff\xff\xff@1\x8b\n\xc0\x16\xbc0',"{'xmin': -99.50111389160155, 'ymin': 17.54313278727585, 'xmax': -99.50111389160155, 'ymax': 17.54313278727585}",dining and drinking > restaurant > mexican restaurant > taco restaurant,1
4da78ff74df0af29b6fb04da,Sixties Burger,19.288945792135628,-99.55409788226743,"_-Av. Paseo de Tollocan y Blvd Aeropuerto Snack A, Corredor Industrial","Lerma, Estado de México",,,,,,MX,2011-04-15,2024-01-04,,,http://www.sixtiesburger.mx,,,,,['4bf58dd8d48988d151941735'],['Dining and Drinking > Restaurant > Mexican Restaurant > Taco Restaurant'],b'\x00\x00\x00\x00\x01\xc0X\xe3vV\xf6\xc7\xc6@3I\xf8Y\xf7\x8a\x12',"{'xmin': -99.55409788226743, 'ymin': 19.288945792135628, 'xmax': -99.55409788226743, 'ymax': 19.288945792135628}",dining and drinking > restaurant > mexican restaurant > taco restaurant,1
5636639d498e5e231fa31108,Carnitas La fuente,20.2016991177338,-103.31199099868014,Av. Alvaro Obregon #15,San Luis Soyatlan,JALISCO,,,,,MX,2015-11-01,2020-11-23,,,,,,,,['4bf58dd8d48988d151941735'],['Dining and Drinking > Restaurant > Mexican Restaurant > Taco Restaurant'],b'\x00\x00\x00\x00\x01\xc0Y\xd3\xf7\xa9\x17\xfe\x91@43\xa2\x8d\xaaLy',"{'xmin': -103.31199099868014, 'ymin': 20.2016991177338, 'xmax': -103.31199099868014, 'ymax': 20.2016991177338}",dining and drinking > restaurant > mexican restaurant > taco restaurant,1
502e4ef1e4b01a9d9e3edcaf,Quecas Ingeniería,19.282262,-99.676631,Facultad De Ingenieria,,,,,,,MX,2012-08-17,2021-08-13,,,,,,,,['4bf58dd8d48988d151941735'],['Dining and Drinking > Restaurant > Mexican Restaurant > Taco Restaurant'],b'\x00\x00\x00\x00\x01\xc0X\xebM\xec\x1c\x1dm@3HBR\x8a\xe7O',"{'xmin': -99.676631, 'ymin': 19.282262, 'xmax': -99.676631, 'ymax': 19.282262}",dining and drinking > restaurant > mexican restaurant > taco restaurant,1
4f7d1334e4b0ffda0e8e4621,Antojitos Mexicanos Tres Marías,19.28506881110615,-99.54706635011159,Hda Tres Marías,San Mateo Atenco,México,,,,,MX,2012-04-05,2020-11-25,,,,,,,,['4bf58dd8d48988d1c1941735' '4bf58dd8d48988d151941735'],"['Dining and Drinking > Restaurant > Mexican Restaurant'
 'Dining and Drinking > Restaurant > Mexican Restaurant > Taco Restaurant']","b'\x00\x00\x00\x00\x01\xc0X\xe3\x03""\x94\x9e+@3H\xfaE\x04\xcf~'","{'xmin': -99.54706635011159, 'ymin': 19.28506881110615, 'xmax': -99.54706635011159, 'ymax': 19.28506881110615}","dining and drinking > restaurant > mexican restaurant, dining and drinking > restaurant > mexican restaurant > taco restaurant",1
5269da2011d29441114ac876,Quesadillas Lupita,19.694919,-101.187981,,,,,,,,MX,2013-10-25,2021-08-11,,,,,,,,['4bf58dd8d48988d151941735'],['Dining and Drinking > Restaurant > Mexican Restaurant > Taco Restaurant'],b'\x00\x00\x00\x00\x01\xc0YL\x07\xe1u\xd1=@3\xb1\xe66*^x',"{'xmin': -101.187981, 'ymin': 19.694919, 'xmax': -101.187981, 'ymax': 19.694919}",dining and drinking > restaurant > mexican restaurant > taco restaurant,1
4e99ad0b77c85da036fe5c33,Tacos La Joya,19.279711728098313,-99.16630983352661,,,,,,,,MX,2011-10-15,2021-08-13,,,,,,,,['4bf58dd8d48988d151941735'],['Dining and Drinking > Restaurant > Mexican Restaurant > Taco Restaurant'],b'\x00\x00\x00\x00\x01\xc0X\xca\xa4\xd2\x00\x00\x00@3G\x9b0\x14}j',"{'xmin': -99.16630983352661, 'ymin': 19.279711728098313, 'xmax': -99.16630983352661, 'ymax': 19.279711728098313}",dining and drinking > restaurant > mexican restaurant > taco restaurant,1
51ab93e4498ec7047d95fdaa,Barbacoa Villada,19.28440110558302,-99.60952661608745,,,,,,,,MX,2013-06-02,2020-11-24,,,,,,,,['4bf58dd8d48988d151941735'],['Dining and Drinking > Restaurant > Mexican Restaurant > Taco Restaurant'],b'\x00\x00\x00\x00\x01\xc0X\xe7\x02{\xec\x88\xc7@3H\xce\x82\xc7l\xe1',"{'xmin': -99.60952661608745, 'ymin': 19.28440110558302, 'xmax': -99.60952661608745, 'ymax': 19.28440110558302}",dining and drinking > restaurant > mexican restaurant > taco restaurant,1
52f50d1c11d2673d85db8b30,Los Taquitos,19.249078138045732,-99.61478312458755,,,,,,,,MX,2014-02-07,2020-11-24,,,,,,,,['4bf58dd8d48988d151941735'],['Dining and Drinking > Restaurant > Mexican Restaurant > Taco Restaurant'],b'\x00\x00\x00\x00\x01\xc0X\xe7X\x9bQ\x8f\x1e@3?\xc3\x95\xb9\x0e\x14',"{'xmin': -99.61478312458755, 'ymin': 19.249078138045732, 'xmax': -99.61478312458755, 'ymax': 19.249078138045732}",dining and drinking > restaurant > mexican restaurant > taco restaurant,1
5745df84498e1000af2f5a35,D'Pepe Pablo,19.310979,-99.11057,,,,,,,,MX,2016-05-25,2021-08-13,,,,,,,,['4bf58dd8d48988d151941735'],['Dining and Drinking > Restaurant > Mexican Restaurant > Taco Restaurant'],"b""\x00\x00\x00\x00\x01\xc0X\xc7\x13\x941z\xcc@3O\x9cQ\xda\xbe'""","{'xmin': -99.11057, 'ymin': 19.310979, 'xmax': -99.11057, 'ymax': 19.310979}",dining and drinking > restaurant > mexican restaurant > taco restaurant,1
5701c6b3498e5315af609016,"Cenaduría ""Tite""",17.98250013688651,-102.34661965104186,,,,,,,,MX,2016-04-04,2023-12-20,,753 127 7777,,,,,,['4bf58dd8d48988d151941735'],['Dining and Drinking > Restaurant > Mexican Restaurant > Taco Restaurant'],b'\x00\x00\x00\x00\x01\xc0Y\x96/\x040X\x0c@1\xfb\x85!\x04>;',"{'xmin': -102.34661965104186, 'ymin': 17.98250013688651, 'xmax': -102.34661965104186, 'ymax': 17.98250013688651}",dining and drinking > restaurant > mexican restaurant > taco restaurant,1
504139fde4b09ae79b616e49,Los Pioneros,19.694365577417837,-101.18306954196088,Lázaro Cárdenas,Morelia,,,,,,MX,2012-08-31,2020-11-24,,,,,,,,['4bf58dd8d48988d151941735'],['Dining and Drinking > Restaurant > Mexican Restaurant > Taco Restaurant'],b'\x00\x00\x00\x00\x01\xc0YK\xb7iO\xe7g@3\xb1\xc1\xf1FzO',"{'xmin': -101.18306954196088, 'ymin': 19.694365577417837, 'xmax': -101.18306954196088, 'ymax': 19.694365577417837}",dining and drinking > restaurant > mexican restaurant > taco restaurant,1
51bbde75498eb31d2f8b35c7,El Rey Condoy,19.31517578905653,-99.16198860526602,,,,,,,,MX,2013-06-15,2021-08-14,,,,,,,,['4bf58dd8d48988d151941735'],['Dining and Drinking > Restaurant > Mexican Restaurant > Taco Restaurant'],b'\x00\x00\x00\x00\x01\xc0X\xca^\x05t|M@3P\xaf\\J}!',"{'xmin': -99.16198860526602, 'ymin': 19.31517578905653, 'xmax': -99.16198860526602, 'ymax': 19.31517578905653}",dining and drinking > restaurant > mexican restaurant > taco restaurant,1
50e1ca1fe4b05f3e97ecc87c,La Costeña,16.233640670776367,-93.90177917480469,,,,,,,,MX,2012-12-31,2021-08-15,,,,,,,,['4bf58dd8d48988d151941735'],['Dining and Drinking > Restaurant > Mexican Restaurant > Taco Restaurant'],b'\x00\x00\x00\x00\x01\xc0Wy\xb6\xc0\x00\x00\x00@0;\xcf\xe0\x00\x00\x00',"{'xmin': -93.90177917480469, 'ymin': 16.233640670776367, 'xmax': -93.90177917480469, 'ymax': 16.233640670776367}",dining and drinking > restaurant > mexican restaurant > taco restaurant,1
4fa8a450e4b09ce1655ad5dd,Taqueria El Principe,19.324729827366895,-99.15456894296479,,,,,,,,MX,2012-05-08,2021-08-14,,,,,,,,['4bf58dd8d48988d151941735'],['Dining and Drinking > Restaurant > Mexican Restaurant > Taco Restaurant'],"b'\x00\x00\x00\x00\x01\xc0X\xc9\xe4u""\xc0\xb5@3S!~t\x93\x98'","{'xmin': -99.15456894296479, 'ymin': 19.324729827366895, 'xmax': -99.15456894296479, 'ymax': 19.324729827366895}",dining and drinking > restaurant > mexican restaurant > taco restaurant,1
5207cbdb11d272bd5c1a6323,Las Memelas Dominicales,17.055044,-96.713952,,,,,,,,MX,2013-08-11,2021-08-12,,,,,,,,['4bf58dd8d48988d151941735'],['Dining and Drinking > Restaurant > Mexican Restaurant > Taco Restaurant'],b'\x00\x00\x00\x00\x01\xc0X-\xb1c\xba\xba|@1\x0e\x17]\x13\xd7M',"{'xmin': -96.713952, 'ymin': 17.055044, 'xmax': -96.713952, 'ymax': 17.055044}",dining and drinking > restaurant > mexican restaurant > taco restaurant,1
51f3d9ef498e341be923a1c6,Carnitas Quiroga,17.65749948509934,-101.55489380518968,,,,,,,,MX,2013-07-27,2020-11-26,,,,,,,,['4bf58dd8d48988d151941735'],['Dining and Drinking > Restaurant > Mexican Restaurant > Taco Restaurant'],b'\x00\x00\x00\x00\x01\xc0Yc\x83aN\x82\xbb@1\xa8Q\xe2\xe1\xa3u',"{'xmin': -101.55489380518968, 'ymin': 17.65749948509934, 'xmax': -101.55489380518968, 'ymax': 17.65749948509934}",dining and drinking > restaurant > mexican restaurant > taco restaurant,1
53378687498e5a9aa227ffa1,Taqueria García (El Güero),19.315071,-99.103951,,,,,,,,MX,2013-06-30,2021-12-17,,,,,,,,['4bf58dd8d48988d151941735'],['Dining and Drinking > Restaurant > Mexican Restaurant > Taco Restaurant'],"b'\x00\x00\x00\x00\x01\xc0X\xc6\xa7""\x18X\xbc@3P\xa8~8\xeb\x03'","{'xmin': -99.103951, 'ymin': 19.315071, 'xmax': -99.103951, 'ymax': 19.315071}",dining and drinking > restaurant > mexican restaurant > taco restaurant,1
5115d427e4b0665cdc25704d,Tacos dorados de la Comonfort,17.545711112841293,-98.580603536334,Comonfort,Tlapa,Guerrero,41300,,,,MX,2013-02-09,2020-11-23,,,,,,,,['4bf58dd8d48988d151941735'],['Dining and Drinking > Restaurant > Mexican Restaurant > Taco Restaurant'],b'\x00\x00\x00\x00\x01\xc0X\xa5(\x9b\xbc\x1f\xc6@1\x8b\xb3\xb96\xb7\x95',"{'xmin': -98.580603536334, 'ymin': 17.545711112841293, 'xmax': -98.580603536334, 'ymax': 17.545711112841293}",dining and drinking > restaurant > mexican restaurant > taco restaurant,1
50b2e4d9e4b0c9aea42c74eb,Taqueria El Carboncio,18.98039182084646,-97.78513748928843,,,,,,,,MX,2012-11-26,2021-08-14,,,,,,,,['4bf58dd8d48988d151941735'],['Dining and Drinking > Restaurant > Mexican Restaurant > Taco Restaurant'],b'\x00\x00\x00\x00\x01\xc0Xr?\xb1O\xd6\xdf@2\xfa\xfa\xf5W\xcd+',"{'xmin': -97.78513748928843, 'ymin': 18.98039182084646, 'xmax': -97.78513748928843, 'ymax': 18.98039182084646}",dining and drinking > restaurant > mexican restaurant > taco restaurant,1
506dba3ae4b0860c5b0ad858,Birria Cabadas,19.088002396019363,-102.35730811319053,,,,,,,,MX,2012-10-04,2021-08-16,,,,,,,,['4bf58dd8d48988d151941735'],['Dining and Drinking > Restaurant > Mexican Restaurant > Taco Restaurant'],"b'\x00\x00\x00\x00\x01\xc0Y\x96\xde""\xd9/\xec@3\x16\x87S4\xdfp'","{'xmin': -102.35730811319053, 'ymin': 19.088002396019363, 'xmax': -102.35730811319053, 'ymax': 19.088002396019363}",dining and drinking > restaurant > mexican restaurant > taco restaurant,1
513fac59e4b01dc4b8e53779,Los Chulos Tacos,19.29599,-99.111113,,,,,,,,MX,2013-03-12,2021-08-13,,,,,,,,['4bf58dd8d48988d151941735'],['Dining and Drinking > Restaurant > Mexican Restaurant > Taco Restaurant'],b'\x00\x00\x00\x00\x01\xc0X\xc7\x1cy\xb3JE@3K\xc6\x00)\xf1k',"{'xmin': -99.111113, 'ymin': 19.29599, 'xmax': -99.111113, 'ymax': 19.29599}",dining and drinking > restaurant > mexican restaurant > taco restaurant,1
4da1ea9d0f578cfa88219718,La Ranita,17.071696719560965,-96.71148160615809,Heroico Colegio Militar,Oaxaca,Oaxaca,68050,,,,MX,2011-04-10,2020-11-24,,,,,,,,['4bf58dd8d48988d151941735'],['Dining and Drinking > Restaurant > Mexican Restaurant > Taco Restaurant'],b'\x00\x00\x00\x00\x01\xc0X-\x88\xea%\x89\xe4@1\x12Z\xb7Y\xbe\xad',"{'xmin': -96.71148160615809, 'ymin': 17.071696719560965, 'xmax': -96.71148160615809, 'ymax': 17.071696719560965}",dining and drinking > restaurant > mexican restaurant > taco restaurant,1
506f0e49e4b002a9403857c6,tacos La Odisea,19.28508031971259,-99.65686337905198,,,,,,,,MX,2012-10-05,2021-08-12,,,,,,,,['4bf58dd8d48988d151941735'],['Dining and Drinking > Restaurant > Mexican Restaurant > Taco Restaurant'],b'\x00\x00\x00\x00\x01\xc0X\xea\n\x0c\xb2\xbd\xf9@3H\xfb\x06\x19\xe6\x18',"{'xmin': -99.65686337905198, 'ymin': 19.28508031971259, 'xmax': -99.65686337905198, 'ymax': 19.28508031971259}",dining and drinking > restaurant > mexican restaurant > taco restaurant,1
5774822b498ee02505299164,"Antojitos ""Talachas""",17.554827,-98.55295,,,,,,,,MX,2016-06-30,2021-08-13,,,,,,,,['4bf58dd8d48988d151941735'],['Dining and Drinking > Restaurant > Mexican Restaurant > Taco Restaurant'],b'\x00\x00\x00\x00\x01\xc0X\xa3c\x88e\x94\xaf@1\x8e\t$k\xf0\x13',"{'xmin': -98.55295, 'ymin': 17.554827, 'xmax': -98.55295, 'ymax': 17.554827}",dining and drinking > restaurant > mexican restaurant > taco restaurant,1
53950bd9498e77d6d14eef1f,Tacos doña Romi,16.87291,-99.880509,,Acapulco,Guerrero,,,,,MX,2014-06-09,2020-11-22,,,,,,,,['4bf58dd8d48988d151941735'],['Dining and Drinking > Restaurant > Mexican Restaurant > Taco Restaurant'],b'\x00\x00\x00\x00\x01\xc0X\xf8ZBk\xb5[@0\xdfw\x07\x9eY\xf3',"{'xmin': -99.880509, 'ymin': 16.87291, 'xmax': -99.880509, 'ymax': 16.87291}",dining and drinking > restaurant > mexican restaurant > taco restaurant,1
56f5ff16498ea582dd309d03,Los irresistibles,19.312583118051524,-99.25530070998931,,,,,,,,MX,2016-03-26,2021-08-10,,,,,,,,['4bf58dd8d48988d151941735'],['Dining and Drinking > Restaurant > Mexican Restaurant > Taco Restaurant'],b'\x00\x00\x00\x00\x01\xc0X\xd0V\xd8\xca\x03.@3P\x05r}P!',"{'xmin': -99.25530070998931, 'ymin': 19.312583118051524, 'xmax': -99.25530070998931, 'ymax': 19.312583118051524}",dining and drinking > restaurant > mexican restaurant > taco restaurant,1
5431667e498e75861f3eefad,Birria de Chivo Pimo's,20.442708541373424,-103.52433767679376,,,,,,,,MX,2014-10-05,2020-11-22,,,,,,,,['4bf58dd8d48988d151941735'],['Dining and Drinking > Restaurant > Mexican Restaurant > Taco Restaurant'],b'\x00\x00\x00\x00\x01\xc0Y\xe1\x8e\xbf\x9dx\xf3@4qUX\xd2\xdb\xd5',"{'xmin': -103.52433767679376, 'ymin': 20.442708541373424, 'xmax': -103.52433767679376, 'ymax': 20.442708541373424}",dining and drinking > restaurant > mexican restaurant > taco restaurant,1
