fsq_place_id,name,latitude,longitude,address,locality,region,postcode,admin_region,post_town,po_box,country,date_created,date_refreshed,date_closed,tel,website,email,facebook_id,instagram,twitter,fsq_category_ids,fsq_category_labels,geom,bbox,labels_str,taco_restaurant
4d24b741e704b60c5c3963a9,Tacos Panduro,32.659680470534575,-115.46376341229225,Av. Mariano Arista,Mexicali,BC,,,,,MX,2011-01-05,2020-11-30,,686 554 6179,,,,,,['4bf58dd8d48988d151941735' '4bf58dd8d48988d153941735'],"['Dining and Drinking > Restaurant > Mexican Restaurant > Taco Restaurant'
 'Dining and Drinking > Restaurant > Mexican Restaurant > Burrito Restaurant']",b'\x00\x00\x00\x00\x01\xc0\\\xdd\xaeL\xbc8\x1a@@Tph\xdf`\xc1',"{'xmin': -115.46376341229225, 'ymin': 32.659680470534575, 'xmax': -115.46376341229225, 'ymax': 32.659680470534575}","dining and drinking > restaurant > mexican restaurant > taco restaurant, dining and drinking > restaurant > mexican restaurant > burrito restaurant",1
4ef2706e6c253bf123dba468,Tacos Morland,32.581290858702786,-115.58758544583668,Progreso,Mexicali,Baja California,,,,,MX,2011-12-21,2020-11-30,,,,,,,,['4bf58dd8d48988d151941735'],['Dining and Drinking > Restaurant > Mexican Restaurant > Taco Restaurant'],b'\x00\x00\x00\x00\x01\xc0\\\xe5\x9a\xff\xfc^X@@Jg\xbd%\xcb\xce',"{'xmin': -115.58758544583668, 'ymin': 32.581290858702786, 'xmax': -115.58758544583668, 'ymax': 32.581290858702786}",dining and drinking > restaurant > mexican restaurant > taco restaurant,1
4ca56b49f47ea143ed435721,Tacos El Picante,32.500542652224176,-116.9160440671594,,,,,,,,MX,2010-10-01,2020-11-25,,,,,,,,['4bf58dd8d48988d151941735'],['Dining and Drinking > Restaurant > Mexican Restaurant > Taco Restaurant'],b'\x00\x00\x00\x00\x01\xc0]:\xa0wK\x89?@@@\x11\xc8\x18\xc7)',"{'xmin': -116.9160440671594, 'ymin': 32.500542652224176, 'xmax': -116.9160440671594, 'ymax': 32.500542652224176}",dining and drinking > restaurant > mexican restaurant > taco restaurant,1
4ecd740b8b81b473932a8ecc,Tacos El Paisano,32.33961871170248,-117.05571840029809,Bulevar Benito Juarez,"Playas de Rosarito, BCN",BAJA CALIFORNIA,22710,,,,MX,2011-11-23,2021-11-26,,664 405 0914,,,,,,['4bf58dd8d48988d151941735'],['Dining and Drinking > Restaurant > Mexican Restaurant > Taco Restaurant'],b'\x00\x00\x00\x00\x01\xc0]C\x90\xe3\xe8\xc45@@+x\xa0=\xef\x97',"{'xmin': -117.05571840029809, 'ymin': 32.33961871170248, 'xmax': -117.05571840029809, 'ymax': 32.33961871170248}",dining and drinking > restaurant > mexican restaurant > taco restaurant,1
62cf8acbf79e22006e2a6db5,Taqueria La Montaña,32.092775,-116.86027,,La Misión,BC,22765,,,,MX,2022-07-14,2022-07-14,,,,,,,,['4bf58dd8d48988d151941735'],['Dining and Drinking > Restaurant > Mexican Restaurant > Taco Restaurant'],b'\x00\x00\x00\x00\x01\xc0]7\x0e\xa9\xe6\xee\xb7@@\x0b\xe0\r\x1bqv',"{'xmin': -116.86027, 'ymin': 32.092775, 'xmax': -116.86027, 'ymax': 32.092775}",dining and drinking > restaurant > mexican restaurant > taco restaurant,1
608d959b9dfe325b4e6d067a,Tacos De Carnitas “David”,32.598409,-115.418433,Calle A,Mexicali,BC,21394,,,,MX,2021-05-01,2021-05-01,,,,,,,,"['4bf58dd8d48988d151941735' '4bf58dd8d48988d1c1941735'
 '4bf58dd8d48988d1cb941735']","['Dining and Drinking > Restaurant > Mexican Restaurant > Taco Restaurant'
 'Dining and Drinking > Restaurant > Mexican Restaurant'
 'Dining and Drinking > Food Truck']",b'\x00\x00\x00\x00\x01\xc0\\\xda\xc7\x9b4\xa4L@@L\x98\xaa\x86P\xe7',"{'xmin': -115.418433, 'ymin': 32.598409, 'xmax': -115.418433, 'ymax': 32.598409}","dining and drinking > restaurant > mexican restaurant > taco restaurant, dining and drinking > restaurant > mexican restaurant, dining and drinking > food truck",1
51553a8ce4b0a3d1e413519d,Asadero Gera,32.60084725449303,-115.34613647220172,,,,,,,,MX,2013-03-29,2021-08-11,,,,,,,,['4bf58dd8d48988d151941735'],['Dining and Drinking > Restaurant > Mexican Restaurant > Taco Restaurant'],"b""\x00\x00\x00\x00\x01\xc0\\\xd6'\x19\x97\x03\xca@@L\xe8\x90\x15\xf80""","{'xmin': -115.34613647220172, 'ymin': 32.60084725449303, 'xmax': -115.34613647220172, 'ymax': 32.60084725449303}",dining and drinking > restaurant > mexican restaurant > taco restaurant,1
4f98d1e1e4b0fc88e74a1a7b,Tacos La Curva,31.874992525007038,-116.62926683920871,Décima,Ensenada,Baja California,,,,,MX,2012-04-26,2020-11-23,,,,,,,,['4bf58dd8d48988d151941735'],['Dining and Drinking > Restaurant > Mexican Restaurant > Taco Restaurant'],b'\x00\x00\x00\x00\x01\xc0](E\xe8k\xb6\xf5@?\xdf\xff\x82\x97&R',"{'xmin': -116.62926683920871, 'ymin': 31.874992525007038, 'xmax': -116.62926683920871, 'ymax': 31.874992525007038}",dining and drinking > restaurant > mexican restaurant > taco restaurant,1
5d3c95663c6d2b0008379d03,Culichi’s Tj,32.535658,-117.038101,,Tijuana,BC,22000,,,,MX,2019-07-27,2020-11-20,,,,,,,,['4bf58dd8d48988d151941735'],['Dining and Drinking > Restaurant > Mexican Restaurant > Taco Restaurant'],b'\x00\x00\x00\x00\x01\xc0]Bp?-<y@@D\x90p\xfb\xeb\x9e',"{'xmin': -117.038101, 'ymin': 32.535658, 'xmax': -117.038101, 'ymax': 32.535658}",dining and drinking > restaurant > mexican restaurant > taco restaurant,1
524e64e3498e639c46daf346,Tacos Meños,32.64183044433594,-115.41828918457031,,,,,,,,MX,2013-10-04,2021-08-11,,,,,,,,['4bf58dd8d48988d151941735'],['Dining and Drinking > Restaurant > Mexican Restaurant > Taco Restaurant'],"b""\x00\x00\x00\x00\x01\xc0\\\xda\xc5@\x00\x00\x00@@R'\x80\x00\x00\x00""","{'xmin': -115.41828918457031, 'ymin': 32.64183044433594, 'xmax': -115.41828918457031, 'ymax': 32.64183044433594}",dining and drinking > restaurant > mexican restaurant > taco restaurant,1
4e4fe604628441666994a656,Tacos De Guisado La Unión,32.60761547113142,-115.43758541812788,,,,,,,,MX,2011-08-20,2021-08-13,,,,,,,,['4bf58dd8d48988d151941735'],['Dining and Drinking > Restaurant > Mexican Restaurant > Taco Restaurant'],b'\x00\x00\x00\x00\x01\xc0\\\xdc\x01fE\x045@@M\xc6X\x00\x86\xcb',"{'xmin': -115.43758541812788, 'ymin': 32.60761547113142, 'xmax': -115.43758541812788, 'ymax': 32.60761547113142}",dining and drinking > restaurant > mexican restaurant > taco restaurant,1
4e84b5956da10afb2ae5bd58,"Tacos De Guisado ""El Machacas""",32.64414217363144,-115.45308979309922,Jorge López Collada #2086,Mexicali,Baja California,,,,,MX,2011-09-29,2020-11-24,,,,,,,,['4bf58dd8d48988d151941735'],['Dining and Drinking > Restaurant > Mexican Restaurant > Taco Restaurant'],b'\x00\x00\x00\x00\x01\xc0\\\xdc\xfflT\xe0\xce@@Rs@0\xdcV',"{'xmin': -115.45308979309922, 'ymin': 32.64414217363144, 'xmax': -115.45308979309922, 'ymax': 32.64414217363144}",dining and drinking > restaurant > mexican restaurant > taco restaurant,1
4fc3d470e4b06a3981d6b079,Tacos Sicodelicos,31.852177685977498,-116.59160575706782,Mexico Y Diamante,Ensenada,Baja California,,,,,MX,2012-05-28,2023-12-20,,646 152 1149,,,,,,['4bf58dd8d48988d151941735'],['Dining and Drinking > Restaurant > Mexican Restaurant > Taco Restaurant'],b'\x00\x00\x00\x00\x01\xc0]%\xdc\xded\xae\xd3@?\xda(Q\x1b\xa7\x81',"{'xmin': -116.59160575706782, 'ymin': 31.852177685977498, 'xmax': -116.59160575706782, 'ymax': 31.852177685977498}",dining and drinking > restaurant > mexican restaurant > taco restaurant,1
4f642d25e4b03a7ce0b227e1,San Cosme,32.51824335587749,-117.01644109894382,,Tijuana,Mx,,,,,MX,2012-03-17,2020-11-20,,,,,,,,['4bf58dd8d48988d151941735'],['Dining and Drinking > Restaurant > Mexican Restaurant > Taco Restaurant'],b'\x00\x00\x00\x00\x01\xc0]A\r^\xf7\x91\x89@@BU\xcc\\nz',"{'xmin': -117.01644109894382, 'ymin': 32.51824335587749, 'xmax': -117.01644109894382, 'ymax': 32.51824335587749}",dining and drinking > restaurant > mexican restaurant > taco restaurant,1
4d8e89b26174a093ad3fcbe3,Tacos El Gallo Playas,32.51981150996327,-117.1163214382628,Av. Paseo Ensenada,Tijuana,Baja California,,,,,MX,2011-03-27,2020-11-25,,,,,,,,['4bf58dd8d48988d151941735'],['Dining and Drinking > Restaurant > Mexican Restaurant > Taco Restaurant'],b'\x00\x00\x00\x00\x01\xc0]Gq\xcfyJe@@B\x89.\xfd\xb05',"{'xmin': -117.1163214382628, 'ymin': 32.51981150996327, 'xmax': -117.1163214382628, 'ymax': 32.51981150996327}",dining and drinking > restaurant > mexican restaurant > taco restaurant,1
541d22ea498ee14d9f624999,El Tacomiendito,32.48692193735969,-116.94710458416623,,,,,,,,MX,2014-09-20,2020-11-24,,,,,,,,['4bf58dd8d48988d151941735'],['Dining and Drinking > Restaurant > Mexican Restaurant > Taco Restaurant'],b'\x00\x00\x00\x00\x01\xc0]<\x9d\\\x8b\xb8\xae@@>SuBU\x19',"{'xmin': -116.94710458416623, 'ymin': 32.48692193735969, 'xmax': -116.94710458416623, 'ymax': 32.48692193735969}",dining and drinking > restaurant > mexican restaurant > taco restaurant,1
570440eb498e77522c21cfa9,taqueria canchola,31.8237,-116.599906,,,,,,,,MX,2016-04-05,2021-08-13,,,,,,,,['4bf58dd8d48988d151941735'],['Dining and Drinking > Restaurant > Mexican Restaurant > Taco Restaurant'],"b'\x00\x00\x00\x00\x01\xc0]&d\xdc""\xab&@?\xd2\xde\x00\xd1\xb7\x17'","{'xmin': -116.599906, 'ymin': 31.8237, 'xmax': -116.599906, 'ymax': 31.8237}",dining and drinking > restaurant > mexican restaurant > taco restaurant,1
4d0a5c1b972660fc47cc6e1c,Birria El Güero,32.50407964706783,-116.92598819732666,Parque Industrial El Lago,Tijuana,Baja California,,,,,MX,2010-12-16,2020-11-26,,,,,,,,['4bf58dd8d48988d1c1941735' '4bf58dd8d48988d151941735'],"['Dining and Drinking > Restaurant > Mexican Restaurant'
 'Dining and Drinking > Restaurant > Mexican Restaurant > Taco Restaurant']","b""\x00\x00\x00\x00\x01\xc0];Cd\x00\x00\x00@@@\x85\xae\x8f^'""","{'xmin': -116.92598819732666, 'ymin': 32.50407964706783, 'xmax': -116.92598819732666, 'ymax': 32.50407964706783}","dining and drinking > restaurant > mexican restaurant, dining and drinking > restaurant > mexican restaurant > taco restaurant",1
4ffeff09e4b0eea91b691495,Tio Güicho,20.720043,-103.390257,,,,,,,,MX,2012-07-12,2021-12-19,,,,,,,,['4bf58dd8d48988d151941735'],['Dining and Drinking > Restaurant > Mexican Restaurant > Taco Restaurant'],b'\x00\x00\x00\x00\x01\xc0Y\xd8\xf9\xf8\x7f\x02?@4\xb8T\xbc\xf0\xb6\xb7',"{'xmin': -103.390257, 'ymin': 20.720043, 'xmax': -103.390257, 'ymax': 20.720043}",dining and drinking > restaurant > mexican restaurant > taco restaurant,1
5108a86ee4b05ce92ad38207,"Taqueria ""el guero figueroa Jr.""",19.68028898136468,-101.22570365662075,,,,,,,,MX,2013-01-30,2021-08-11,,,,,,,,['4bf58dd8d48988d151941735'],['Dining and Drinking > Restaurant > Mexican Restaurant > Taco Restaurant'],"b""\x00\x00\x00\x00\x01\xc0YNq\xed\xbf\xf1\x85@3\xae'k.\xca[""","{'xmin': -101.22570365662075, 'ymin': 19.68028898136468, 'xmax': -101.22570365662075, 'ymax': 19.68028898136468}",dining and drinking > restaurant > mexican restaurant > taco restaurant,1
55a92290498e49f11adae095,La Casa Del Taco,20.521117684284786,-100.81157224797107,,,,,,,,MX,2015-07-17,2023-12-20,,461 187 9991,,,,,,"['4bf58dd8d48988d151941735' '4bf58dd8d48988d16e941735'
 '4bf58dd8d48988d1f9941735']","['Dining and Drinking > Restaurant > Mexican Restaurant > Taco Restaurant'
 'Dining and Drinking > Restaurant > Fast Food Restaurant'
 'Retail > Food and Beverage Retail']",b'\x00\x00\x00\x00\x01\xc0Y3\xf0\xcc\xb9\xd8 @4\x85g\xf7\xf3^\xd3',"{'xmin': -100.81157224797107, 'ymin': 20.521117684284786, 'xmax': -100.81157224797107, 'ymax': 20.521117684284786}","dining and drinking > restaurant > mexican restaurant > taco restaurant, dining and drinking > restaurant > fast food restaurant, retail > food and beverage retail",1
57855284cd105633868f420a,Taqueria y Loncheria Viktor,20.658146,-103.372451,,Guadalajara,Jalisco,,,,,MX,2016-07-12,2021-08-12,,,,,,,,['4bf58dd8d48988d151941735'],['Dining and Drinking > Restaurant > Mexican Restaurant > Taco Restaurant'],b'\x00\x00\x00\x00\x01\xc0Y\xd7\xd6<\xb8\x173@4\xa8|A\x99\xfeC',"{'xmin': -103.372451, 'ymin': 20.658146, 'xmax': -103.372451, 'ymax': 20.658146}",dining and drinking > restaurant > mexican restaurant > taco restaurant,1
5a1af1df805e3f2e8ae1de50,Tacos Y Quesadillas El Buen Pastor,20.666058,-101.37188,mariano j.garcia,Irapuato,Guanajuato,36557,,,,MX,2017-11-26,2020-11-26,,,,,,,,['4bf58dd8d48988d151941735'],['Dining and Drinking > Restaurant > Mexican Restaurant > Taco Restaurant'],b'\x00\x00\x00\x00\x01\xc0YW\xcc\xe1\xc5\x82V@4\xaa\x82\xc6\xef=:',"{'xmin': -101.37188, 'ymin': 20.666058, 'xmax': -101.37188, 'ymax': 20.666058}",dining and drinking > restaurant > mexican restaurant > taco restaurant,1
4ef5f8df9911b01dda5983a7,Tacos 2 Alemanes y 1 Mexicano,21.0746794080238,-101.60163263650634,Blas Aeropuerto,León,GTO.,,,,,MX,2011-12-24,2020-11-30,,,,,,,,['4bf58dd8d48988d151941735'],['Dining and Drinking > Restaurant > Mexican Restaurant > Taco Restaurant'],"b'\x00\x00\x00\x00\x01\xc0Yf\x81&,\x80\x10@5\x13\x1e0\x8f%\x99'","{'xmin': -101.60163263650634, 'ymin': 21.0746794080238, 'xmax': -101.60163263650634, 'ymax': 21.0746794080238}",dining and drinking > restaurant > mexican restaurant > taco restaurant,1
4f0ba372e4b04487f8c9ed39,Tacos De La Esquina Del Güero,20.66391147262449,-103.34934609273445,Av. Niños Heroes esquina con av. 16 de septiembre,Guadalajara,Jalisco,,,,,MX,2012-01-10,2021-08-13,,,,,,,,['4bf58dd8d48988d151941735'],['Dining and Drinking > Restaurant > Mexican Restaurant > Taco Restaurant'],b'\x00\x00\x00\x00\x01\xc0Y\xd6[\xaf\xb6\xd1\xe9@4\xa9\xf6\x1a.\\\x84',"{'xmin': -103.34934609273445, 'ymin': 20.66391147262449, 'xmax': -103.34934609273445, 'ymax': 20.66391147262449}",dining and drinking > restaurant > mexican restaurant > taco restaurant,1
54b68f7c498ecfc4ba755499,"Taqueria ""Nieves""",19.11815,-104.352361,,,,,,,,MX,2015-01-14,2021-08-11,,,,,,,,['4bf58dd8d48988d151941735'],['Dining and Drinking > Restaurant > Mexican Restaurant > Taco Restaurant'],b'\x00\x00\x00\x00\x01\xc0Z\x16\x8d\x15&\xd8\xb2@3\x1e?\x14\x12\x05\xbc',"{'xmin': -104.352361, 'ymin': 19.11815, 'xmax': -104.352361, 'ymax': 19.11815}",dining and drinking > restaurant > mexican restaurant > taco restaurant,1
64ae12e4a5c23e5b3df20a1f,Atakear!,22.131805,-101.01496,Av. Cordillera Himalaya 395,San Luis Potosí,San Luis Potosí,78294,,,,MX,2023-07-12,2023-07-12,,,,,,,,['4bf58dd8d48988d151941735'],['Dining and Drinking > Restaurant > Mexican Restaurant > Taco Restaurant'],b'\x00\x00\x00\x00\x01\xc0Y@\xf5\x1a\xc9\xaf\xe2@6!\xbd\xf8\xf4s\x04',"{'xmin': -101.01496, 'ymin': 22.131805, 'xmax': -101.01496, 'ymax': 22.131805}",dining and drinking > restaurant > mexican restaurant > taco restaurant,1
4f62a4ede4b086a3358493c0,Tacos Leo,20.643885094889566,-103.32812104971497,,,,,,,,MX,2012-03-16,2021-08-12,,,,,,,,['4bf58dd8d48988d151941735'],['Dining and Drinking > Restaurant > Mexican Restaurant > Taco Restaurant'],b'\x00\x00\x00\x00\x01\xc0Y\xd4\xff\xefni\xeb@4\xa4\xd5\xa7P\xee\xbb',"{'xmin': -103.32812104971497, 'ymin': 20.643885094889566, 'xmax': -103.32812104971497, 'ymax': 20.643885094889566}",dining and drinking > restaurant > mexican restaurant > taco restaurant,1
500ae965e4b02ee07b0c7059,Tacos Don Grassen,20.64601220456594,-103.4263231825426,,,,,,,,MX,2012-07-21,2021-08-13,,,,,,,,['4bf58dd8d48988d151941735'],['Dining and Drinking > Restaurant > Mexican Restaurant > Taco Restaurant'],b'\x00\x00\x00\x00\x01\xc0Y\xdbH\xe1\x07\xa3\x04@4\xa5a\x0eKmv',"{'xmin': -103.4263231825426, 'ymin': 20.64601220456594, 'xmax': -103.4263231825426, 'ymax': 20.64601220456594}",dining and drinking > restaurant > mexican restaurant > taco restaurant,1
4efd368702d580f8ed74c31d,Tacos el cuñado,20.64533113836391,-103.31964303571196,,,,,,,,MX,2011-12-30,2021-08-16,,,,,,,,['4bf58dd8d48988d1c1941735' '4bf58dd8d48988d151941735'],"['Dining and Drinking > Restaurant > Mexican Restaurant'
 'Dining and Drinking > Restaurant > Mexican Restaurant > Taco Restaurant']",b'\x00\x00\x00\x00\x01\xc0Y\xd4u\x08\x101\xbb@4\xa54k\xe6]\x0b',"{'xmin': -103.31964303571196, 'ymin': 20.64533113836391, 'xmax': -103.31964303571196, 'ymax': 20.64533113836391}","dining and drinking > restaurant > mexican restaurant, dining and drinking > restaurant > mexican restaurant > taco restaurant",1
52884b17498e035919e65076,Sr. Tacos,20.75959179286917,-103.39239315802844,Paseo de las aves,Zapopan,Jalisco,45133,,,,MX,2013-11-17,2020-11-25,,,,,,,,['4bf58dd8d48988d151941735'],['Dining and Drinking > Restaurant > Mexican Restaurant > Taco Restaurant'],b'\x00\x00\x00\x00\x01\xc0Y\xd9\x1c\xf81:\x01@4\xc2t\x9b\x94\xae\xdf',"{'xmin': -103.39239315802844, 'ymin': 20.75959179286917, 'xmax': -103.39239315802844, 'ymax': 20.75959179286917}",dining and drinking > restaurant > mexican restaurant > taco restaurant,1
5065dea2e4b0c6fb83347541,tacos el guero ruben,20.706113633759013,-103.31989288330078,,Guadalajara,Jalisco,,,,,MX,2012-09-28,2021-08-14,,,,,,,,['4bf58dd8d48988d151941735'],['Dining and Drinking > Restaurant > Mexican Restaurant > Taco Restaurant'],b'\x00\x00\x00\x00\x01\xc0Y\xd4y \x00\x00\x00@4\xb4\xc3\xdc\xf4A3',"{'xmin': -103.31989288330078, 'ymin': 20.706113633759013, 'xmax': -103.31989288330078, 'ymax': 20.706113633759013}",dining and drinking > restaurant > mexican restaurant > taco restaurant,1
55e02157498e39f0b76131e7,Pastorzito,21.925107620224182,-102.30087382521931,,,,,,,,MX,2015-08-28,2021-08-11,,,,,,,,['4bf58dd8d48988d151941735'],['Dining and Drinking > Restaurant > Mexican Restaurant > Taco Restaurant'],b'\x00\x00\x00\x00\x01\xc0Y\x93A\x84I\xe2\x85@5\xec\xd3\xda^$\xac',"{'xmin': -102.30087382521931, 'ymin': 21.925107620224182, 'xmax': -102.30087382521931, 'ymax': 21.925107620224182}",dining and drinking > restaurant > mexican restaurant > taco restaurant,1
541f7d69498ea1eb4f7e2926,"Tacos ""El Guajas""",20.392664,-101.185404,,,,,,,,MX,2014-09-22,2021-08-13,,,,,,,,['4bf58dd8d48988d151941735'],['Dining and Drinking > Restaurant > Mexican Restaurant > Taco Restaurant'],b'\x00\x00\x00\x00\x01\xc0YK\xdd\xa8\xbd#\x0c@4d\x85\xa0\xbeQ\t',"{'xmin': -101.185404, 'ymin': 20.392664, 'xmax': -101.185404, 'ymax': 20.392664}",dining and drinking > restaurant > mexican restaurant > taco restaurant,1
5000ed85e4b0ed544901d3dc,Taqueria El Cuñado,21.253201,-102.328258,,,,,,,,MX,2012-07-14,2021-08-17,,,,,,,,['4bf58dd8d48988d151941735'],['Dining and Drinking > Restaurant > Mexican Restaurant > Taco Restaurant'],b'\x00\x00\x00\x00\x01\xc0Y\x95\x02-\xd7\xa9\xa0@5@\xd1\xc7\xdeP\x83',"{'xmin': -102.328258, 'ymin': 21.253201, 'xmax': -102.328258, 'ymax': 21.253201}",dining and drinking > restaurant > mexican restaurant > taco restaurant,1
55da02e1498ee9a17a193f23,"Tacos ""El Rancho""",21.131819,-101.690915,,,,,,,,MX,2015-08-23,2021-08-17,,,,,,,,['4bf58dd8d48988d151941735'],['Dining and Drinking > Restaurant > Mexican Restaurant > Taco Restaurant'],b'\x00\x00\x00\x00\x01\xc0Yl7\xf3\x8cT7@5!\xbe\xe3\xd5\xfd\xce',"{'xmin': -101.690915, 'ymin': 21.131819, 'xmax': -101.690915, 'ymax': 21.131819}",dining and drinking > restaurant > mexican restaurant > taco restaurant,1
504b5bd2e4b02e5438d616c7,El birrias,20.757770599386024,-103.44139792280956,,,,,,,,MX,2012-09-08,2021-08-16,,,,,,,,['4bf58dd8d48988d151941735'],['Dining and Drinking > Restaurant > Mexican Restaurant > Taco Restaurant'],b'\x00\x00\x00\x00\x01\xc0Y\xdc?\xdd\x12\xbfR@4\xc1\xfdA\x06;\xb9',"{'xmin': -103.44139792280956, 'ymin': 20.757770599386024, 'xmax': -103.44139792280956, 'ymax': 20.757770599386024}",dining and drinking > restaurant > mexican restaurant > taco restaurant,1
503985b4e4b03fdd88d2124a,Tacos Liz,22.168168,-100.9714,,,,,,,,MX,2012-08-26,2021-08-11,,,,,,,,['4bf58dd8d48988d151941735'],['Dining and Drinking > Restaurant > Mexican Restaurant > Taco Restaurant'],b'\x00\x00\x00\x00\x01\xc0Y>+j\xe7\xd5g@6+\r\x0e\xdc;\xd6',"{'xmin': -100.9714, 'ymin': 22.168168, 'xmax': -100.9714, 'ymax': 22.168168}",dining and drinking > restaurant > mexican restaurant > taco restaurant,1
54d2d635498e2a728d204b8f,Tacos Juanitos,21.17711639404297,-101.65608215332031,Alce,,,,,,,MX,2015-02-05,2021-08-12,,,,,,,,['4bf58dd8d48988d151941735'],['Dining and Drinking > Restaurant > Mexican Restaurant > Taco Restaurant'],b'\x00\x00\x00\x00\x01\xc0Yi\xfd@\x00\x00\x00@5-W\x80\x00\x00\x00',"{'xmin': -101.65608215332031, 'ymin': 21.17711639404297, 'xmax': -101.65608215332031, 'ymax': 21.17711639404297}",dining and drinking > restaurant > mexican restaurant > taco restaurant,1
567ee692498ed7d8552d3236,Gorditas El Encino,21.874309,-102.290914,,,,,,,,MX,2015-12-26,2021-08-11,,,,,,,,['4bf58dd8d48988d151941735'],['Dining and Drinking > Restaurant > Mexican Restaurant > Taco Restaurant'],b'\x00\x00\x00\x00\x01\xc0Y\x92\x9eU\xc0\xfc\xb5@5\xdf\xd2\xb6\xf1\x995',"{'xmin': -102.290914, 'ymin': 21.874309, 'xmax': -102.290914, 'ymax': 21.874309}",dining and drinking > restaurant > mexican restaurant > taco restaurant,1
58b65419ea29b83e339b0981,Tacos El Masa,20.68479,-103.43894,,Zapopan,Jalisco,,,,,MX,2017-03-01,2020-11-30,,,,,,,,['4bf58dd8d48988d151941735'],['Dining and Drinking > Restaurant > Mexican Restaurant > Taco Restaurant'],b'\x00\x00\x00\x00\x01\xc0Y\xdc\x17\x97\xcc:\x00@4\xafNe\xbe\xa0\xba',"{'xmin': -103.43894, 'ymin': 20.68479, 'xmax': -103.43894, 'ymax': 20.68479}",dining and drinking > restaurant > mexican restaurant > taco restaurant,1
56c09897cd10bb645e8f9826,Tacos de barbacoa Alex,20.626617,-103.479475,,,,,,,,MX,2016-02-14,2021-08-14,,,,,,,,['4bf58dd8d48988d151941735'],['Dining and Drinking > Restaurant > Mexican Restaurant > Taco Restaurant'],b'\x00\x00\x00\x00\x01\xc0Y\xde\xaf\xb7\xe9\x0f\xf9@4\xa0i\xf8\xc2\x1e\x1d',"{'xmin': -103.479475, 'ymin': 20.626617, 'xmax': -103.479475, 'ymax': 20.626617}",dining and drinking > restaurant > mexican restaurant > taco restaurant,1
516aeea7e4b088e334003420,Tacos De Canasta,21.125648471782657,-101.62098519021835,Mariano Escobedo #3203,León,Guanajuato,,,,,MX,2013-04-14,2020-11-21,,,,,,,,['4bf58dd8d48988d151941735'],['Dining and Drinking > Restaurant > Mexican Restaurant > Taco Restaurant'],b'\x00\x00\x00\x00\x01\xc0Yg\xbe8\xaa\xd2q@5 *\x7f\x8d\x19Q',"{'xmin': -101.62098519021835, 'ymin': 21.125648471782657, 'xmax': -101.62098519021835, 'ymax': 21.125648471782657}",dining and drinking > restaurant > mexican restaurant > taco restaurant,1
58ccf180040d5346426927de,El Chino,20.742735,-103.406446,,Guadalajara,JAL,45130,,,,MX,2017-03-18,2020-11-30,,,,,,,,"['4bf58dd8d48988d16f941735' '4bf58dd8d48988d151941735'
 '4bf58dd8d48988d16c941735']","['Dining and Drinking > Restaurant > Hot Dog Joint'
 'Dining and Drinking > Restaurant > Mexican Restaurant > Taco Restaurant'
 'Dining and Drinking > Restaurant > Burger Joint']",b'\x00\x00\x00\x00\x01\xc0Y\xda\x036\x15e\xc3@4\xbe#\xe1\x86\x985',"{'xmin': -103.406446, 'ymin': 20.742735, 'xmax': -103.406446, 'ymax': 20.742735}","dining and drinking > restaurant > hot dog joint, dining and drinking > restaurant > mexican restaurant > taco restaurant, dining and drinking > restaurant > burger joint",1
5b8c8fca2f97ec002cafd55a,Tacos Wicho,20.716103,-101.30255,Calle Durazno,El Carrizal Grande,Guanajuato,,,,,MX,2018-09-03,2020-11-23,,,,,,,,['4bf58dd8d48988d151941735'],['Dining and Drinking > Restaurant > Mexican Restaurant > Taco Restaurant'],b'\x00\x00\x00\x00\x01\xc0YS\\\xfa\xac\xd9\xe8@4\xb7R\x86\xb5\x91G',"{'xmin': -101.30255, 'ymin': 20.716103, 'xmax': -101.30255, 'ymax': 20.716103}",dining and drinking > restaurant > mexican restaurant > taco restaurant,1
4bf35b27706e20a1e334a898,Tacos Güeros,19.105270320255578,-104.33432579040527,Boulevard Miguel de la Madrid,Manzanillo,Colima,Mexico,,,,MX,2010-05-19,2020-11-25,,,,,,,,['4bf58dd8d48988d151941735'],['Dining and Drinking > Restaurant > Mexican Restaurant > Taco Restaurant'],b'\x00\x00\x00\x00\x01\xc0Z\x15e\x98\x00\x00\x00@3\x1a\xf2\xfe\xe6\xbc\xb6',"{'xmin': -104.33432579040527, 'ymin': 19.105270320255578, 'xmax': -104.33432579040527, 'ymax': 19.105270320255578}",dining and drinking > restaurant > mexican restaurant > taco restaurant,1
63c60470ecdfb649227c9786,Tacos El Tejaban,21.475828,-101.21665,,San Felipe,Guanajuato,37600,,,,MX,2023-01-17,2023-01-17,,,,,,,,['4bf58dd8d48988d151941735'],['Dining and Drinking > Restaurant > Mexican Restaurant > Taco Restaurant'],"b'\x00\x00\x00\x00\x01\xc0YM\xdd\x97\xf6+k@5y\xcf\xdd""\x85f'","{'xmin': -101.21665, 'ymin': 21.475828, 'xmax': -101.21665, 'ymax': 21.475828}",dining and drinking > restaurant > mexican restaurant > taco restaurant,1
4f6e8297e4b0725b6235f05a,Tacos el Puente,21.90140202335278,-102.28257756780684,Av Convención de 1914 Ote,Aguascalientes,AGS,,,,,MX,2012-03-25,2020-11-25,,,,,,,,['4bf58dd8d48988d151941735' '4bf58dd8d48988d1cb941735'],"['Dining and Drinking > Restaurant > Mexican Restaurant > Taco Restaurant'
 'Dining and Drinking > Food Truck']",b'\x00\x00\x00\x00\x01\xc0Y\x92\x15\xc09\x14\x12@5\xe6\xc2Hr\xd92',"{'xmin': -102.28257756780684, 'ymin': 21.90140202335278, 'xmax': -102.28257756780684, 'ymax': 21.90140202335278}","dining and drinking > restaurant > mexican restaurant > taco restaurant, dining and drinking > food truck",1
5df69ed6ebb0f70008ef7759,Tacos Chicho's,20.650778,-103.28632,Av Manuel Román Alatorre,Guadalajara,Jalisco,44820,,,,MX,2019-12-15,2021-08-11,,,,,,,,['4bf58dd8d48988d151941735'],['Dining and Drinking > Restaurant > Mexican Restaurant > Taco Restaurant'],b'\x00\x00\x00\x00\x01\xc0Y\xd2S\x11\x1f\x0c5@4\xa6\x99c\x12\xf4\xcf',"{'xmin': -103.28632, 'ymin': 20.650778, 'xmax': -103.28632, 'ymax': 20.650778}",dining and drinking > restaurant > mexican restaurant > taco restaurant,1
542cb41e498e111fdf40aaae,Taqueria Gera,20.382138,-103.860941,,,,,,,,MX,2014-10-02,2021-08-17,,,,,,,,['4bf58dd8d48988d151941735'],['Dining and Drinking > Restaurant > Mexican Restaurant > Taco Restaurant'],b'\x00\x00\x00\x00\x01\xc0Y\xf7\x19\xa8G\xb2F@4a\xd3\xcb\xc4\x8f\x11',"{'xmin': -103.860941, 'ymin': 20.382138, 'xmax': -103.860941, 'ymax': 20.382138}",dining and drinking > restaurant > mexican restaurant > taco restaurant,1
525b666b11d2dcaeb5ffc60e,Tacos La Panza Feliz,20.66434027477386,-103.29035284730037,Manuel de Navarrete 3203,Guadalajara,Jalisco,43810,,,,MX,2013-10-14,2021-08-17,,,,,,,,['4bf58dd8d48988d151941735'],['Dining and Drinking > Restaurant > Mexican Restaurant > Taco Restaurant'],b'\x00\x00\x00\x00\x01\xc0Y\xd2\x95$\x1b\xdd(@4\xaa\x124I\x91\xc3',"{'xmin': -103.29035284730037, 'ymin': 20.66434027477386, 'xmax': -103.29035284730037, 'ymax': 20.66434027477386}",dining and drinking > restaurant > mexican restaurant > taco restaurant,1
4e3213db7d8bf5432e38d36b,Tacos Michoacan,19.12375,-104.339651,,Manzanillo,Colima,,,,,MX,2011-07-29,2020-11-23,,,,,,,,['4bf58dd8d48988d151941735'],['Dining and Drinking > Restaurant > Mexican Restaurant > Taco Restaurant'],b'\x00\x00\x00\x00\x01\xc0Z\x15\xbc\xd7\x8cCp@3\x1f\xae\x14z\xe1H',"{'xmin': -104.339651, 'ymin': 19.12375, 'xmax': -104.339651, 'ymax': 19.12375}",dining and drinking > restaurant > mexican restaurant > taco restaurant,1
53ee26b0498eedaedec49a90,Tacos la Pasadita,22.130929,-100.985703,,,,,,,,MX,2014-08-15,2021-08-12,,,,,,,,['4bf58dd8d48988d151941735'],['Dining and Drinking > Restaurant > Mexican Restaurant > Taco Restaurant'],b'\x00\x00\x00\x00\x01\xc0Y?\x15\xc2\t$l@6!\x84\x90\x1d\x19\x15',"{'xmin': -100.985703, 'ymin': 22.130929, 'xmax': -100.985703, 'ymax': 22.130929}",dining and drinking > restaurant > mexican restaurant > taco restaurant,1
521fb58e11d22ae98ad29e24,Tacos Vidal,20.678279270077986,-103.43413405889928,,,,,,,,MX,2013-08-29,2021-08-16,,,,,,,,['4bf58dd8d48988d151941735'],['Dining and Drinking > Restaurant > Mexican Restaurant > Taco Restaurant'],b'\x00\x00\x00\x00\x01\xc0Y\xdb\xc8\xda8CV@4\xad\xa3\xb5\xd2\x8a*',"{'xmin': -103.43413405889928, 'ymin': 20.678279270077986, 'xmax': -103.43413405889928, 'ymax': 20.678279270077986}",dining and drinking > restaurant > mexican restaurant > taco restaurant,1
4dc3524581301db330d7668a,Tacos Cande,20.64484763435959,-105.21427005529404,Carlos R. Palacios,Puerto Vallarta,Jalisco,48318,,,,MX,2011-05-06,2020-11-24,,322 293 4458,,,,,,['4bf58dd8d48988d151941735'],['Dining and Drinking > Restaurant > Mexican Restaurant > Taco Restaurant'],b'\x00\x00\x00\x00\x01\xc0ZM\xb6\x99\xc0\x00\x00@4\xa5\x14\xbc\x0cz7',"{'xmin': -105.21427005529404, 'ymin': 20.64484763435959, 'xmax': -105.21427005529404, 'ymax': 20.64484763435959}",dining and drinking > restaurant > mexican restaurant > taco restaurant,1
54166039498e587dba1356a4,Tacos y Ordenes Los Brothers,20.67276382446289,-103.34303283691406,Av. Revolución 55-A,Guadalajara,Jalisco,44300,,,,MX,2014-09-15,2021-08-16,,,,,,,,['4bf58dd8d48988d151941735'],['Dining and Drinking > Restaurant > Mexican Restaurant > Taco Restaurant'],b'\x00\x00\x00\x00\x01\xc0Y\xd5\xf4@\x00\x00\x00@4\xac:@\x00\x00\x00',"{'xmin': -103.34303283691406, 'ymin': 20.67276382446289, 'xmax': -103.34303283691406, 'ymax': 20.67276382446289}",dining and drinking > restaurant > mexican restaurant > taco restaurant,1
5116728de4b02a04b61a99b7,Tacos de tripa de don Pucho.,21.866095,-102.297062,,,,,,,,MX,2013-02-09,2021-08-13,,,,,,,,['4bf58dd8d48988d151941735'],['Dining and Drinking > Restaurant > Mexican Restaurant > Taco Restaurant'],b'\x00\x00\x00\x00\x01\xc0Y\x93\x03\x10U\xb8\x99@5\xdd\xb8f\xe4:\xa8',"{'xmin': -102.297062, 'ymin': 21.866095, 'xmax': -102.297062, 'ymax': 21.866095}",dining and drinking > restaurant > mexican restaurant > taco restaurant,1
507b801ce4b05b62b44932dc,Jonny's Burguer,20.659169,-101.350338,Av.  Guanajuato,Irapuato,Guanajuato,36590,,,,MX,2012-10-15,2020-11-25,2013-02-18,,,,,,,"['4bf58dd8d48988d1cb941735' '4bf58dd8d48988d16c941735'
 '4bf58dd8d48988d151941735']","['Dining and Drinking > Food Truck'
 'Dining and Drinking > Restaurant > Burger Joint'
 'Dining and Drinking > Restaurant > Mexican Restaurant > Taco Restaurant']","b'\x00\x00\x00\x00\x01\xc0YVk\xf0\x13""\xf2@4\xa8\xbfL\xb1\x89z'","{'xmin': -101.350338, 'ymin': 20.659169, 'xmax': -101.350338, 'ymax': 20.659169}","dining and drinking > food truck, dining and drinking > restaurant > burger joint, dining and drinking > restaurant > mexican restaurant > taco restaurant",1
50200f4fe4b0acfbe9acca5b,Taquitos Deliciosos Picapiiedra,20.666777,-103.404082,,,,,,,,MX,2012-08-06,2021-08-12,,,,,,,,['4bf58dd8d48988d151941735'],['Dining and Drinking > Restaurant > Mexican Restaurant > Taco Restaurant'],b'\x00\x00\x00\x00\x01\xc0Y\xd9\xdcz\xbf\xb9\xbf@4\xaa\xb1\xe5\xc0\xb9\x99',"{'xmin': -103.404082, 'ymin': 20.666777, 'xmax': -103.404082, 'ymax': 20.666777}",dining and drinking > restaurant > mexican restaurant > taco restaurant,1
4f5ceda5e4b04fe10f2db2b7,Arturo El Amigo,20.691460878002033,-103.35440538480199,,,,,,,,MX,2012-03-11,2021-08-11,,,,,,,,['4bf58dd8d48988d151941735'],['Dining and Drinking > Restaurant > Mexican Restaurant > Taco Restaurant'],b'\x00\x00\x00\x00\x01\xc0Y\xd6\xae\x93\xecP\x0e@4\xb1\x03\x94\x81{p',"{'xmin': -103.35440538480199, 'ymin': 20.691460878002033, 'xmax': -103.35440538480199, 'ymax': 20.691460878002033}",dining and drinking > restaurant > mexican restaurant > taco restaurant,1
52dc17a2498e4e22dd56ff32,Las Quekas,20.651121432764626,-103.3996491086568,Plaza del Sol,Zaoopan,Jalisco,,,,,MX,2014-01-19,2021-08-12,,,,,,,,['4bf58dd8d48988d151941735' '4bf58dd8d48988d1c1941735'],"['Dining and Drinking > Restaurant > Mexican Restaurant > Taco Restaurant'
 'Dining and Drinking > Restaurant > Mexican Restaurant']",b'\x00\x00\x00\x00\x01\xc0Y\xd9\x93\xd9\xda\xe3\x9e@4\xa6\xaf\xe4\xebr\xe0',"{'xmin': -103.3996491086568, 'ymin': 20.651121432764626, 'xmax': -103.3996491086568, 'ymax': 20.651121432764626}","dining and drinking > restaurant > mexican restaurant > taco restaurant, dining and drinking > restaurant > mexican restaurant",1
4f1f778ae4b02792a6fe9cfa,Taqueria Mi Ranchito,20.638578905827718,-105.22020927774092,,,,,,,,MX,2012-01-25,2021-08-15,,,,,,,,['4bf58dd8d48988d151941735'],['Dining and Drinking > Restaurant > Mexican Restaurant > Taco Restaurant'],b'\x00\x00\x00\x00\x01\xc0ZN\x17\xe8\xa7\x8b\x13@4\xa3y\xe8<r\r',"{'xmin': -105.22020927774092, 'ymin': 20.638578905827718, 'xmax': -105.22020927774092, 'ymax': 20.638578905827718}",dining and drinking > restaurant > mexican restaurant > taco restaurant,1
4e12109cfa769d21e9f2a42e,Taco Fish,20.652679,-103.400588,,Zapopan,JAL,,,,,MX,2011-07-04,2020-11-25,,,,,,,,['4bf58dd8d48988d151941735'],['Dining and Drinking > Restaurant > Mexican Restaurant > Taco Restaurant'],b'\x00\x00\x00\x00\x01\xc0Y\xd9\xa3;\xd9\xca\xe2@4\xa7\x15\xf8\x8f\xc96',"{'xmin': -103.400588, 'ymin': 20.652679, 'xmax': -103.400588, 'ymax': 20.652679}",dining and drinking > restaurant > mexican restaurant > taco restaurant,1
564fbb2a498e88cfa29c6b3f,Tacos Happy,20.701303,-103.974733,,,,,,,,MX,2015-11-21,2021-08-14,,,,,,,,['4bf58dd8d48988d151941735'],['Dining and Drinking > Restaurant > Mexican Restaurant > Taco Restaurant'],b'\x00\x00\x00\x00\x01\xc0Y\xfeb\x06\x85U?@4\xb3\x88\x97\xe9\x961',"{'xmin': -103.974733, 'ymin': 20.701303, 'xmax': -103.974733, 'ymax': 20.701303}",dining and drinking > restaurant > mexican restaurant > taco restaurant,1
544e9607498e7ab794f49b88,Tortas Ahogadas El Boulevard,21.496612548828125,-104.87757110595703,Av. Principal 62,Tepic,Nayarit,,,,,MX,2014-10-27,2020-11-25,,,,,,,,['4bf58dd8d48988d151941735'],['Dining and Drinking > Restaurant > Mexican Restaurant > Taco Restaurant'],"b'\x00\x00\x00\x00\x01\xc0Z8* \x00\x00\x00@5\x7f""\x00\x00\x00\x00'","{'xmin': -104.87757110595703, 'ymin': 21.496612548828125, 'xmax': -104.87757110595703, 'ymax': 21.496612548828125}",dining and drinking > restaurant > mexican restaurant > taco restaurant,1
51e6cf2e498ecebfa009db9c,Los De Asada De La SEP,19.6836804819696,-101.24134030331761,,,,,,,,MX,2013-07-17,2020-11-22,,,,,,,,['4bf58dd8d48988d151941735'],['Dining and Drinking > Restaurant > Mexican Restaurant > Taco Restaurant'],b'\x00\x00\x00\x00\x01\xc0YOr\x1e\x99}-@3\xaf\x05\xaf\x1e\xf9\x13',"{'xmin': -101.24134030331761, 'ymin': 19.6836804819696, 'xmax': -101.24134030331761, 'ymax': 19.6836804819696}",dining and drinking > restaurant > mexican restaurant > taco restaurant,1
63b36585047655037c7c09ad,Tá Carbón Iteso,20.603895,-103.411608,Av. Independencia 3322 Local 12,Tlaquepaque,JAL,45609,,,,MX,2023-01-02,2023-01-02,,,,,,,,['4bf58dd8d48988d151941735'],['Dining and Drinking > Restaurant > Mexican Restaurant > Taco Restaurant'],b'\x00\x00\x00\x00\x01\xc0Y\xdaW\xc9\x14\xb1h@4\x9a\x98\xdc\xdb7\xca',"{'xmin': -103.411608, 'ymin': 20.603895, 'xmax': -103.411608, 'ymax': 20.603895}",dining and drinking > restaurant > mexican restaurant > taco restaurant,1
5bf76b0bf05ca8002d70b685,Tripas,21.887781,-102.29666,,Aguascalientes,Aguascalientes,20000,,,,MX,2018-11-23,2020-11-22,,,,,,,,['4bf58dd8d48988d151941735'],['Dining and Drinking > Restaurant > Mexican Restaurant > Taco Restaurant'],b'\x00\x00\x00\x00\x01\xc0Y\x92\xfcz9\x82\x02@5\xe3E\x9d\x99\x02\x9b',"{'xmin': -102.29666, 'ymin': 21.887781, 'xmax': -102.29666, 'ymax': 21.887781}",dining and drinking > restaurant > mexican restaurant > taco restaurant,1
59795b36f427de3df21e19fa,"Tacos Al Carbon ""El Gordo""",20.777648,-103.455452,,Zapopan,JAL,45134,,,,MX,2017-07-27,2020-11-22,,,,,,,,['4bf58dd8d48988d151941735'],['Dining and Drinking > Restaurant > Mexican Restaurant > Taco Restaurant'],b'\x00\x00\x00\x00\x01\xc0Y\xdd& %9u@4\xc7\x13\xf0w\xcc\xc0',"{'xmin': -103.455452, 'ymin': 20.777648, 'xmax': -103.455452, 'ymax': 20.777648}",dining and drinking > restaurant > mexican restaurant > taco restaurant,1
50b4171ce4b0627b566f0106,Taqueria Scott,19.67217261792951,-101.19037639430735,Ramon lopez velarde,Morelia,,,,,,MX,2012-11-27,2020-11-25,,,,,,,,['4bf58dd8d48988d151941735'],['Dining and Drinking > Restaurant > Mexican Restaurant > Taco Restaurant'],"b'\x00\x00\x00\x00\x01\xc0YL/ x\xde\xc0@3\xac\x13\x813F""'","{'xmin': -101.19037639430735, 'ymin': 19.67217261792951, 'xmax': -101.19037639430735, 'ymax': 19.67217261792951}",dining and drinking > restaurant > mexican restaurant > taco restaurant,1
522e8b9a498e32b78f73f0af,Tacos Registro Civil,21.500979,-104.890558,,,,,,,,MX,2013-09-10,2021-08-13,,,,,,,,['4bf58dd8d48988d151941735'],['Dining and Drinking > Restaurant > Mexican Restaurant > Taco Restaurant'],b'\x00\x00\x00\x00\x01\xc0Z8\xfe\xe6\xfbL<@5\x80@(\xe4\xfb\x98',"{'xmin': -104.890558, 'ymin': 21.500979, 'xmax': -104.890558, 'ymax': 21.500979}",dining and drinking > restaurant > mexican restaurant > taco restaurant,1
4e66ef03b0fbcbb043e879c7,Tacos Y Papeleria Los Sauces,20.641057535640616,-105.215163230896,,Puerto Vallarta,Jalisco,,,,,MX,2011-09-07,2020-11-25,,,,,,,,['4bf58dd8d48988d151941735' '4bf58dd8d48988d121951735'],"['Dining and Drinking > Restaurant > Mexican Restaurant > Taco Restaurant'
 'Retail > Office Supply Store']",b'\x00\x00\x00\x00\x01\xc0ZM\xc5<\x00\x00\x00@4\xa4\x1cX\xbenI',"{'xmin': -105.215163230896, 'ymin': 20.641057535640616, 'xmax': -105.215163230896, 'ymax': 20.641057535640616}","dining and drinking > restaurant > mexican restaurant > taco restaurant, retail > office supply store",1
63c4e79de5d6d804a2c925c7,Tacos De Canasta Sí Señor,21.857855,-102.344119,,Aguascalientes,Aguascalientes,20200,,,,MX,2023-01-16,2023-01-16,,,,,,,,['4bf58dd8d48988d151941735'],['Dining and Drinking > Restaurant > Mexican Restaurant > Taco Restaurant'],b'\x00\x00\x00\x00\x01\xc0Y\x96\x06\x0b\xb2\xbb\xaa@5\xdb\x9cb\xa1\xb5\xc8',"{'xmin': -102.344119, 'ymin': 21.857855, 'xmax': -102.344119, 'ymax': 21.857855}",dining and drinking > restaurant > mexican restaurant > taco restaurant,1
5ffa0ca7a21ca31575d993bb,Los Dorados De Villa,22.133772,-101.0313,Villa de Guadalupe esq.,San Luis Potosí,San Luis Potosí,78218,,,,MX,2021-01-09,2021-01-09,,,,,,,,['4bf58dd8d48988d151941735'],['Dining and Drinking > Restaurant > Mexican Restaurant > Taco Restaurant'],"b'\x00\x00\x00\x00\x01\xc0YB\x00\xd1\xb7\x17Y@6"">\xe1\xbd\x1e\xda'","{'xmin': -101.0313, 'ymin': 22.133772, 'xmax': -101.0313, 'ymax': 22.133772}",dining and drinking > restaurant > mexican restaurant > taco restaurant,1
51afe7ae498ea6fd512ed525,tacos el paisa,20.82052556368576,-103.44821628182554,,,,,,,,MX,2013-06-06,2020-11-24,,,,,,,,['4bf58dd8d48988d151941735'],['Dining and Drinking > Restaurant > Mexican Restaurant > Taco Restaurant'],b'\x00\x00\x00\x00\x01\xc0Y\xdc\xaf\x93W\xfem@4\xd2\r\xf6\x9d\x8f\xf3',"{'xmin': -103.44821628182554, 'ymin': 20.82052556368576, 'xmax': -103.44821628182554, 'ymax': 20.82052556368576}",dining and drinking > restaurant > mexican restaurant > taco restaurant,1
53c5f00a498e769a4a4df734,Tacos Mimí,20.680435180664062,-101.35476684570312,Progreso # 194 A Col. La Rodríguez,Irapuato,Guanajuato,,,,,MX,2014-07-16,2020-11-22,,,,,,,,['4bf58dd8d48988d151941735'],['Dining and Drinking > Restaurant > Mexican Restaurant > Taco Restaurant'],b'\x00\x00\x00\x00\x01\xc0YV\xb4\x80\x00\x00\x00@4\xae1\x00\x00\x00\x00',"{'xmin': -101.35476684570312, 'ymin': 20.680435180664062, 'xmax': -101.35476684570312, 'ymax': 20.680435180664062}",dining and drinking > restaurant > mexican restaurant > taco restaurant,1
5245af06498ea9436b83d24a,Tortas May,21.118490364349974,-101.64327512180085,,,,,,,,MX,2013-09-27,2021-08-16,,,,,,,,['4bf58dd8d48988d151941735'],['Dining and Drinking > Restaurant > Mexican Restaurant > Taco Restaurant'],b'\x00\x00\x00\x00\x01\xc0Yi+kj\x9d\xc4@5\x1eUbo\xc66',"{'xmin': -101.64327512180085, 'ymin': 21.118490364349974, 'xmax': -101.64327512180085, 'ymax': 21.118490364349974}",dining and drinking > restaurant > mexican restaurant > taco restaurant,1
4c7e7bfed6543704db65c3a2,Tacos El Ranchero,20.731532467962023,-103.45436398805855,Av. Ramon Corona S/N (Frente al tec de Mty),Zapopan,JAL,45200,,,,MX,2010-09-01,2020-11-21,,,,,,,,['4bf58dd8d48988d151941735' '4bf58dd8d48988d1c1941735'],"['Dining and Drinking > Restaurant > Mexican Restaurant > Taco Restaurant'
 'Dining and Drinking > Restaurant > Mexican Restaurant']",b'\x00\x00\x00\x00\x01\xc0Y\xdd\x14L\xb1LC@4\xbbE\xb69\xdb\xeb',"{'xmin': -103.45436398805855, 'ymin': 20.731532467962023, 'xmax': -103.45436398805855, 'ymax': 20.731532467962023}","dining and drinking > restaurant > mexican restaurant > taco restaurant, dining and drinking > restaurant > mexican restaurant",1
53435414498e2044c1f39975,"Tacos ""El chambitas""",20.539154052734375,-100.82931518554688,,,,,,,,MX,2014-04-08,2021-08-11,,,,,,,,['4bf58dd8d48988d151941735'],['Dining and Drinking > Restaurant > Mexican Restaurant > Taco Restaurant'],b'\x00\x00\x00\x00\x01\xc0Y5\x13\x80\x00\x00\x00@4\x8a\x06\x00\x00\x00\x00',"{'xmin': -100.82931518554688, 'ymin': 20.539154052734375, 'xmax': -100.82931518554688, 'ymax': 20.539154052734375}",dining and drinking > restaurant > mexican restaurant > taco restaurant,1
531b6270498e7d946aba5299,carnitas la Valentina,19.052398681640625,-104.3172836303711,,,,,,,,MX,2014-03-08,2021-08-12,,,,,,,,['4bf58dd8d48988d151941735'],['Dining and Drinking > Restaurant > Mexican Restaurant > Taco Restaurant'],b'\x00\x00\x00\x00\x01\xc0Z\x14N`\x00\x00\x00@3\rj\x00\x00\x00\x00',"{'xmin': -104.3172836303711, 'ymin': 19.052398681640625, 'xmax': -104.3172836303711, 'ymax': 19.052398681640625}",dining and drinking > restaurant > mexican restaurant > taco restaurant,1
50bf72f0e4b044c1c94a9479,Tacos de barbacoa a un lado de con Lolo,20.673784,-103.28629,,,,,,,,MX,2012-12-05,2021-08-11,,,,,,,,['4bf58dd8d48988d151941735'],['Dining and Drinking > Restaurant > Mexican Restaurant > Taco Restaurant'],b'\x00\x00\x00\x00\x01\xc0Y\xd2R\x93J\xca\xff@4\xac}\x1b\xb4\x91m',"{'xmin': -103.28629, 'ymin': 20.673784, 'xmax': -103.28629, 'ymax': 20.673784}",dining and drinking > restaurant > mexican restaurant > taco restaurant,1
51b0bf0a498e2d5025b05669,Tacos y Tortas Ahogadas Torinos,19.255473125278225,-103.69040375329519,,,,,,,,MX,2013-06-06,2021-08-15,,,,,,,,['4bf58dd8d48988d151941735'],['Dining and Drinking > Restaurant > Mexican Restaurant > Taco Restaurant'],b'\x00\x00\x00\x00\x01\xc0Y\xec/\x939\\\x10@3Af\xaf\xce\x13\xaf',"{'xmin': -103.69040375329519, 'ymin': 19.255473125278225, 'xmax': -103.69040375329519, 'ymax': 19.255473125278225}",dining and drinking > restaurant > mexican restaurant > taco restaurant,1
593a1697b2958f0371b88bc2,El Rinconcito,21.919968,-102.700325,,San Tadeo,AGS,,,,,MX,2017-06-09,2020-11-30,,,,,,,,['4bf58dd8d48988d151941735'],['Dining and Drinking > Restaurant > Mexican Restaurant > Taco Restaurant'],b'\x00\x00\x00\x00\x01\xc0Y\xac\xd2\x1f\xf2\xe4\x8f@5\xeb\x83\x05\xd9]\xd5',"{'xmin': -102.700325, 'ymin': 21.919968, 'xmax': -102.700325, 'ymax': 21.919968}",dining and drinking > restaurant > mexican restaurant > taco restaurant,1
4fd58aa2e4b0bd432958bc8f,tacos El Guero arandas,20.71208276615944,-103.345426266931,Fidel Velasquez,Guadalajara,,,,,,MX,2012-06-11,2021-08-11,,,,,,,,['4bf58dd8d48988d151941735'],['Dining and Drinking > Restaurant > Mexican Restaurant > Taco Restaurant'],b'\x00\x00\x00\x00\x01\xc0Y\xd6\x1bv\xc5\xe9y@4\xb6K\x0e`\xb34',"{'xmin': -103.345426266931, 'ymin': 20.71208276615944, 'xmax': -103.345426266931, 'ymax': 20.71208276615944}",dining and drinking > restaurant > mexican restaurant > taco restaurant,1
51fe0820498e73a6e83a8223,tacos plan de san luis,20.6969742722652,-103.35881621395934,,,,,,,,MX,2013-08-04,2021-08-13,,,,,,,,['4bf58dd8d48988d151941735'],['Dining and Drinking > Restaurant > Mexican Restaurant > Taco Restaurant'],b'\x00\x00\x00\x00\x01\xc0Y\xd6\xf6\xd8H\x0e\xb7@4\xb2l\xe7\xe9\x88N',"{'xmin': -103.35881621395934, 'ymin': 20.6969742722652, 'xmax': -103.35881621395934, 'ymax': 20.6969742722652}",dining and drinking > restaurant > mexican restaurant > taco restaurant,1
4f355174e4b093c6b4908fa3,Almuerzos Israel,21.095933124811307,-101.64681461869277,Blvd. San Pedro,,,,,,,MX,2012-02-10,2021-08-14,,,,,,,,['4bf58dd8d48988d151941735'],['Dining and Drinking > Restaurant > Mexican Restaurant > Taco Restaurant'],b'\x00\x00\x00\x00\x01\xc0Yiei$w\r@5\x18\x8f\x12\xc1\xaa\xeb',"{'xmin': -101.64681461869277, 'ymin': 21.095933124811307, 'xmax': -101.64681461869277, 'ymax': 21.095933124811307}",dining and drinking > restaurant > mexican restaurant > taco restaurant,1
4f7a6d35e4b0d859b5fc942f,Cenaduría Cuevas,21.863779,-102.912854,,,,,,,,MX,2012-04-03,2021-08-11,,,,,,,,['4bf58dd8d48988d151941735'],['Dining and Drinking > Restaurant > Mexican Restaurant > Taco Restaurant'],b'\x00\x00\x00\x00\x01\xc0Y\xbal3/\x01u@5\xdd \x9e\xdb\xf8\xba',"{'xmin': -102.912854, 'ymin': 21.863779, 'xmax': -102.912854, 'ymax': 21.863779}",dining and drinking > restaurant > mexican restaurant > taco restaurant,1
52c8380d498ee9accb1e6dc4,tacos don manolo,20.693258355174613,-103.3104070133048,,,,,,,,MX,2014-01-04,2021-08-15,,,,,,,,['4bf58dd8d48988d151941735'],['Dining and Drinking > Restaurant > Mexican Restaurant > Taco Restaurant'],"b""\x00\x00\x00\x00\x01\xc0Y\xd3\xdd\xb5`\xa5\xf6@4\xb1ya+'Z""","{'xmin': -103.3104070133048, 'ymin': 20.693258355174613, 'xmax': -103.3104070133048, 'ymax': 20.693258355174613}",dining and drinking > restaurant > mexican restaurant > taco restaurant,1
5055fdabe4b096ad9a447149,Birrieria Don Praxedis,21.182460488029136,-105.13190009871825,,,,,,,,MX,2012-09-16,2021-08-15,,,,,,,,['4bf58dd8d48988d151941735'],['Dining and Drinking > Restaurant > Mexican Restaurant > Taco Restaurant'],b'\x00\x00\x00\x00\x01\xc0ZHq\r\x1c\x95a@5.\xb5\xbb\x04\xe5\xb8',"{'xmin': -105.13190009871825, 'ymin': 21.182460488029136, 'xmax': -105.13190009871825, 'ymax': 21.182460488029136}",dining and drinking > restaurant > mexican restaurant > taco restaurant,1
4d01867325b137045a2bc276,Tacos El Tocayo,21.12281,-101.696959,,,,,,,,MX,2010-12-10,2021-08-16,,,,,,,,['4bf58dd8d48988d151941735'],['Dining and Drinking > Restaurant > Mexican Restaurant > Taco Restaurant'],"b'\x00\x00\x00\x00\x01\xc0Yl\x9a\xf9\xeb\xe9\xc9@5\x1fpy\xe5\x9f,'","{'xmin': -101.696959, 'ymin': 21.12281, 'xmax': -101.696959, 'ymax': 21.12281}",dining and drinking > restaurant > mexican restaurant > taco restaurant,1
524489b611d23d6bd3833b02,Tacos El Ranchero,20.61017676339424,-103.41272119351841,,San Pedro Tlaquepaque,Jalisco,,,,,MX,2013-09-26,2020-11-25,,,,,,,,['4bf58dd8d48988d151941735'],['Dining and Drinking > Restaurant > Mexican Restaurant > Taco Restaurant'],"b""\x00\x00\x00\x00\x01\xc0Y\xdaj\x06'!\xc5@4\x9c4\x8b[\x8e\xb1""","{'xmin': -103.41272119351841, 'ymin': 20.61017676339424, 'xmax': -103.41272119351841, 'ymax': 20.61017676339424}",dining and drinking > restaurant > mexican restaurant > taco restaurant,1
50de64a6e4b0cf8b34146ffd,El Bonito,21.808662526335485,-105.21021073456812,,,,,,,,MX,2012-12-29,2021-08-15,,,,,,,,['4bf58dd8d48988d151941735'],['Dining and Drinking > Restaurant > Mexican Restaurant > Taco Restaurant'],b'\x00\x00\x00\x00\x01\xc0ZMt\x17\xb9\x8f?@5\xcf\x04\x81\xe0\x1c\x95',"{'xmin': -105.21021073456812, 'ymin': 21.808662526335485, 'xmax': -105.21021073456812, 'ymax': 21.808662526335485}",dining and drinking > restaurant > mexican restaurant > taco restaurant,1
56705c41498ece84af5b1438,Tortas,22.151341902160926,-100.96588961442438,,,,,,,,MX,2015-12-15,2021-08-13,,,,,,,,['4bf58dd8d48988d151941735'],['Dining and Drinking > Restaurant > Mexican Restaurant > Taco Restaurant'],"b'\x00\x00\x00\x00\x01\xc0Y=\xd1""\xac_\xec@6&\xbeW\xc8K\xad'","{'xmin': -100.96588961442438, 'ymin': 22.151341902160926, 'xmax': -100.96588961442438, 'ymax': 22.151341902160926}",dining and drinking > restaurant > mexican restaurant > taco restaurant,1
59191fa1d552c72b8c3669f1,Taco Loco Mixe,21.03019,-102.392938,,San Miguel el Alto,JAL,47144,,,,MX,2017-05-15,2020-11-25,,,,,,,,['4bf58dd8d48988d151941735'],['Dining and Drinking > Restaurant > Mexican Restaurant > Taco Restaurant'],b'\x00\x00\x00\x00\x01\xc0Y\x99%\xe5l\xd6\xc3@5\x07\xba\x88&\xaa\x8f',"{'xmin': -102.392938, 'ymin': 21.03019, 'xmax': -102.392938, 'ymax': 21.03019}",dining and drinking > restaurant > mexican restaurant > taco restaurant,1
7d0a0e78f8c0444269b86783,Tortas Ahogadas Envoy,20.722161,-103.338893,Experiencia 3691,Guadalajara,Jalisco,44230,,,,MX,2014-02-10,2024-11-21,,33 3853 8734,,envoy@yahoo.com,,,,['4bf58dd8d48988d151941735'],['Dining and Drinking > Restaurant > Mexican Restaurant > Taco Restaurant'],b'\x00\x00\x00\x00\x01\xc0Y\xd5\xb0lC\xf5\xf9@4\xb8\xdf\x8b\x15rX',"{'xmin': -103.338893, 'ymin': 20.722161, 'xmax': -103.338893, 'ymax': 20.722161}",dining and drinking > restaurant > mexican restaurant > taco restaurant,1
52367d3c11d216eca13f399b,Taqueria el tabloncito,20.53927698212841,-100.84204641534741,,celaya,"celaya, Guanajuato",38020,,,,MX,2013-09-16,2020-11-30,,,,,,,,['4bf58dd8d48988d151941735'],['Dining and Drinking > Restaurant > Mexican Restaurant > Taco Restaurant'],b'\x00\x00\x00\x00\x01\xc0Y5\xe4\x16\xa5\xe8e@4\x8a\x0e\x0ei\xba#',"{'xmin': -100.84204641534741, 'ymin': 20.53927698212841, 'xmax': -100.84204641534741, 'ymax': 20.53927698212841}",dining and drinking > restaurant > mexican restaurant > taco restaurant,1
54b819cd498e9cb69f11cab0,Don Rubenchón,20.710367,-103.414817,,,,,,,,MX,2015-01-15,2021-08-17,,,,,,,,['4bf58dd8d48988d151941735'],['Dining and Drinking > Restaurant > Mexican Restaurant > Taco Restaurant'],b'\x00\x00\x00\x00\x01\xc0Y\xda\x8c\\\x9a4\xca@4\xb5\xda\x9c\x99([',"{'xmin': -103.414817, 'ymin': 20.710367, 'xmax': -103.414817, 'ymax': 20.710367}",dining and drinking > restaurant > mexican restaurant > taco restaurant,1
51d249ca498eda05fd1d75a9,"Tacos ""El Chino""",20.686852638412883,-103.34688152429321,,Guadalajara,,,,,,MX,2013-07-02,2021-08-17,,,,,,,,['4bf58dd8d48988d151941735'],['Dining and Drinking > Restaurant > Mexican Restaurant > Taco Restaurant'],"b""\x00\x00\x00\x00\x01\xc0Y\xd63N\x90\x9bC@4\xaf\xd5\x93\x13'\x97""","{'xmin': -103.34688152429321, 'ymin': 20.686852638412883, 'xmax': -103.34688152429321, 'ymax': 20.686852638412883}",dining and drinking > restaurant > mexican restaurant > taco restaurant,1
4cdc4d0d958f236ab4ccb103,El Comal,22.15029351639078,-101.00347410181975,,San Luis Potosi,San Luis Potosí,,,,,MX,2010-11-11,2020-11-23,,,,,,,,['4bf58dd8d48988d151941735'],['Dining and Drinking > Restaurant > Mexican Restaurant > Taco Restaurant'],b'\x00\x00\x00\x00\x01\xc0Y@8\xebpl\xb9@6&y\xa2\xc9\xb3\x01',"{'xmin': -101.00347410181975, 'ymin': 22.15029351639078, 'xmax': -101.00347410181975, 'ymax': 22.15029351639078}",dining and drinking > restaurant > mexican restaurant > taco restaurant,1
542aba02498e51a58dbf91e7,Tacos Don Toño,22.145692896330253,-101.01885656225414,Río Kennedy,San Luis Potosí,SLP,,,,,MX,2014-09-30,2020-11-23,,444 810 6009,,,,,,['4bf58dd8d48988d151941735'],['Dining and Drinking > Restaurant > Mexican Restaurant > Taco Restaurant'],"b""\x00\x00\x00\x00\x01\xc0YA4\xf2'\x8c\x94@6%L!0\xffz""","{'xmin': -101.01885656225414, 'ymin': 22.145692896330253, 'xmax': -101.01885656225414, 'ymax': 22.145692896330253}",dining and drinking > restaurant > mexican restaurant > taco restaurant,1
5364937f498edd00c587a18c,gorditas eje vial,22.161792544708835,-100.97452132126918,,,,,,,,MX,2014-05-03,2021-08-10,,,,,,,,['4bf58dd8d48988d151941735'],['Dining and Drinking > Restaurant > Mexican Restaurant > Taco Restaurant'],b'\x00\x00\x00\x00\x01\xc0Y>^\x8e\xad\x06\xc6@6)k<xB\xd5',"{'xmin': -100.97452132126918, 'ymin': 22.161792544708835, 'xmax': -100.97452132126918, 'ymax': 22.161792544708835}",dining and drinking > restaurant > mexican restaurant > taco restaurant,1
5147e708e4b05f676ea34251,Tacos La Cuchilla,20.655263,-103.299774,,,,,,,,MX,2013-03-19,2021-08-15,,,,,,,,['4bf58dd8d48988d151941735'],['Dining and Drinking > Restaurant > Mexican Restaurant > Taco Restaurant'],b'\x00\x00\x00\x00\x01\xc0Y\xd3/\x7fI\x8c;@4\xa7\xbfP\xe3Gc',"{'xmin': -103.299774, 'ymin': 20.655263, 'xmax': -103.299774, 'ymax': 20.655263}",dining and drinking > restaurant > mexican restaurant > taco restaurant,1
50816b8be4b0bf87bfc8f61b,Tacos El Chino,20.536242258438687,-100.79049406222127,,,,,,,,MX,2012-10-19,2021-08-14,,,,,,,,['4bf58dd8d48988d151941735'],['Dining and Drinking > Restaurant > Mexican Restaurant > Taco Restaurant'],"b'\x00\x00\x00\x00\x01\xc0Y2\x97th;\x0b@4\x89G,2\xba3'","{'xmin': -100.79049406222127, 'ymin': 20.536242258438687, 'xmax': -100.79049406222127, 'ymax': 20.536242258438687}",dining and drinking > restaurant > mexican restaurant > taco restaurant,1
510aec73e4b0809a72bdba10,Tortas Ahogadas y tacos Gady,20.71203243560353,-103.30620084330516,,Guadalajara,Jalisco,,,,,MX,2013-01-31,2021-08-16,,,,,,,,['4bf58dd8d48988d151941735'],['Dining and Drinking > Restaurant > Mexican Restaurant > Taco Restaurant'],b'\x00\x00\x00\x00\x01\xc0Y\xd3\x98\xcbl\x006@4\xb6G\xc1\xf8\x9b\xbf',"{'xmin': -103.30620084330516, 'ymin': 20.71203243560353, 'xmax': -103.30620084330516, 'ymax': 20.71203243560353}",dining and drinking > restaurant > mexican restaurant > taco restaurant,1
63ab2de5b37abe7074facd46,Tacos El Tajo,21.074829,-101.601867,,León,Guanajuato,37545,,,,MX,2022-12-27,2023-09-13,,,,,,,,"['4bf58dd8d48988d151941735' '4bf58dd8d48988d1c1941735'
 '56aa371be4b08b9a8d57350b']","['Dining and Drinking > Restaurant > Mexican Restaurant > Taco Restaurant'
 'Dining and Drinking > Restaurant > Mexican Restaurant'
 'Dining and Drinking > Food Stand']","b""\x00\x00\x00\x00\x01\xc0Yf\x84\xfd*b\xaa@5\x13'\xfeK\xca\xda""","{'xmin': -101.601867, 'ymin': 21.074829, 'xmax': -101.601867, 'ymax': 21.074829}","dining and drinking > restaurant > mexican restaurant > taco restaurant, dining and drinking > restaurant > mexican restaurant, dining and drinking > food stand",1
5160821fe4b024efa838ddb2,La cueva del jaguar,19.68977355957031,-101.18716430664062,Avenida Solidaridad #520,Morelia,Michoacán,,,,,MX,2013-04-06,2020-11-22,,,,,,,,['4bf58dd8d48988d151941735'],['Dining and Drinking > Restaurant > Mexican Restaurant > Taco Restaurant'],b'\x00\x00\x00\x00\x01\xc0YK\xfa\x80\x00\x00\x00@3\xb0\x94\xff\xff\xff\xff',"{'xmin': -101.18716430664062, 'ymin': 19.68977355957031, 'xmax': -101.18716430664062, 'ymax': 19.68977355957031}",dining and drinking > restaurant > mexican restaurant > taco restaurant,1
4baf265ff964a520c7ed3be3,Tacos Checo,22.149380221317475,-101.0044489403843,Vista Hermosa,San Luis Potosi,San Luis Potosi,,,,,MX,2010-03-28,2020-11-25,,,,,,,,['4bf58dd8d48988d151941735' '4bf58dd8d48988d1cb941735'],"['Dining and Drinking > Restaurant > Mexican Restaurant > Taco Restaurant'
 'Dining and Drinking > Food Truck']",b'\x00\x00\x00\x00\x01\xc0Y@H\xe45\\\xf4@6&=\xc8=:Q',"{'xmin': -101.0044489403843, 'ymin': 22.149380221317475, 'xmax': -101.0044489403843, 'ymax': 22.149380221317475}","dining and drinking > restaurant > mexican restaurant > taco restaurant, dining and drinking > food truck",1
4d0ce95980105481ad731b96,Tacos Yayo,19.2757516,-103.73184433333333,Rafael Carrillo Alcaraz 151,Ciudad de Villa de Álvarez,Colima,,,,,MX,2010-12-18,2023-12-20,,33 1231 1880,,,,,,['4bf58dd8d48988d151941735'],['Dining and Drinking > Restaurant > Mexican Restaurant > Taco Restaurant'],"b""\x00\x00\x00\x00\x01\xc0Y\xee\xd6\x89\x9d[~@3F\x97\xa8'\xd1\xd6""","{'xmin': -103.73184433333333, 'ymin': 19.2757516, 'xmax': -103.73184433333333, 'ymax': 19.2757516}",dining and drinking > restaurant > mexican restaurant > taco restaurant,1
531be18d498ea3dcb82112cd,El Toro taqueria,20.8244,-102.764,J luis Velasco,Tepatitlan,Jalisco,47600,,,,MX,2014-03-09,2020-11-24,,,,,,,,['4bf58dd8d48988d151941735'],['Dining and Drinking > Restaurant > Mexican Restaurant > Taco Restaurant'],b'\x00\x00\x00\x00\x01\xc0Y\xb0\xe5`A\x897@4\xd3\x0b\xe0\xde\xd2\x89',"{'xmin': -102.764, 'ymin': 20.8244, 'xmax': -102.764, 'ymax': 20.8244}",dining and drinking > restaurant > mexican restaurant > taco restaurant,1
51c3b468498e33ea1a83d591,Cenaduria En La Estacion,20.419238,-101.71445,,,,,,,,MX,2013-06-21,2020-11-22,,,,,,,,['4bf58dd8d48988d151941735'],['Dining and Drinking > Restaurant > Mexican Restaurant > Taco Restaurant'],b'\x00\x00\x00\x00\x01\xc0Ym\xb9\x8c~($@4kS.{=\x8e',"{'xmin': -101.71445, 'ymin': 20.419238, 'xmax': -101.71445, 'ymax': 20.419238}",dining and drinking > restaurant > mexican restaurant > taco restaurant,1
4c01f89698f60f4795eccca4,Los Mixes,21.897252799040384,-102.30514075482522,Av. Convención de 1914 Nte. #1909,Aguascalientes,AGS,,,,,MX,2010-05-30,2020-11-25,,,,,,,,['4bf58dd8d48988d151941735' '4bf58dd8d48988d1c1941735'],"['Dining and Drinking > Restaurant > Mexican Restaurant > Taco Restaurant'
 'Dining and Drinking > Restaurant > Mexican Restaurant']",b'\x00\x00\x00\x00\x01\xc0Y\x93\x87m\x16\xa9\xab@5\xe5\xb2\\\x04\x1fw',"{'xmin': -102.30514075482522, 'ymin': 21.897252799040384, 'xmax': -102.30514075482522, 'ymax': 21.897252799040384}","dining and drinking > restaurant > mexican restaurant > taco restaurant, dining and drinking > restaurant > mexican restaurant",1
4cd7562c886cb60cc7d08e89,Tacos Daniel,20.737149515574174,-103.41092543089337,Secoyas 1190,Zapopan,JAL,,,,,MX,2010-11-08,2020-11-25,,,,,,,,['4bf58dd8d48988d151941735' '4bf58dd8d48988d1cb941735'],"['Dining and Drinking > Restaurant > Mexican Restaurant > Taco Restaurant'
 'Dining and Drinking > Food Truck']",b'\x00\x00\x00\x00\x01\xc0Y\xdaL\x9a-\xb2\x08@4\xbc\xb5\xd4\xa5\xa7@',"{'xmin': -103.41092543089337, 'ymin': 20.737149515574174, 'xmax': -103.41092543089337, 'ymax': 20.737149515574174}","dining and drinking > restaurant > mexican restaurant > taco restaurant, dining and drinking > food truck",1
4f148801e4b0804e8d73f15a,Tacos Semis Islas,20.713460099255602,-103.41002007470618,,,,,,,,MX,2012-01-16,2021-08-12,,,,,,,,['4bf58dd8d48988d151941735'],['Dining and Drinking > Restaurant > Mexican Restaurant > Taco Restaurant'],b'\x00\x00\x00\x00\x01\xc0Y\xda=\xc4\xd6\xe4B@4\xb6\xa5R1M\xc1',"{'xmin': -103.41002007470618, 'ymin': 20.713460099255602, 'xmax': -103.41002007470618, 'ymax': 20.713460099255602}",dining and drinking > restaurant > mexican restaurant > taco restaurant,1
4f8262a1e4b0d9965ba4ad73,Taquería Timo,19.747548365072408,-103.76616761217608,,"San Gabriel, JAL",,,,,,MX,2012-04-09,2020-11-23,,,,,,,,['4bf58dd8d48988d151941735'],['Dining and Drinking > Restaurant > Mexican Restaurant > Taco Restaurant'],b'\x00\x00\x00\x00\x01\xc0Y\xf1\x08\xe3\xe1c>@3\xbf_Td*\r',"{'xmin': -103.76616761217608, 'ymin': 19.747548365072408, 'xmax': -103.76616761217608, 'ymax': 19.747548365072408}",dining and drinking > restaurant > mexican restaurant > taco restaurant,1
4e00205b1f6eda978b59f204,Tacos El Chuy,21.9245451151726,-102.31056375807776,Luis Donaldo Colosio 244,Aguascalientes,AGS,,,,,MX,2011-06-21,2020-11-30,,,,,,,,['4bf58dd8d48988d151941735' '4bf58dd8d48988d1c1941735'],"['Dining and Drinking > Restaurant > Mexican Restaurant > Taco Restaurant'
 'Dining and Drinking > Restaurant > Mexican Restaurant']",b'\x00\x00\x00\x00\x01\xc0Y\x93\xe0F\xd0\x11\x14@5\xec\xae\xfd\x19W\xc6',"{'xmin': -102.31056375807776, 'ymin': 21.9245451151726, 'xmax': -102.31056375807776, 'ymax': 21.9245451151726}","dining and drinking > restaurant > mexican restaurant > taco restaurant, dining and drinking > restaurant > mexican restaurant",1
62f523bcd52e4b123008e00b,Tacos Don Sebas Sucursal La Luz,21.106625,-101.58087,Avenida La Luz,León,Guanajuato,37295,,,,MX,2022-08-11,2022-08-11,,,,,,,,['4bf58dd8d48988d151941735'],['Dining and Drinking > Restaurant > Mexican Restaurant > Taco Restaurant'],"b'\x00\x00\x00\x00\x01\xc0Ye,\xf9]N\x90@5\x1bK\xc6\xa7\xef\x9e'","{'xmin': -101.58087, 'ymin': 21.106625, 'xmax': -101.58087, 'ymax': 21.106625}",dining and drinking > restaurant > mexican restaurant > taco restaurant,1
4f9d7724e4b04b5a693f2e78,Los Tres Gracias,21.521535767101863,-104.90527930834489,"Flores Magón, Infonavit El Mirador, 63038 Tepic, Nayarit",Tepic,Nayarit,,,,,MX,2012-04-29,2020-11-24,,,,,,,,['4bf58dd8d48988d151941735'],['Dining and Drinking > Restaurant > Mexican Restaurant > Taco Restaurant'],b'\x00\x00\x00\x00\x01\xc0Z9\xf0\x18\x9f\xc5\x8e@5\x85\x83^7e\x93',"{'xmin': -104.90527930834489, 'ymin': 21.521535767101863, 'xmax': -104.90527930834489, 'ymax': 21.521535767101863}",dining and drinking > restaurant > mexican restaurant > taco restaurant,1
5327795e498ec6f2026f3074,Quintin Tacos Al Vapor,21.121440887451172,-101.67982482910156,,,,,,,,MX,2014-03-17,2021-08-12,,,,,,,,['4bf58dd8d48988d151941735'],['Dining and Drinking > Restaurant > Mexican Restaurant > Taco Restaurant'],b'\x00\x00\x00\x00\x01\xc0Yk\x82@\x00\x00\x00@5\x1f\x16\xc0\x00\x00\x00',"{'xmin': -101.67982482910156, 'ymin': 21.121440887451172, 'xmax': -101.67982482910156, 'ymax': 21.121440887451172}",dining and drinking > restaurant > mexican restaurant > taco restaurant,1
58b454a1117420784051f9d9,Tripitas&Grill Aviacion,20.752246,-103.442762,,,,,,,,MX,2017-02-27,2021-08-11,,,,,,,,['4bf58dd8d48988d151941735'],['Dining and Drinking > Restaurant > Mexican Restaurant > Taco Restaurant'],b'\x00\x00\x00\x00\x01\xc0Y\xdcV6mzW@4\xc0\x931\xa0\x8b\xfc',"{'xmin': -103.442762, 'ymin': 20.752246, 'xmax': -103.442762, 'ymax': 20.752246}",dining and drinking > restaurant > mexican restaurant > taco restaurant,1
512e579ae4b0b491bd2479e5,"Birria ""El Carajo""",20.721873170429024,-103.39156942429946,,Zapopan,Jalisco,45150,,,,MX,2013-02-27,2020-11-30,,,,,,,,['4bf58dd8d48988d151941735'],['Dining and Drinking > Restaurant > Mexican Restaurant > Taco Restaurant'],b'\x00\x00\x00\x00\x01\xc0Y\xd9\x0fy3\xde\xb4@4\xb8\xcc\xae\x1a\xda=',"{'xmin': -103.39156942429946, 'ymin': 20.721873170429024, 'xmax': -103.39156942429946, 'ymax': 20.721873170429024}",dining and drinking > restaurant > mexican restaurant > taco restaurant,1
51900879498e36dff2192925,Tacos De Cabeza Roma,19.230488,-103.694046,Mérida,México,D.F.,,,,,MX,2013-05-12,2020-11-30,,,,,,,,['4bf58dd8d48988d151941735'],['Dining and Drinking > Restaurant > Mexican Restaurant > Taco Restaurant'],b'\x00\x00\x00\x00\x01\xc0Y\xeck?\xe9\xfa\xdb@3;\x01B\xf6\x1e\xd6',"{'xmin': -103.694046, 'ymin': 19.230488, 'xmax': -103.694046, 'ymax': 19.230488}",dining and drinking > restaurant > mexican restaurant > taco restaurant,1
58177df138fa6cd462f31c98,Taqueria Las Chulas,21.891663,-102.29278,,Aguascalientes,Aguascalientes,20050,,,,MX,2016-10-31,2020-11-24,,,,,,,,['4bf58dd8d48988d151941735'],['Dining and Drinking > Restaurant > Mexican Restaurant > Taco Restaurant'],b'\x00\x00\x00\x00\x01\xc0Y\x92\xbc\xe8S;\x10@5\xe4D\x06\xc0\r\xa2',"{'xmin': -102.29278, 'ymin': 21.891663, 'xmax': -102.29278, 'ymax': 21.891663}",dining and drinking > restaurant > mexican restaurant > taco restaurant,1
4f7d074ce4b0a8c212b2a134,Tacos Lalo's,20.624276041072786,-103.42143033954787,,,,,,,,MX,2012-04-05,2021-08-13,,,,,,,,['4bf58dd8d48988d151941735'],['Dining and Drinking > Restaurant > Mexican Restaurant > Taco Restaurant'],b'\x00\x00\x00\x00\x01\xc0Y\xda\xf8\xb6\xf5y\x9e@4\x9f\xd0\x8d\xfc\x15\x7f',"{'xmin': -103.42143033954787, 'ymin': 20.624276041072786, 'xmax': -103.42143033954787, 'ymax': 20.624276041072786}",dining and drinking > restaurant > mexican restaurant > taco restaurant,1
53d3318a498ecb061bdad1df,Taqueria La Papa Y El Nopal,21.181901931762695,-101.666015625,Jardin De Los Tulipanes #207 Colonia Jardines De Echeveste,Leon De Los Aldama,Guanajuato,37100,,,,MX,2014-07-26,2020-11-25,,,,,,,,['4bf58dd8d48988d151941735'],['Dining and Drinking > Restaurant > Mexican Restaurant > Taco Restaurant'],b'\x00\x00\x00\x00\x01\xc0Yj\xa0\x00\x00\x00\x00@5.\x91 \x00\x00\x00',"{'xmin': -101.666015625, 'ymin': 21.181901931762695, 'xmax': -101.666015625, 'ymax': 21.181901931762695}",dining and drinking > restaurant > mexican restaurant > taco restaurant,1
55f504d9498e28b2e66986b9,"Taqueria ""El Canal""",21.16324554198192,-100.92342123185911,,,,,,,,MX,2015-09-13,2021-08-12,,,,,,,,['4bf58dd8d48988d151941735'],['Dining and Drinking > Restaurant > Mexican Restaurant > Taco Restaurant'],b'\x00\x00\x00\x00\x01\xc0Y;\x19U]\xd1\x15@5)\xcau\xb8\x07\xb7',"{'xmin': -100.92342123185911, 'ymin': 21.16324554198192, 'xmax': -100.92342123185911, 'ymax': 21.16324554198192}",dining and drinking > restaurant > mexican restaurant > taco restaurant,1
5e4f000587d449000861a2f4,Tizne,21.878553,-102.296761,Rayón 120,Aguascalientes,AGS,20000,,,,MX,2020-02-20,2020-11-23,,55 8188 9977,,,,,,['4bf58dd8d48988d151941735'],['Dining and Drinking > Restaurant > Mexican Restaurant > Taco Restaurant'],b'\x00\x00\x00\x00\x01\xc0Y\x92\xfe!\xd9n\x9c@5\xe0\xe8\xd9r\xcd}',"{'xmin': -102.296761, 'ymin': 21.878553, 'xmax': -102.296761, 'ymax': 21.878553}",dining and drinking > restaurant > mexican restaurant > taco restaurant,1
59224f5a97461712d4ec82f3,Tacos Las Gueras,21.094805,-101.63836,,León,Guanajuato,,,,,MX,2017-05-22,2020-11-22,,,,,,,,['4bf58dd8d48988d151941735'],['Dining and Drinking > Restaurant > Mexican Restaurant > Taco Restaurant'],b'\x00\x00\x00\x00\x01\xc0Yh\xda\xe3\xe6\xc4\xc6@5\x18E#\xf6\x7fN',"{'xmin': -101.63836, 'ymin': 21.094805, 'xmax': -101.63836, 'ymax': 21.094805}",dining and drinking > restaurant > mexican restaurant > taco restaurant,1
54a619e3498eb887be97edb2,Los Mixes,21.897270349733926,-102.30500287373155,Av. Convención de 1914 Nte.,"Aguascalientes, AGS",AGS,,,,,MX,2015-01-02,2020-11-23,,,,,,,,['4bf58dd8d48988d151941735'],['Dining and Drinking > Restaurant > Mexican Restaurant > Taco Restaurant'],b'\x00\x00\x00\x00\x01\xc0Y\x93\x85*\xc5\xf7<@5\xe5\xb3\x82w\xc7\x17',"{'xmin': -102.30500287373155, 'ymin': 21.897270349733926, 'xmax': -102.30500287373155, 'ymax': 21.897270349733926}",dining and drinking > restaurant > mexican restaurant > taco restaurant,1
55cab140498e7ad267b53fe5,TACOS DE SONORA,20.698767423657262,-103.3336731847811,Circ. División del Norte 171,Guadalajara,Jalisco,44290,,,,MX,2015-08-12,2023-12-20,,33 3637 6408,,,,,,['4bf58dd8d48988d151941735'],['Dining and Drinking > Restaurant > Mexican Restaurant > Taco Restaurant'],b'\x00\x00\x00\x00\x01\xc0Y\xd5Z\xe6\xc6\x0b\xf8@4\xb2\xe2l\x00\x1e=',"{'xmin': -103.3336731847811, 'ymin': 20.698767423657262, 'xmax': -103.3336731847811, 'ymax': 20.698767423657262}",dining and drinking > restaurant > mexican restaurant > taco restaurant,1
52ec7e5f11d261928738aad9,Pesca taco,22.1618,-101.0,Prolongación Muñoz 300,San Luis potosi,Slp,78000,,,,MX,2014-02-01,2020-11-23,,,,,,,,['4bf58dd8d48988d151941735'],['Dining and Drinking > Restaurant > Mexican Restaurant > Taco Restaurant'],b'\x00\x00\x00\x00\x01\xc0Y@\x00\x00\x00\x00\x00@6)k\xb9\x8c~(',"{'xmin': -101.0, 'ymin': 22.1618, 'xmax': -101.0, 'ymax': 22.1618}",dining and drinking > restaurant > mexican restaurant > taco restaurant,1
51bf3ec0498e9a4f4f0c25db,Tacos El Camarada,21.165288582760752,-101.67217138912636,,,,,,,,MX,2013-06-17,2021-08-11,,,,,,,,['4bf58dd8d48988d151941735'],['Dining and Drinking > Restaurant > Mexican Restaurant > Taco Restaurant'],b'\x00\x00\x00\x00\x01\xc0Yk\x04\xdb%f\xb2@5*PZA\\\x10',"{'xmin': -101.67217138912636, 'ymin': 21.165288582760752, 'xmax': -101.67217138912636, 'ymax': 21.165288582760752}",dining and drinking > restaurant > mexican restaurant > taco restaurant,1
4eb6b9a4be7bfc284ad84453,Quesadillas Doña Toña,21.13437735797661,-101.6617629661256,Nuevo Hamburgo esq. Santiago,León de Los Aldama,Guanajuato,,,,,MX,2011-11-06,2020-11-25,,,,,,,,['4bf58dd8d48988d151941735'],['Dining and Drinking > Restaurant > Mexican Restaurant > Taco Restaurant'],"b'\x00\x00\x00\x00\x01\xc0YjZS\x0eM\xa8@5""f\x8d\xf5\xd5\x1a'","{'xmin': -101.6617629661256, 'ymin': 21.13437735797661, 'xmax': -101.6617629661256, 'ymax': 21.13437735797661}",dining and drinking > restaurant > mexican restaurant > taco restaurant,1
6681aa950baa0e23dc4668de,Laka Laka,31.311323,-113.540674,,Puerto Peñasco,Son.,83550,,,,MX,2024-06-30,2024-06-30,,,,,,,,['4bf58dd8d48988d151941735' '4bf58dd8d48988d1c1941735'],"['Dining and Drinking > Restaurant > Mexican Restaurant > Taco Restaurant'
 'Dining and Drinking > Restaurant > Mexican Restaurant']",b'\x00\x00\x00\x00\x01\xc0\\b\x9ag\x1e\xf3\n@?O\xb2\xdd7~\x1c',"{'xmin': -113.540674, 'ymin': 31.311323, 'xmax': -113.540674, 'ymax': 31.311323}","dining and drinking > restaurant > mexican restaurant > taco restaurant, dining and drinking > restaurant > mexican restaurant",1
4d409bf9cb84b60c92a587ab,Tacos Don Beto de Blade,20.668841,-103.36259,Argentina 588,Guadalajara,Jalisco,,,,,MX,2011-01-26,2021-08-14,,,,,,,,['4bf58dd8d48988d151941735'],['Dining and Drinking > Restaurant > Mexican Restaurant > Taco Restaurant'],b'\x00\x00\x00\x00\x01\xc0Y\xd74\xac\xaf\xf6\xd3@4\xab9)\xed9T',"{'xmin': -103.36259, 'ymin': 20.668841, 'xmax': -103.36259, 'ymax': 20.668841}",dining and drinking > restaurant > mexican restaurant > taco restaurant,1
64e96573e118b1196d6a9c08,Tacos Elmo,20.523159,-100.819661,,Celaya,Gto.,38000,,,,MX,2023-08-26,2023-08-26,,,,,,,,['4bf58dd8d48988d151941735'],['Dining and Drinking > Restaurant > Mexican Restaurant > Taco Restaurant'],b'\x00\x00\x00\x00\x01\xc0Y4uSi3\xa0@4\x85\xed\xbf\x8b\x9b\xaa',"{'xmin': -100.819661, 'ymin': 20.523159, 'xmax': -100.819661, 'ymax': 20.523159}",dining and drinking > restaurant > mexican restaurant > taco restaurant,1
63fd57b5ea434c149e2a9c4d,Tacos Arabes,20.638123,-103.431147,,Zapopan,JAL,45070,,,,MX,2023-02-28,2023-02-28,,,,,,,,['4bf58dd8d48988d151941735'],['Dining and Drinking > Restaurant > Mexican Restaurant > Taco Restaurant'],b'\x00\x00\x00\x00\x01\xc0Y\xdb\x97\xe9\x961/@4\xa3\\\x07g\xd3N',"{'xmin': -103.431147, 'ymin': 20.638123, 'xmax': -103.431147, 'ymax': 20.638123}",dining and drinking > restaurant > mexican restaurant > taco restaurant,1
62393aad0e8f3a7e3b40531e,Tacos Leo La Oaxaqueña,21.18006,-101.666954,,León,Guanajuato,37100,,,,MX,2022-03-22,2022-03-22,,,,,,,,['4bf58dd8d48988d151941735'],['Dining and Drinking > Restaurant > Mexican Restaurant > Taco Restaurant'],b'\x00\x00\x00\x00\x01\xc0Yj\xaf_\xd4{\xee@5.\x18i\x83QY',"{'xmin': -101.666954, 'ymin': 21.18006, 'xmax': -101.666954, 'ymax': 21.18006}",dining and drinking > restaurant > mexican restaurant > taco restaurant,1
643c39fec5a3b53de7160c76,Los Pistachos,21.500431,-104.911009,Libramiento Esquina Jacarandas,Tepic,NAY,63135,,,,MX,2023-04-16,2023-04-16,,,,,,,,['4bf58dd8d48988d143941735' '4bf58dd8d48988d151941735'],"['Dining and Drinking > Breakfast Spot'
 'Dining and Drinking > Restaurant > Mexican Restaurant > Taco Restaurant']",b'\x00\x00\x00\x00\x01\xc0Z:M\xf8\xb1W&@5\x80\x1c>\xfa\xe7\x92',"{'xmin': -104.911009, 'ymin': 21.500431, 'xmax': -104.911009, 'ymax': 21.500431}","dining and drinking > breakfast spot, dining and drinking > restaurant > mexican restaurant > taco restaurant",1
50482c3ae4b0f1b4ccf98a6b,Taqueria Pepe's,21.963931,-102.341758,,,,,,,,MX,2012-09-06,2021-08-13,,,,,,,,['4bf58dd8d48988d151941735'],['Dining and Drinking > Restaurant > Mexican Restaurant > Taco Restaurant'],b'\x00\x00\x00\x00\x01\xc0Y\x95\xdf\\\xf2I^@5\xf6\xc4.\x98\x99\xbf',"{'xmin': -102.341758, 'ymin': 21.963931, 'xmax': -102.341758, 'ymax': 21.963931}",dining and drinking > restaurant > mexican restaurant > taco restaurant,1
514ea2cee4b022f347cb9980,Taqueria los Arbolitos,20.457876447321762,-100.62827460267917,,,,,,,,MX,2013-03-24,2021-08-11,,,,,,,,['4bf58dd8d48988d151941735'],['Dining and Drinking > Restaurant > Mexican Restaurant > Taco Restaurant'],b'\x00\x00\x00\x00\x01\xc0Y(5\xa6\xad\xda\x86@4u7d\x0e\xdb\x0b',"{'xmin': -100.62827460267917, 'ymin': 20.457876447321762, 'xmax': -100.62827460267917, 'ymax': 20.457876447321762}",dining and drinking > restaurant > mexican restaurant > taco restaurant,1
4bb7afdd314e9521fd88479d,Otto Taco,20.601125002644455,-103.44874095428919,Bugambilias No. 2299,Zapopan,Jalisco,45238,,,,MX,2010-04-03,2020-11-23,,33 3612 5493,http://ottotaco.com,,438895610701.0,,,['4bf58dd8d48988d151941735' '4bf58dd8d48988d1c1941735'],"['Dining and Drinking > Restaurant > Mexican Restaurant > Taco Restaurant'
 'Dining and Drinking > Restaurant > Mexican Restaurant']",b'\x00\x00\x00\x00\x01\xc0Y\xdc\xb8+\xfa\xc3\x11@4\x99\xe3T\x03*u',"{'xmin': -103.44874095428919, 'ymin': 20.601125002644455, 'xmax': -103.44874095428919, 'ymax': 20.601125002644455}","dining and drinking > restaurant > mexican restaurant > taco restaurant, dining and drinking > restaurant > mexican restaurant",1
53320d35498ea7e292c9bf45,Tacos Paza,20.650229541290575,-103.40047019546837,,,,,,,,MX,2014-03-25,2021-08-10,,,,,,,,['4bf58dd8d48988d151941735'],['Dining and Drinking > Restaurant > Mexican Restaurant > Taco Restaurant'],b'\x00\x00\x00\x00\x01\xc0Y\xd9\xa1M\xbe#\xcd@4\xa6uqv\xbcq',"{'xmin': -103.40047019546837, 'ymin': 20.650229541290575, 'xmax': -103.40047019546837, 'ymax': 20.650229541290575}",dining and drinking > restaurant > mexican restaurant > taco restaurant,1
52c85525498e933c1b3a64b6,Tacos Flipper,20.62861731595106,-103.30735005773879,,,,,,,,MX,2014-01-04,2021-08-13,,,,,,,,['4bf58dd8d48988d151941735'],['Dining and Drinking > Restaurant > Mexican Restaurant > Taco Restaurant'],b'\x00\x00\x00\x00\x01\xc0Y\xd3\xab\x9f\x93\x9a[@4\xa0\xed\x10}\xb5\x88',"{'xmin': -103.30735005773879, 'ymin': 20.62861731595106, 'xmax': -103.30735005773879, 'ymax': 20.62861731595106}",dining and drinking > restaurant > mexican restaurant > taco restaurant,1
50ef8e74e4b0f6d24e525a0d,tacos sillo,19.247646874488158,-99.63275667880704,,,,,,,,MX,2013-01-11,2021-08-14,,,,,,,,['4bf58dd8d48988d151941735'],['Dining and Drinking > Restaurant > Mexican Restaurant > Taco Restaurant'],b'\x00\x00\x00\x00\x01\xc0X\xe8\x7f\x15\xdesQ@3?e\xc9\x1a\xe2\x1d',"{'xmin': -99.63275667880704, 'ymin': 19.247646874488158, 'xmax': -99.63275667880704, 'ymax': 19.247646874488158}",dining and drinking > restaurant > mexican restaurant > taco restaurant,1
5ab3137b0457b77e4f96ae84,Rigo's Tacos,18.887587,-96.93556,avenida 15,Córdoba,Veracruz,94590,,,,MX,2018-03-22,2020-11-21,,,,,,,,['4bf58dd8d48988d151941735'],['Dining and Drinking > Restaurant > Mexican Restaurant > Taco Restaurant'],b'\x00\x00\x00\x00\x01\xc0X;\xe07\x0c\xdc\x87@2\xe38\xe6\xd1Z\xd1',"{'xmin': -96.93556, 'ymin': 18.887587, 'xmax': -96.93556, 'ymax': 18.887587}",dining and drinking > restaurant > mexican restaurant > taco restaurant,1
510cae3de4b075af054abfa4,Takeshis,19.321088453065137,-99.22440740916807,,,,,,,,MX,2013-02-02,2021-08-12,,,,,,,,['4bf58dd8d48988d151941735'],['Dining and Drinking > Restaurant > Mexican Restaurant > Taco Restaurant'],b'\x00\x00\x00\x00\x01\xc0X\xce\\\xb0\xe4\xd6\xd8@3R2\xdaU\t\xba',"{'xmin': -99.22440740916807, 'ymin': 19.321088453065137, 'xmax': -99.22440740916807, 'ymax': 19.321088453065137}",dining and drinking > restaurant > mexican restaurant > taco restaurant,1
4f60ed8ee4b0a0bd37e30b2f,Tacos El Yugo,20.370329852218372,-102.76851355592412,,,,,,,,MX,2012-03-14,2021-08-11,,,,,,,,['4bf58dd8d48988d151941735'],['Dining and Drinking > Restaurant > Mexican Restaurant > Taco Restaurant'],b'\x00\x00\x00\x00\x01\xc0Y\xb1/S{N\x83@4^\xcd\xef\xec\x02\xab',"{'xmin': -102.76851355592412, 'ymin': 20.370329852218372, 'xmax': -102.76851355592412, 'ymax': 20.370329852218372}",dining and drinking > restaurant > mexican restaurant > taco restaurant,1
4f38a22fe4b0d3ab52b9910d,"Fonda ""Nati""",20.175108264621624,-102.19094496246304,,,,,,,,MX,2012-02-13,2020-11-30,,,,,,,,['4bf58dd8d48988d151941735'],['Dining and Drinking > Restaurant > Mexican Restaurant > Taco Restaurant'],"b""\x00\x00\x00\x00\x01\xc0Y\x8c8q8GW@4,\xd3\xe5-\xcf'""","{'xmin': -102.19094496246304, 'ymin': 20.175108264621624, 'xmax': -102.19094496246304, 'ymax': 20.175108264621624}",dining and drinking > restaurant > mexican restaurant > taco restaurant,1
52e41671498e9ee6ff7dacdd,"Barbacoa ""El venado""",19.322546854782214,-99.15482319829245,,,,,,,,MX,2014-01-25,2021-08-15,,,,,,,,['4bf58dd8d48988d151941735'],['Dining and Drinking > Restaurant > Mexican Restaurant > Taco Restaurant'],b'\x00\x00\x00\x00\x01\xc0X\xc9\xe8\x9f\x8fU\x01@3R\x92n@\xb7\x9f',"{'xmin': -99.15482319829245, 'ymin': 19.322546854782214, 'xmax': -99.15482319829245, 'ymax': 19.322546854782214}",dining and drinking > restaurant > mexican restaurant > taco restaurant,1
52effa41498eb422c4f38655,TACOMANIA,16.848736,-99.848709,Horacio Nelson,Acapulco,,,,,,MX,2014-02-03,2020-11-24,,,,,,,,['4bf58dd8d48988d151941735'],['Dining and Drinking > Restaurant > Mexican Restaurant > Taco Restaurant'],b'\x00\x00\x00\x00\x01\xc0X\xf6Q?\x8d\xb4\x89@0\xd9F\xc32\xf0\x17',"{'xmin': -99.848709, 'ymin': 16.848736, 'xmax': -99.848709, 'ymax': 16.848736}",dining and drinking > restaurant > mexican restaurant > taco restaurant,1
50843904e4b08a31a9258987,Mixiotes Del Tianguis De Los Domingos,19.304966,-99.249675,Huayatla,México,Distrito Federal,,,,,MX,2012-10-21,2020-11-25,,,,,,,,['4bf58dd8d48988d151941735'],['Dining and Drinking > Restaurant > Mexican Restaurant > Taco Restaurant'],b'\x00\x00\x00\x00\x01\xc0X\xcf\xfa\xac\xd9\xe8>@3N\x12@tdV',"{'xmin': -99.249675, 'ymin': 19.304966, 'xmax': -99.249675, 'ymax': 19.304966}",dining and drinking > restaurant > mexican restaurant > taco restaurant,1
535b3651498e042282b76ef9,Taquería La Lupita,19.685574335426224,-101.14335876033931,,,,,,,,MX,2014-04-26,2021-08-16,,,,,,,,['4bf58dd8d48988d151941735'],['Dining and Drinking > Restaurant > Mexican Restaurant > Taco Restaurant'],"b'\x00\x00\x00\x00\x01\xc0YI,\xca8\xd0(@3\xaf\x81\xcc\xb5\xa1\xf0'","{'xmin': -101.14335876033931, 'ymin': 19.685574335426224, 'xmax': -101.14335876033931, 'ymax': 19.685574335426224}",dining and drinking > restaurant > mexican restaurant > taco restaurant,1
554c0eb0498eb7864c41f0f2,"Tacos ""Yisus""",18.85594498193838,-97.09610089603048,,,,,,,,MX,2015-05-08,2021-08-11,,,,,,,,['4bf58dd8d48988d151941735'],['Dining and Drinking > Restaurant > Mexican Restaurant > Taco Restaurant'],b'\x00\x00\x00\x00\x01\xc0XF&\x84_dM@2\xdb\x1f5\xd8\x99\xc4',"{'xmin': -97.09610089603048, 'ymin': 18.85594498193838, 'xmax': -97.09610089603048, 'ymax': 18.85594498193838}",dining and drinking > restaurant > mexican restaurant > taco restaurant,1
3c2cfeadd8034aa53ca3c4fd,Loncheria Dany,19.723407,-101.231541,Combate Peñuelas 375,Morelia,Michoacán,58147,,,,MX,2014-11-22,2023-12-06,,443 327 0708,,,,,,['4bf58dd8d48988d151941735'],['Dining and Drinking > Restaurant > Mexican Restaurant > Taco Restaurant'],b'\x00\x00\x00\x00\x01\xc0YN\xd1\x91W\xab\xb9@3\xb913~\xb2\x8e',"{'xmin': -101.231541, 'ymin': 19.723407, 'xmax': -101.231541, 'ymax': 19.723407}",dining and drinking > restaurant > mexican restaurant > taco restaurant,1
53228356498e274ef681a4ab,Taquitos Morelos de Acatlipa,18.824689777776754,-99.22979624586019,,,,,,,,MX,2014-03-14,2021-12-29,,,,,,,,['4bf58dd8d48988d151941735'],['Dining and Drinking > Restaurant > Mexican Restaurant > Taco Restaurant'],b'\x00\x00\x00\x00\x01\xc0X\xce\xb4\xfbP-\xa3@2\xd3\x1e\xde\x88\xe5\x8c',"{'xmin': -99.22979624586019, 'ymin': 18.824689777776754, 'xmax': -99.22979624586019, 'ymax': 18.824689777776754}",dining and drinking > restaurant > mexican restaurant > taco restaurant,1
5172e3a6e4b04fc8b99c04e5,Tacos Toño,19.33571434020996,-99.15341186523438,,,,,,,,MX,2013-04-20,2021-08-16,,,,,,,,['4bf58dd8d48988d151941735'],['Dining and Drinking > Restaurant > Mexican Restaurant > Taco Restaurant'],b'\x00\x00\x00\x00\x01\xc0X\xc9\xd1\x80\x00\x00\x00@3U\xf1`\x00\x00\x00',"{'xmin': -99.15341186523438, 'ymin': 19.33571434020996, 'xmax': -99.15341186523438, 'ymax': 19.33571434020996}",dining and drinking > restaurant > mexican restaurant > taco restaurant,1
52d09bfe498e30b3e103e72c,Los Bejucos,19.27742919142864,-99.67475404353755,,,,,,,,MX,2014-01-11,2021-08-15,,,,,,,,['4bf58dd8d48988d151941735'],['Dining and Drinking > Restaurant > Mexican Restaurant > Taco Restaurant'],b'\x00\x00\x00\x00\x01\xc0X\xeb/+\x95u\x9a@3G\x05\x99x$I',"{'xmin': -99.67475404353755, 'ymin': 19.27742919142864, 'xmax': -99.67475404353755, 'ymax': 19.27742919142864}",dining and drinking > restaurant > mexican restaurant > taco restaurant,1
5df5ae4280f3150007c716a6,Chilango Taqueria,19.293151,-99.182148,Corregidora 43,Ciudad de México,CDMX,14267,,,,MX,2019-12-15,2020-11-21,,,,,,chilangotaqueria,,['4bf58dd8d48988d151941735'],['Dining and Drinking > Restaurant > Mexican Restaurant > Taco Restaurant'],b'\x00\x00\x00\x00\x01\xc0X\xcb\xa8P\x15\xc2\t@3K\x0b\xf1\xa5\xca*',"{'xmin': -99.182148, 'ymin': 19.293151, 'xmax': -99.182148, 'ymax': 19.293151}",dining and drinking > restaurant > mexican restaurant > taco restaurant,1
5019e9bae4b093d4b01e532a,Pipiritacos,18.898943355157986,-96.99959413505368,Avenida 3  #109,Fortín,Veracruz,94470,,,,MX,2012-08-02,2020-11-30,,271 713 1142,,,,,,['4bf58dd8d48988d151941735' '4bf58dd8d48988d1c1941735'],"['Dining and Drinking > Restaurant > Mexican Restaurant > Taco Restaurant'
 'Dining and Drinking > Restaurant > Mexican Restaurant']",b'\x00\x00\x00\x00\x01\xc0X?\xf9Y\xad\xd5\x0e@2\xe6!&\xd7\\-',"{'xmin': -96.99959413505368, 'ymin': 18.898943355157986, 'xmax': -96.99959413505368, 'ymax': 18.898943355157986}","dining and drinking > restaurant > mexican restaurant > taco restaurant, dining and drinking > restaurant > mexican restaurant",1
56339d51498e569165815809,Taqueria El Cristo,19.331226754101387,-99.1760538657368,,,,,,,,MX,2015-10-30,2021-08-12,,,,,,,,['4bf58dd8d48988d151941735'],['Dining and Drinking > Restaurant > Mexican Restaurant > Taco Restaurant'],"b'\x00\x00\x00\x00\x01\xc0X\xcbDwn\xeb""@3T\xcbF\xccl\xfa'","{'xmin': -99.1760538657368, 'ymin': 19.331226754101387, 'xmax': -99.1760538657368, 'ymax': 19.331226754101387}",dining and drinking > restaurant > mexican restaurant > taco restaurant,1
51b2b654498ebe9d3a9a6a9a,Tacos El Cubano,19.191610415333496,-96.15197896096109,Circunvalación,Veracruz,Veracruz,91700,,,,MX,2013-06-08,2020-11-26,,,,,,,,['4bf58dd8d48988d151941735'],['Dining and Drinking > Restaurant > Mexican Restaurant > Taco Restaurant'],b'\x00\x00\x00\x00\x01\xc0X\t\xba\x05\xf6\xc0\x82@31\raSn+',"{'xmin': -96.15197896096109, 'ymin': 19.191610415333496, 'xmax': -96.15197896096109, 'ymax': 19.191610415333496}",dining and drinking > restaurant > mexican restaurant > taco restaurant,1
5122e95ee4b00987dd0d0ad2,Taqueria El Güero,19.30915165784767,-99.24233912849895,"Puente Del Rosal, Magdalena Contreras",,df,,,,,MX,2013-02-19,2021-08-14,,,,,,,,['4bf58dd8d48988d151941735'],['Dining and Drinking > Restaurant > Mexican Restaurant > Taco Restaurant'],b'\x00\x00\x00\x00\x01\xc0X\xcf\x82{\xf9\xdcm@3O$\x90#\xf5\xbe',"{'xmin': -99.24233912849895, 'ymin': 19.30915165784767, 'xmax': -99.24233912849895, 'ymax': 19.30915165784767}",dining and drinking > restaurant > mexican restaurant > taco restaurant,1
4d4b0e7633cd59416bd7a250,Tacos de Rambo en Catemaco,18.419394439573402,-95.1100105047226,María Boettiger,Catemaco,Veracruz,95870,,,,MX,2011-02-03,2020-11-24,,,,,,,,['4bf58dd8d48988d151941735'],['Dining and Drinking > Restaurant > Mexican Restaurant > Taco Restaurant'],b'\x00\x00\x00\x00\x01\xc0W\xc7\ni\x80\x00\x00@2k]o\x1a\x17\x8e',"{'xmin': -95.1100105047226, 'ymin': 18.419394439573402, 'xmax': -95.1100105047226, 'ymax': 18.419394439573402}",dining and drinking > restaurant > mexican restaurant > taco restaurant,1
587e5583409f5656d21e5635,"Birria ""Mayrita""",19.647533,-102.048091,,,,,,,,MX,2017-01-17,2021-08-17,,,,,,,,['4bf58dd8d48988d151941735'],['Dining and Drinking > Restaurant > Mexican Restaurant > Taco Restaurant'],b'\x00\x00\x00\x00\x01\xc0Y\x83\x13\xecF\x0e\xd8@3\xa5\xc4\xb9\x02\x14\xad',"{'xmin': -102.048091, 'ymin': 19.647533, 'xmax': -102.048091, 'ymax': 19.647533}",dining and drinking > restaurant > mexican restaurant > taco restaurant,1
501fe7c4e4b0f873f92fedda,Pozoleria Nichin'm,16.091502622662027,-93.75217082608219,Av. Hidalgo,Tonala,Chiapas,30500,,,,MX,2012-08-06,2020-11-30,,,,,,,,['4bf58dd8d48988d151941735'],['Dining and Drinking > Restaurant > Mexican Restaurant > Taco Restaurant'],b'\x00\x00\x00\x00\x01\xc0Wp#\x91\x1a\xc1\xd0@0\x17l\xb7C\xd4\xe6',"{'xmin': -93.75217082608219, 'ymin': 16.091502622662027, 'xmax': -93.75217082608219, 'ymax': 16.091502622662027}",dining and drinking > restaurant > mexican restaurant > taco restaurant,1
5286d8de11d222c359a20efc,Los Vikingos,19.318101710856276,-99.08847516640094,,,,,,,,MX,2013-11-16,2021-08-15,,,,,,,,['4bf58dd8d48988d151941735'],['Dining and Drinking > Restaurant > Mexican Restaurant > Taco Restaurant'],b'\x00\x00\x00\x00\x01\xc0X\xc5\xa9\x93\xbe\x8c\xd0@3Qo\x1d\x1c\xed\xea',"{'xmin': -99.08847516640094, 'ymin': 19.318101710856276, 'xmax': -99.08847516640094, 'ymax': 19.318101710856276}",dining and drinking > restaurant > mexican restaurant > taco restaurant,1
5316d2ef498ecc2798928694,taqueria EL SAZON,16.85691416582051,-99.86685544343047,,,,,,,,MX,2014-03-05,2021-08-16,,,,,,,,['4bf58dd8d48988d151941735'],['Dining and Drinking > Restaurant > Mexican Restaurant > Taco Restaurant'],b'\x00\x00\x00\x00\x01\xc0X\xf7z\x8f@\xf9.@0\xdb^\xba\r\xad\x9f',"{'xmin': -99.86685544343047, 'ymin': 16.85691416582051, 'xmax': -99.86685544343047, 'ymax': 16.85691416582051}",dining and drinking > restaurant > mexican restaurant > taco restaurant,1
5084b785e4b059457c799d17,Viva Zapata,18.896029,-96.94417,Calle 18,Córdoba,Veracruz,,,,,MX,2012-10-22,2020-11-30,,,,,,,,['4bf58dd8d48988d151941735'],['Dining and Drinking > Restaurant > Mexican Restaurant > Taco Restaurant'],b'\x00\x00\x00\x00\x01\xc0X<mH\x01\xf7Q@2\xe5b(\x13D\x80',"{'xmin': -96.94417, 'ymin': 18.896029, 'xmax': -96.94417, 'ymax': 18.896029}",dining and drinking > restaurant > mexican restaurant > taco restaurant,1
58974816b792071c9efb84c7,Antojitos Mexicanos Rosa,18.788444,-99.203996,,,,,,,,MX,2017-02-05,2020-11-25,,,,,,,,['4bf58dd8d48988d151941735'],['Dining and Drinking > Restaurant > Mexican Restaurant > Taco Restaurant'],b'\x00\x00\x00\x00\x01\xc0X\xcd\x0eE= \xf3@2\xc9\xd7wJ\xba8',"{'xmin': -99.203996, 'ymin': 18.788444, 'xmax': -99.203996, 'ymax': 18.788444}",dining and drinking > restaurant > mexican restaurant > taco restaurant,1
4f067271ca4854225c304a50,Taqueria Al Pastor,18.83222061428354,-96.7974847243965,Avenida 1,Yanga,Veracruz,94930,,,,MX,2012-01-06,2020-11-23,,,,,,,,['4bf58dd8d48988d151941735'],['Dining and Drinking > Restaurant > Mexican Restaurant > Taco Restaurant'],b'\x00\x00\x00\x00\x01\xc0X3\t\xfd^\x95\xec@2\xd5\x0ci\x01g\xa3',"{'xmin': -96.7974847243965, 'ymin': 18.83222061428354, 'xmax': -96.7974847243965, 'ymax': 18.83222061428354}",dining and drinking > restaurant > mexican restaurant > taco restaurant,1
4cf993e60df3236ac391eea9,Los Pavitos,19.319038614985107,-99.13066914115028,Miramontes,Ciudad de México,Distrito Federal,04800,,,,MX,2010-12-04,2020-11-24,2016-11-03,,,,,,,['4bf58dd8d48988d1c5941735' '4bf58dd8d48988d151941735'],"['Dining and Drinking > Restaurant > Sandwich Spot'
 'Dining and Drinking > Restaurant > Mexican Restaurant > Taco Restaurant']",b'\x00\x00\x00\x00\x01\xc0X\xc8\\\xe2\x19\xf5\x8f@3Q\xac\x83\xc1\x85\xad',"{'xmin': -99.13066914115028, 'ymin': 19.319038614985107, 'xmax': -99.13066914115028, 'ymax': 19.319038614985107}","dining and drinking > restaurant > sandwich spot, dining and drinking > restaurant > mexican restaurant > taco restaurant",1
5681fb1f498e791caf1a0012,Taquería Doña Braulia,18.431507,-97.404077,,,,,,,,MX,2015-12-29,2021-08-11,,,,,,,,['4bf58dd8d48988d151941735'],['Dining and Drinking > Restaurant > Mexican Restaurant > Taco Restaurant'],b'\x00\x00\x00\x00\x01\xc0XY\xdce\xc7\x046@2nw>$\xfe\xbd',"{'xmin': -97.404077, 'ymin': 18.431507, 'xmax': -97.404077, 'ymax': 18.431507}",dining and drinking > restaurant > mexican restaurant > taco restaurant,1
5147dab7e4b0e685cd6f7d71,Tacos Soto,18.615126967718254,-95.65977363947127,San miguelito,Tlacotalpan,Veracruz-Llave,,,,,MX,2013-03-11,2021-12-19,,,,,,,,['4bf58dd8d48988d151941735'],['Dining and Drinking > Restaurant > Mexican Restaurant > Taco Restaurant'],b'\x00\x00\x00\x00\x01\xc0W\xea9\xbb7\x12\xb0@2\x9dx\xf6\x01<\xd0',"{'xmin': -95.65977363947127, 'ymin': 18.615126967718254, 'xmax': -95.65977363947127, 'ymax': 18.615126967718254}",dining and drinking > restaurant > mexican restaurant > taco restaurant,1
55aa8158498ef4aa70d30d96,Tacos Doña Flor,17.64227868506396,-101.55477166911045,,,,,,,,MX,2015-07-18,2020-11-25,,,,,,,,['4bf58dd8d48988d151941735'],['Dining and Drinking > Restaurant > Mexican Restaurant > Taco Restaurant'],b'\x00\x00\x00\x00\x01\xc0Yc\x81a\x07\xe4\xe9@1\xa4l`;D\x81',"{'xmin': -101.55477166911045, 'ymin': 17.64227868506396, 'xmax': -101.55477166911045, 'ymax': 17.64227868506396}",dining and drinking > restaurant > mexican restaurant > taco restaurant,1
4c97ba3ffcbfa1431a6f9801,Cabaña la Herradura,19.295555713889776,-99.39990770145386,,,,,,,,MX,2010-09-20,2020-11-26,,,,,,,,['4bf58dd8d48988d151941735'],['Dining and Drinking > Restaurant > Mexican Restaurant > Taco Restaurant'],b'\x00\x00\x00\x00\x01\xc0X\xd9\x98\x16x\xcal@3K\xa9\x8a\rMr',"{'xmin': -99.39990770145386, 'ymin': 19.295555713889776, 'xmax': -99.39990770145386, 'ymax': 19.295555713889776}",dining and drinking > restaurant > mexican restaurant > taco restaurant,1
5df6b72a8ed5990008530cbf,La Pibil,19.309818,-99.246123,Avenida San Jerónimo,Ciudad de México,CDMX,10610,,,,MX,2019-12-15,2020-11-23,,,,,,,,['4bf58dd8d48988d151941735'],['Dining and Drinking > Restaurant > Mexican Restaurant > Taco Restaurant'],b'\x00\x00\x00\x00\x01\xc0X\xcf\xc0z\xae\xf2\xc7@3OP;\x81\xb6N',"{'xmin': -99.246123, 'ymin': 19.309818, 'xmax': -99.246123, 'ymax': 19.309818}",dining and drinking > restaurant > mexican restaurant > taco restaurant,1
4f80feebe4b00d748252dc8d,Tacos Los CuÑados,20.527604795693186,-102.33342128190752,,,,,,,,MX,2012-04-08,2021-08-13,,,,,,,,['4bf58dd8d48988d151941735'],['Dining and Drinking > Restaurant > Mexican Restaurant > Taco Restaurant'],b'\x00\x00\x00\x00\x01\xc0Y\x95V\xc67eS@4\x87\x11\x1b\x9e\xb7\n',"{'xmin': -102.33342128190752, 'ymin': 20.527604795693186, 'xmax': -102.33342128190752, 'ymax': 20.527604795693186}",dining and drinking > restaurant > mexican restaurant > taco restaurant,1
4fe670a2e4b0e91f09b0927c,Tacos Chava,17.063864239418617,-96.71905221823017,Calle de Abasolo esquina Libres,Oaxaca,Oaxaca,68000,,,,MX,2012-06-24,2020-11-21,,,,,,,,['4bf58dd8d48988d151941735'],['Dining and Drinking > Restaurant > Mexican Restaurant > Taco Restaurant'],b'\x00\x00\x00\x00\x01\xc0X.\x04\xf3\x98Z\x8d@1\x10Yh#\xaf\xd7',"{'xmin': -96.71905221823017, 'ymin': 17.063864239418617, 'xmax': -96.71905221823017, 'ymax': 17.063864239418617}",dining and drinking > restaurant > mexican restaurant > taco restaurant,1
4eee9aba0aaf1d45b343b2ff,Taqueria El Flaco De Oro,19.208233155349454,-96.16192675895365,Cuauhtémoc,Veracruz,,91870,,,,MX,2011-12-19,2020-11-22,,,,,,,,['4bf58dd8d48988d151941735'],['Dining and Drinking > Restaurant > Mexican Restaurant > Taco Restaurant'],b'\x00\x00\x00\x00\x01\xc0X\n]\x02\r\x83h@35N\xc4\xa0+6',"{'xmin': -96.16192675895365, 'ymin': 19.208233155349454, 'xmax': -96.16192675895365, 'ymax': 19.208233155349454}",dining and drinking > restaurant > mexican restaurant > taco restaurant,1
5990ec850a464d25e3540e41,Taqueria La Michoacana,18.017448,-102.21121,Carretera Lazaro Cardenas-Zihuatanejo,Las Guacamayas,MICH,60993,,,,MX,2017-08-14,2020-11-24,,,,,,,,['4bf58dd8d48988d151941735'],['Dining and Drinking > Restaurant > Mexican Restaurant > Taco Restaurant'],b'\x00\x00\x00\x00\x01\xc0Y\x8d\x84v\xf2\xa5\xa4@2\x04wx\xddap',"{'xmin': -102.21121, 'ymin': 18.017448, 'xmax': -102.21121, 'ymax': 18.017448}",dining and drinking > restaurant > mexican restaurant > taco restaurant,1
625253aa30989372b82e4c4b,Taquería El Villa,16.947443,-96.47114,Palmar 15,Tlacolula de Matamoros,Oaxaca,70400,,,,MX,2022-04-10,2022-04-10,,,,,,,,['4bf58dd8d48988d151941735'],['Dining and Drinking > Restaurant > Mexican Restaurant > Taco Restaurant'],"b""\x00\x00\x00\x00\x01\xc0X\x1e'(b\xf5\x99@0\xf2\x8b\x9f\xdb\xd2\xfa""","{'xmin': -96.47114, 'ymin': 16.947443, 'xmax': -96.47114, 'ymax': 16.947443}",dining and drinking > restaurant > mexican restaurant > taco restaurant,1
55fa2c8a498ea1907f43d23a,tacos abasolo suc. acueducto,19.69562082351667,-101.1612353767559,,,,,,,,MX,2015-09-17,2021-08-13,,,,,,,,['4bf58dd8d48988d151941735'],['Dining and Drinking > Restaurant > Mexican Restaurant > Taco Restaurant'],b'\x00\x00\x00\x00\x01\xc0YJQ\xae/\x87\xfd@3\xb2\x144\xcfk\xb2',"{'xmin': -101.1612353767559, 'ymin': 19.69562082351667, 'xmax': -101.1612353767559, 'ymax': 19.69562082351667}",dining and drinking > restaurant > mexican restaurant > taco restaurant,1
543a02c7498e8eacbb33c688,Taqueria el sabor del taco,19.266170558818743,-99.22820552770568,,,,,,,,MX,2014-10-12,2020-11-20,,,,,,,,['4bf58dd8d48988d151941735'],['Dining and Drinking > Restaurant > Mexican Restaurant > Taco Restaurant'],b'\x00\x00\x00\x00\x01\xc0X\xce\x9a\xeb[\x90\xca@3D#\xc0\xf5H\xd8',"{'xmin': -99.22820552770568, 'ymin': 19.266170558818743, 'xmax': -99.22820552770568, 'ymax': 19.266170558818743}",dining and drinking > restaurant > mexican restaurant > taco restaurant,1
4ffaf261e4b0211bc441c410,Tacos xel-ha,18.927908945931797,-99.19526199574918,,,,,,,,MX,2012-07-09,2021-08-16,,,,,,,,['4bf58dd8d48988d151941735'],['Dining and Drinking > Restaurant > Mexican Restaurant > Taco Restaurant'],"b'\x00\x00\x00\x00\x01\xc0X\xcc\x7f,+y>@2\xed\x8bp\xd0qb'","{'xmin': -99.19526199574918, 'ymin': 18.927908945931797, 'xmax': -99.19526199574918, 'ymax': 18.927908945931797}",dining and drinking > restaurant > mexican restaurant > taco restaurant,1
532e3f43498e7bb2d9eee626,tacos Don José,17.018739133588625,-96.72682389534323,,,,,,,,MX,2014-03-23,2021-08-10,,,,,,,,['4bf58dd8d48988d151941735'],['Dining and Drinking > Restaurant > Mexican Restaurant > Taco Restaurant'],b'\x00\x00\x00\x00\x01\xc0X.\x84H_\x1c\xd5@1\x04\xcc\x16}\xeb$',"{'xmin': -96.72682389534323, 'ymin': 17.018739133588625, 'xmax': -96.72682389534323, 'ymax': 17.018739133588625}",dining and drinking > restaurant > mexican restaurant > taco restaurant,1
4fb7c45ae4b0a2ca63a7957e,Barbacoa de Cordero de Hoyo,19.272188254974793,-99.1276213514314,,,,,,,,MX,2012-05-19,2021-08-17,,,,,,,,['4bf58dd8d48988d151941735'],['Dining and Drinking > Restaurant > Mexican Restaurant > Taco Restaurant'],b'\x00\x00\x00\x00\x01\xc0X\xc8*\xf2\xbe\xaa\xd4@3E\xae!%x\xd8',"{'xmin': -99.1276213514314, 'ymin': 19.272188254974793, 'xmax': -99.1276213514314, 'ymax': 19.272188254974793}",dining and drinking > restaurant > mexican restaurant > taco restaurant,1
62d2e2d72a316a45ef4f82de,Tacos Don Micky,18.951442,-99.226171,,Cuernavaca,MOR,62240,,,,MX,2022-07-16,2022-07-16,,,,,,,,['4bf58dd8d48988d151941735'],['Dining and Drinking > Restaurant > Mexican Restaurant > Taco Restaurant'],b'\x00\x00\x00\x00\x01\xc0X\xcey\x95\xee\x13n@2\xf3\x91\xb3\xf2\nt',"{'xmin': -99.226171, 'ymin': 18.951442, 'xmax': -99.226171, 'ymax': 18.951442}",dining and drinking > restaurant > mexican restaurant > taco restaurant,1
56b96132498e6834d883f4a0,Enchiladas Alicia,19.432829,-102.052574,Ignacio López Rayón,Uruapan,Michoacán,,,,,MX,2016-02-09,2020-11-25,,,,,,,,['4bf58dd8d48988d151941735'],['Dining and Drinking > Restaurant > Mexican Restaurant > Taco Restaurant'],b'\x00\x00\x00\x00\x01\xc0Y\x83]_V\xa7\xad@3n\xcd\xe1\x9f\xc2\xa9',"{'xmin': -102.052574, 'ymin': 19.432829, 'xmax': -102.052574, 'ymax': 19.432829}",dining and drinking > restaurant > mexican restaurant > taco restaurant,1
4fc424dce4b045c5b631a0f4,Cenaduria Regulas,17.27293291479169,-97.68323357063004,Malinalli,Tlaxiaco,Oaxaca,69800,,,,MX,2012-05-29,2020-11-25,,,,,,,,['4bf58dd8d48988d151941735'],['Dining and Drinking > Restaurant > Mexican Restaurant > Taco Restaurant'],b'\x00\x00\x00\x00\x01\xc0Xk\xba\x19LX\xa9@1E\xde\xeew\x08B',"{'xmin': -97.68323357063004, 'ymin': 17.27293291479169, 'xmax': -97.68323357063004, 'ymax': 17.27293291479169}",dining and drinking > restaurant > mexican restaurant > taco restaurant,1
4fce381be4b0e9fccea11a74,takoloko,19.147418,-96.104779,,,,,,,,MX,2012-06-05,2020-11-30,,,,,,,,['4bf58dd8d48988d151941735'],['Dining and Drinking > Restaurant > Mexican Restaurant > Taco Restaurant'],b'\x00\x00\x00\x00\x01\xc0X\x06\xb4\xb2\xfa\x93\xaf@3%\xbd/\xa0\xd7{',"{'xmin': -96.104779, 'ymin': 19.147418, 'xmax': -96.104779, 'ymax': 19.147418}",dining and drinking > restaurant > mexican restaurant > taco restaurant,1
5b81718716ef67002c415e8c,Tacos Del Carmen,17.066943,-96.724489,,Oaxaca de Juárez,OAX,68000,,,,MX,2018-08-25,2020-11-22,,,,,,,,['4bf58dd8d48988d151941735'],['Dining and Drinking > Restaurant > Mexican Restaurant > Taco Restaurant'],b'\x00\x00\x00\x00\x01\xc0X.^\x07\x1cS\xf4@1\x11#-+\xb25',"{'xmin': -96.724489, 'ymin': 17.066943, 'xmax': -96.724489, 'ymax': 17.066943}",dining and drinking > restaurant > mexican restaurant > taco restaurant,1
521950bf11d23db1c36d9d9e,antónimos Mexicanos RBK,18.829450607299805,-99.24276733398438,,,,,,,,MX,2013-08-25,2021-08-14,,,,,,,,['4bf58dd8d48988d151941735'],['Dining and Drinking > Restaurant > Mexican Restaurant > Taco Restaurant'],b'\x00\x00\x00\x00\x01\xc0X\xcf\x89\x80\x00\x00\x00@2\xd4V\xe0\x00\x00\x00',"{'xmin': -99.24276733398438, 'ymin': 18.829450607299805, 'xmax': -99.24276733398438, 'ymax': 18.829450607299805}",dining and drinking > restaurant > mexican restaurant > taco restaurant,1
58c31f6730ecc64ec69a1f10,Tacos Y Tortas Géminis,19.258114,-99.02166,,Ciudad de México,Ciudad de México,,,,,MX,2017-03-10,2020-11-25,,,,,,,,['4bf58dd8d48988d151941735'],['Dining and Drinking > Restaurant > Mexican Restaurant > Taco Restaurant'],b'\x00\x00\x00\x00\x01\xc0X\xc1b\xe0\x9f\xe8h@3B\x13\xc2T\xa3\xc6',"{'xmin': -99.02166, 'ymin': 19.258114, 'xmax': -99.02166, 'ymax': 19.258114}",dining and drinking > restaurant > mexican restaurant > taco restaurant,1
527324fc498e31f14e7bcbaf,Tacos Doña Linda,18.419933,-95.118055,,,,,,,,MX,2013-11-01,2021-08-14,,,,,,,,['4bf58dd8d48988d151941735'],['Dining and Drinking > Restaurant > Mexican Restaurant > Taco Restaurant'],b'\x00\x00\x00\x00\x01\xc0W\xc7\x8e6\x8f\x08F@2k\x80\xba\xa5\x82\xdc',"{'xmin': -95.118055, 'ymin': 18.419933, 'xmax': -95.118055, 'ymax': 18.419933}",dining and drinking > restaurant > mexican restaurant > taco restaurant,1
52cee42511d2badfb8939142,Taqueria El Güero,18.835474095685573,-96.39646196563722,San Francisco,Cotaxtla,Veracruz,,,,,MX,2014-01-09,2020-11-22,,,,,,,,['4bf58dd8d48988d151941735'],['Dining and Drinking > Restaurant > Mexican Restaurant > Taco Restaurant'],b'\x00\x00\x00\x00\x01\xc0X\x19_\xa2\x02!C@2\xd5\xe1\xa1]\x9f\xed',"{'xmin': -96.39646196563722, 'ymin': 18.835474095685573, 'xmax': -96.39646196563722, 'ymax': 18.835474095685573}",dining and drinking > restaurant > mexican restaurant > taco restaurant,1
4f52ee77e4b0b5d9de59cc50,El Cubano,19.19299406927215,-96.15262080760955,Circunvalacion,Veracruz,,,,,,MX,2012-03-04,2020-11-30,,,,,,,,['4bf58dd8d48988d151941735'],['Dining and Drinking > Restaurant > Mexican Restaurant > Taco Restaurant'],b'\x00\x00\x00\x00\x01\xc0X\t\xc4\x8a\x10W\xd1@31h\x0f/\xd8\x89',"{'xmin': -96.15262080760955, 'ymin': 19.19299406927215, 'xmax': -96.15262080760955, 'ymax': 19.19299406927215}",dining and drinking > restaurant > mexican restaurant > taco restaurant,1
55caa708498e329f7d9372bc,"Antojitos ""A la vuelta de Tio Rica""",16.241356,-93.888491,,,,,,,,MX,2015-08-12,2021-08-10,,,,,,,,['4bf58dd8d48988d151941735'],['Dining and Drinking > Restaurant > Mexican Restaurant > Taco Restaurant'],b'\x00\x00\x00\x00\x01\xc0Wx\xdd\tZ\xf2\x95@0=\xc9\x81\xbe\xb1\x81',"{'xmin': -93.888491, 'ymin': 16.241356, 'xmax': -93.888491, 'ymax': 16.241356}",dining and drinking > restaurant > mexican restaurant > taco restaurant,1
5447ed18498e578995f98acf,"Carnitas ""Agustin""",17.536536085161423,-101.27044428875195,,,,,,,,MX,2014-10-22,2021-08-15,,,,,,,,['4bf58dd8d48988d151941735'],['Dining and Drinking > Restaurant > Mexican Restaurant > Taco Restaurant'],b'\x00\x00\x00\x00\x01\xc0YQN\xf5\x8f\xe5\x18@1\x89Zm\xca\xe4f',"{'xmin': -101.27044428875195, 'ymin': 17.536536085161423, 'xmax': -101.27044428875195, 'ymax': 17.536536085161423}",dining and drinking > restaurant > mexican restaurant > taco restaurant,1
5658bbb8498e511a26db2101,Tacos de Carnitas Sandra,19.336070526594156,-99.13185802680147,,,,,,,,MX,2015-11-27,2021-08-11,,,,,,,,['4bf58dd8d48988d151941735'],['Dining and Drinking > Restaurant > Mexican Restaurant > Taco Restaurant'],b'\x00\x00\x00\x00\x01\xc0X\xc8p\\\xa64\xf4@3V\x08\xb7\xd0\xdf\x14',"{'xmin': -99.13185802680147, 'ymin': 19.336070526594156, 'xmax': -99.13185802680147, 'ymax': 19.336070526594156}",dining and drinking > restaurant > mexican restaurant > taco restaurant,1
4fca4822e4b074f1b05059a9,Barbacoa Don Fide,18.985925,-99.100682,Revolución de 1910,México,Morelos,,,,,MX,2012-06-02,2020-11-24,,,,,,,,['4bf58dd8d48988d151941735'],['Dining and Drinking > Restaurant > Mexican Restaurant > Taco Restaurant'],b'\x00\x00\x00\x00\x01\xc0X\xc6q\x92\xeaR\xf0@2\xfce\x94\xafO\x0e',"{'xmin': -99.100682, 'ymin': 18.985925, 'xmax': -99.100682, 'ymax': 18.985925}",dining and drinking > restaurant > mexican restaurant > taco restaurant,1
