fsq_place_id,name,latitude,longitude,address,locality,region,postcode,admin_region,post_town,po_box,country,date_created,date_refreshed,date_closed,tel,website,email,facebook_id,instagram,twitter,fsq_category_ids,fsq_category_labels,geom,bbox,labels_str,taco_restaurant
4db332fccda1c57c82413d51,Malverdes,32.715772020688064,-114.73379192496621,Baja California,,,,,,,MX,2011-04-23,2020-11-23,,,,,,,,['4bf58dd8d48988d151941735'],['Dining and Drinking > Restaurant > Mexican Restaurant > Taco Restaurant'],b'\x00\x00\x00\x00\x01\xc0\\\xae\xf6rg\xf3\x1f@@[\x9ej\xe6\x1f\xa0',"{'xmin': -114.73379192496621, 'ymin': 32.715772020688064, 'xmax': -114.73379192496621, 'ymax': 32.715772020688064}",dining and drinking > restaurant > mexican restaurant > taco restaurant,1
5ab71137dab4b150b62696b7,El Vegano,32.521863,-117.03097,,Tijuana,BC,22040,,,,MX,2018-03-25,2020-11-24,,,,,,,,['4bf58dd8d48988d1d3941735' '4bf58dd8d48988d151941735'],"['Dining and Drinking > Restaurant > Vegan and Vegetarian Restaurant'
 'Dining and Drinking > Restaurant > Mexican Restaurant > Taco Restaurant']","b'\x00\x00\x00\x00\x01\xc0]A\xfbi\x98J\x0e@@B\xcch""\xff\t'","{'xmin': -117.03097, 'ymin': 32.521863, 'xmax': -117.03097, 'ymax': 32.521863}","dining and drinking > restaurant > vegan and vegetarian restaurant, dining and drinking > restaurant > mexican restaurant > taco restaurant",1
5020815fe4b0432e8a86fccc,Tacos el Moreno,32.5024746,-116.9105138,Paseo De Los Lobos No 1,Tijuana,Baja California,,,,,MX,2012-08-07,2020-11-30,,,,,,,,['4bf58dd8d48988d151941735'],['Dining and Drinking > Restaurant > Mexican Restaurant > Taco Restaurant'],b'\x00\x00\x00\x00\x01\xc0]:E\xdb\xacc\xa1@@@Q\x16s\t\x0c',"{'xmin': -116.9105138, 'ymin': 32.5024746, 'xmax': -116.9105138, 'ymax': 32.5024746}",dining and drinking > restaurant > mexican restaurant > taco restaurant,1
511f30d3e4b016d26a398b5e,"Taqueria ""Casa Blanca""",32.50128591191692,-116.89590833281335,,,,,,,,MX,2013-02-16,2020-11-23,,,,,,,,['4bf58dd8d48988d151941735'],['Dining and Drinking > Restaurant > Mexican Restaurant > Taco Restaurant'],b'\x00\x00\x00\x00\x01\xc0]9V\x8f\xe7il@@@*#\x02\xd0z',"{'xmin': -116.89590833281335, 'ymin': 32.50128591191692, 'xmax': -116.89590833281335, 'ymax': 32.50128591191692}",dining and drinking > restaurant > mexican restaurant > taco restaurant,1
4fe64f76e4b09fd373b8e87f,Tacos Castillo,31.86462550388,-116.61844135764812,juarez y castillo,Ensenada,,,,,,MX,2012-06-23,2020-11-23,,,,,,,,['4bf58dd8d48988d1ce941735' '4bf58dd8d48988d151941735'],"['Dining and Drinking > Restaurant > Seafood Restaurant'
 'Dining and Drinking > Restaurant > Mexican Restaurant > Taco Restaurant']","b""\x00\x00\x00\x00\x01\xc0]'\x94\x8b\x0fe\xec@?\xddX\x18\xd6s\xbe""","{'xmin': -116.61844135764812, 'ymin': 31.86462550388, 'xmax': -116.61844135764812, 'ymax': 31.86462550388}","dining and drinking > restaurant > seafood restaurant, dining and drinking > restaurant > mexican restaurant > taco restaurant",1
502f2a17e4b0b0259455e6f1,Tacos Guanajuato,32.533432920301756,-117.09024229645989,,Tijuana,Baja California,,,,,MX,2012-08-18,2022-10-22,,,,,,,,['4bf58dd8d48988d151941735'],['Dining and Drinking > Restaurant > Mexican Restaurant > Taco Restaurant'],b'\x00\x00\x00\x00\x01\xc0]E\xc6\x87\xa0\x00\xb7@@DG\x87\xa9\xa7%',"{'xmin': -117.09024229645989, 'ymin': 32.533432920301756, 'xmax': -117.09024229645989, 'ymax': 32.533432920301756}",dining and drinking > restaurant > mexican restaurant > taco restaurant,1
4da9e8a51e72c1ab9be7fb92,Tacos El Poblano #1,31.7822262263595,-116.60440305849687,Chapultepec,Ensenada,Baja California,,,,,MX,2011-04-16,2020-11-24,,,,,,,,['4bf58dd8d48988d151941735' '4bf58dd8d48988d1c1941735'],"['Dining and Drinking > Restaurant > Mexican Restaurant > Taco Restaurant'
 'Dining and Drinking > Restaurant > Mexican Restaurant']","b'\x00\x00\x00\x00\x01\xc0]&\xae\x8a*v,@?\xc8?\xfa\\I\x9d'","{'xmin': -116.60440305849687, 'ymin': 31.7822262263595, 'xmax': -116.60440305849687, 'ymax': 31.7822262263595}","dining and drinking > restaurant > mexican restaurant > taco restaurant, dining and drinking > restaurant > mexican restaurant",1
4cf300536c29236aaac96ea2,Tacos Yubby's 2,32.62316706901695,-115.44299876952623,Benito Juárez,Mexicali,BC,,,,,MX,2010-11-29,2023-12-20,,686 188 2299,,,,,,['4bf58dd8d48988d151941735'],['Dining and Drinking > Restaurant > Mexican Restaurant > Taco Restaurant'],b'\x00\x00\x00\x00\x01\xc0\\\xdcZ\x17\x82\xd2#@@O\xc3\xf0B\xaf\x9d',"{'xmin': -115.44299876952623, 'ymin': 32.62316706901695, 'xmax': -115.44299876952623, 'ymax': 32.62316706901695}",dining and drinking > restaurant > mexican restaurant > taco restaurant,1
51832b80498efa9fa9541066,Sonora Que Rica,32.647984,-115.452889,,,,,,,,MX,2013-05-03,2021-08-12,,,,,,,,['4bf58dd8d48988d151941735'],['Dining and Drinking > Restaurant > Mexican Restaurant > Taco Restaurant'],"b'\x00\x00\x00\x00\x01\xc0\\\xdc\xfc""$\xed\xf6@@R\xf1#\xc4*g'","{'xmin': -115.452889, 'ymin': 32.647984, 'xmax': -115.452889, 'ymax': 32.647984}",dining and drinking > restaurant > mexican restaurant > taco restaurant,1
536d5c2d498ef28d21027d17,tacos bam-bam,31.866928100585938,-116.62635803222656,,Ensenada,Baja California,,,,,MX,2014-05-09,2020-11-25,,,,,,,,['4bf58dd8d48988d151941735'],['Dining and Drinking > Restaurant > Mexican Restaurant > Taco Restaurant'],b'\x00\x00\x00\x00\x01\xc0](\x16@\x00\x00\x00@?\xdd\xef\x00\x00\x00\x00',"{'xmin': -116.62635803222656, 'ymin': 31.866928100585938, 'xmax': -116.62635803222656, 'ymax': 31.866928100585938}",dining and drinking > restaurant > mexican restaurant > taco restaurant,1
51cf370f498e3b445d69b6fc,Tacos El Mayo,31.860584,-116.604326,,,,,,,,MX,2013-06-29,2021-08-11,,,,,,,,['4bf58dd8d48988d151941735'],['Dining and Drinking > Restaurant > Mexican Restaurant > Taco Restaurant'],b'\x00\x00\x00\x00\x01\xc0]&\xadF\xf5\x87\xd7@?\xdcO;\xa7u\xfb',"{'xmin': -116.604326, 'ymin': 31.860584, 'xmax': -116.604326, 'ymax': 31.860584}",dining and drinking > restaurant > mexican restaurant > taco restaurant,1
50b24354e4b03ca4f5be1092,Tacos Faustino,20.670352,-103.275838,,,,,,,,MX,2012-11-25,2021-08-13,,,,,,,,['4bf58dd8d48988d151941735'],['Dining and Drinking > Restaurant > Mexican Restaurant > Taco Restaurant'],b'\x00\x00\x00\x00\x01\xc0Y\xd1\xa7Tm?\x9e@4\xab\x9c0L\xce\xe6',"{'xmin': -103.275838, 'ymin': 20.670352, 'xmax': -103.275838, 'ymax': 20.670352}",dining and drinking > restaurant > mexican restaurant > taco restaurant,1
55cbf311498e6a04920ef5c1,El Amigo,21.095104930508306,-101.647381393969,,,,,,,,MX,2015-08-13,2021-08-13,,,,,,,,['4bf58dd8d48988d151941735'],['Dining and Drinking > Restaurant > Mexican Restaurant > Taco Restaurant'],b'\x00\x00\x00\x00\x01\xc0Yin\xb2^\xc8\xb0@5\x18X\xcb\xf68\xb6',"{'xmin': -101.647381393969, 'ymin': 21.095104930508306, 'xmax': -101.647381393969, 'ymax': 21.095104930508306}",dining and drinking > restaurant > mexican restaurant > taco restaurant,1
533500c8498e5e9d3edf3172,Tacos La Patrona,20.54790865068865,-100.83873400984244,,,,,,,,MX,2014-03-28,2021-08-13,,,,,,,,['4bf58dd8d48988d151941735'],['Dining and Drinking > Restaurant > Mexican Restaurant > Taco Restaurant'],b'\x00\x00\x00\x00\x01\xc0Y5\xad\xd1i\x94=@4\x8cC\xbd\xc7\xe7;',"{'xmin': -100.83873400984244, 'ymin': 20.54790865068865, 'xmax': -100.83873400984244, 'ymax': 20.54790865068865}",dining and drinking > restaurant > mexican restaurant > taco restaurant,1
4fa5d0dfe4b0baf7cda50ccf,Hamburgesas Y Tacos My Yorch,20.573406,-103.359405,Hidalgo,Guadalajara,Jalisco,,,,,MX,2012-05-06,2020-11-30,,,,,,,,['4bf58dd8d48988d151941735'],['Dining and Drinking > Restaurant > Mexican Restaurant > Taco Restaurant'],b'\x00\x00\x00\x00\x01\xc0Y\xd7\x00}\xd4A5@4\x92\xca\xbcQT\x86',"{'xmin': -103.359405, 'ymin': 20.573406, 'xmax': -103.359405, 'ymax': 20.573406}",dining and drinking > restaurant > mexican restaurant > taco restaurant,1
4e88136902d5546fe99cd054,Brasitacos,20.69372103725243,-101.36830707934534,Av. De la Reforma,Irapuato,GTO,,,,,MX,2011-10-02,2020-11-25,,,,,,,,['4bf58dd8d48988d151941735'],['Dining and Drinking > Restaurant > Mexican Restaurant > Taco Restaurant'],b'\x00\x00\x00\x00\x01\xc0YW\x92W\xdb+\x1b@4\xb1\x97\xb3\xaf\x8b\xe0',"{'xmin': -101.36830707934534, 'ymin': 20.69372103725243, 'xmax': -101.36830707934534, 'ymax': 20.69372103725243}",dining and drinking > restaurant > mexican restaurant > taco restaurant,1
5677699f498e97455d5d1ae5,Taqueria La Guelaguetza,22.146413443706667,-100.92206423158353,,,,,,,,MX,2012-10-28,2021-12-18,,,,,,,,['4bf58dd8d48988d151941735'],['Dining and Drinking > Restaurant > Mexican Restaurant > Taco Restaurant'],b'\x00\x00\x00\x00\x01\xc0Y;\x03\x19\xb1\xdd\x9c@6%{Y\xf8j5',"{'xmin': -100.92206423158353, 'ymin': 22.146413443706667, 'xmax': -100.92206423158353, 'ymax': 22.146413443706667}",dining and drinking > restaurant > mexican restaurant > taco restaurant,1
4f557ac3e4b0b1a4304cc6d3,Tacos El Chino,19.247228389003784,-103.75026914407665,,,,,,,,MX,2012-03-06,2020-11-24,,,,,,,,['4bf58dd8d48988d151941735'],['Dining and Drinking > Restaurant > Mexican Restaurant > Taco Restaurant'],b'\x00\x00\x00\x00\x01\xc0Y\xf0\x04h\xdf@u@3?J\\\x15i\xfd',"{'xmin': -103.75026914407665, 'ymin': 19.247228389003784, 'xmax': -103.75026914407665, 'ymax': 19.247228389003784}",dining and drinking > restaurant > mexican restaurant > taco restaurant,1
4edfc6330aaf167e5493d385,Tacos Omar Carlos,20.574102317454777,-103.45405688860392,Lopez Mateos Sur,Tlajomulco de Zuñiga,Jalisco,45346,,,,MX,2011-12-07,2020-11-30,,,http://omarcarlos.com,,,,,['4bf58dd8d48988d151941735'],['Dining and Drinking > Restaurant > Mexican Restaurant > Taco Restaurant'],b'\x00\x00\x00\x00\x01\xc0Y\xdd\x0fD\x9f\xc4\xf3@4\x92\xf8^\x96\x06\xad',"{'xmin': -103.45405688860392, 'ymin': 20.574102317454777, 'xmax': -103.45405688860392, 'ymax': 20.574102317454777}",dining and drinking > restaurant > mexican restaurant > taco restaurant,1
56d20fe8cd10d8bca1c75a1a,Taquería El Zarape,20.676677,-103.352377,Calle Morelos 505,Guadalajara,,,,,,MX,2016-02-27,2021-08-11,,,,,,,,['4bf58dd8d48988d151941735'],['Dining and Drinking > Restaurant > Mexican Restaurant > Taco Restaurant'],b'\x00\x00\x00\x00\x01\xc0Y\xd6\x8dXB\xb75@4\xad:\xb40\xf4\x95',"{'xmin': -103.352377, 'ymin': 20.676677, 'xmax': -103.352377, 'ymax': 20.676677}",dining and drinking > restaurant > mexican restaurant > taco restaurant,1
514dc5b1e4b06c69ed65cd4c,Tacos De Barbacoa Tio Jimmy,21.909530334295674,-102.31511950930839,Guadalupe González,Aguascalientes,Aguascalientes,,,,,MX,2013-03-23,2020-11-30,,,,,,,,['4bf58dd8d48988d151941735'],['Dining and Drinking > Restaurant > Mexican Restaurant > Taco Restaurant'],b'\x00\x00\x00\x00\x01\xc0Y\x94*\xeb\x04\xb3\xe9@5\xe8\xd6\xfa\xe0\x85\x16',"{'xmin': -102.31511950930839, 'ymin': 21.909530334295674, 'xmax': -102.31511950930839, 'ymax': 21.909530334295674}",dining and drinking > restaurant > mexican restaurant > taco restaurant,1
5676f379498ee19cfffdb097,"Tacos De Barbacoa ""El Que Traes""",20.73891804020874,-103.40514478181896,Arco Iris,Zapopan,Jalisco,45130,,,,MX,2015-12-20,2020-11-23,,,,,,,,['4bf58dd8d48988d151941735'],['Dining and Drinking > Restaurant > Mexican Restaurant > Taco Restaurant'],b'\x00\x00\x00\x00\x01\xc0Y\xd9\xed\xe4a\x03\xae@4\xbd)\xbb\x91\x1e\xf7',"{'xmin': -103.40514478181896, 'ymin': 20.73891804020874, 'xmax': -103.40514478181896, 'ymax': 20.73891804020874}",dining and drinking > restaurant > mexican restaurant > taco restaurant,1
64bc23b6ca8bd23cd8d02e0d,Los Rojos de TJ,20.677217,-103.43646,Independencia,Zapopan,JAL,45018,,,,MX,2023-07-22,2023-07-22,,33 1091 2977,,,,birrialosrojostj,,['4bf58dd8d48988d151941735' '4bf58dd8d48988d1c1941735'],"['Dining and Drinking > Restaurant > Mexican Restaurant > Taco Restaurant'
 'Dining and Drinking > Restaurant > Mexican Restaurant']",b'\x00\x00\x00\x00\x01\xc0Y\xdb\xee\xf5\xec\x80\xc7@4\xad^\x17\xe3K\x94',"{'xmin': -103.43646, 'ymin': 20.677217, 'xmax': -103.43646, 'ymax': 20.677217}","dining and drinking > restaurant > mexican restaurant > taco restaurant, dining and drinking > restaurant > mexican restaurant",1
566dae0d498e11041c67a9b7,Menudos Lord,21.898154348658565,-102.28744049293637,Av. heroe De Nacozari #1610-b,Aguascalientes,Aguascalientes,20030,,,,MX,2015-12-13,2020-11-23,,,,,,,,['4bf58dd8d48988d151941735'],['Dining and Drinking > Restaurant > Mexican Restaurant > Taco Restaurant'],b'\x00\x00\x00\x00\x01\xc0Y\x92el\xcf-M@5\xe5\xedq\x82?\xac',"{'xmin': -102.28744049293637, 'ymin': 21.898154348658565, 'xmax': -102.28744049293637, 'ymax': 21.898154348658565}",dining and drinking > restaurant > mexican restaurant > taco restaurant,1
5935b42b89e4905652166306,Tacos Fonseca,20.711432,-103.37853,,Guadalajara,Jalisco,,,,,MX,2017-06-05,2021-08-15,,,,,,,,['4bf58dd8d48988d151941735'],['Dining and Drinking > Restaurant > Mexican Restaurant > Taco Restaurant'],b'\x00\x00\x00\x00\x01\xc0Y\xd89\xd5\xe4\xa3\x83@4\xb6 hUS\xef',"{'xmin': -103.37853, 'ymin': 20.711432, 'xmax': -103.37853, 'ymax': 20.711432}",dining and drinking > restaurant > mexican restaurant > taco restaurant,1
55fb270d498ee9680226e11b,Don Taco Y Doña Torta,19.677776336669922,-101.20037841796875,,,,,,,,MX,2015-09-17,2021-08-15,,,,,,,,['4bf58dd8d48988d151941735'],['Dining and Drinking > Restaurant > Mexican Restaurant > Taco Restaurant'],b'\x00\x00\x00\x00\x01\xc0YL\xd3\x00\x00\x00\x00@3\xad\x82\xc0\x00\x00\x00',"{'xmin': -101.20037841796875, 'ymin': 19.677776336669922, 'xmax': -101.20037841796875, 'ymax': 19.677776336669922}",dining and drinking > restaurant > mexican restaurant > taco restaurant,1
4e75fdf31f6e072f13e87dd3,El Amigo Chon,21.168880926562654,-101.68589140204655,Blvd. Lopez Mateos 3803-A,León,GTO,,,,,MX,2011-09-18,2020-11-22,,,,,,,,['4bf58dd8d48988d151941735' '4bf58dd8d48988d1be941735'],"['Dining and Drinking > Restaurant > Mexican Restaurant > Taco Restaurant'
 'Dining and Drinking > Restaurant > Latin American Restaurant']",b'\x00\x00\x00\x00\x01\xc0Yk\xe5\xa5\r\x19q@5+;\xc7\xc8\x819',"{'xmin': -101.68589140204655, 'ymin': 21.168880926562654, 'xmax': -101.68589140204655, 'ymax': 21.168880926562654}","dining and drinking > restaurant > mexican restaurant > taco restaurant, dining and drinking > restaurant > latin american restaurant",1
5da6604c5621440008fd663c,Tripitas Tacos Gdl,20.648,-103.300422,San Jacinto 955,Guadalajara,JAL,44860,,,,MX,2019-10-16,2022-08-19,,,,,,,,['4bf58dd8d48988d151941735'],['Dining and Drinking > Restaurant > Mexican Restaurant > Taco Restaurant'],b'\x00\x00\x00\x00\x01\xc0Y\xd3:\x1d2?\xee@4\xa5\xe3S\xf7\xce\xd9',"{'xmin': -103.300422, 'ymin': 20.648, 'xmax': -103.300422, 'ymax': 20.648}",dining and drinking > restaurant > mexican restaurant > taco restaurant,1
65751f5d2166592b0de01af5,Tacos Palmas,22.171714,-101.00018,Calle 7,San Luis Potosí,S.L.P.,78140,,,,MX,2023-12-10,2023-12-10,,,,,,,,['4bf58dd8d48988d151941735' '4bf58dd8d48988d16e941735'],"['Dining and Drinking > Restaurant > Mexican Restaurant > Taco Restaurant'
 'Dining and Drinking > Restaurant > Fast Food Restaurant']",b'\x00\x00\x00\x00\x01\xc0Y@\x02\xf2\xf9\x87@@6+\xf5r\xdeC\xee',"{'xmin': -101.00018, 'ymin': 22.171714, 'xmax': -101.00018, 'ymax': 22.171714}","dining and drinking > restaurant > mexican restaurant > taco restaurant, dining and drinking > restaurant > fast food restaurant",1
59ebb8d79de23b0e35e41f03,Estación Maiz F.F. C.C.,20.667212,-103.404615,,Zapopan,JAL,45040,,,,MX,2017-10-21,2020-11-25,,,,,,,,"['4bf58dd8d48988d1c1941735' '4bf58dd8d48988d1be941735'
 '4bf58dd8d48988d151941735']","['Dining and Drinking > Restaurant > Mexican Restaurant'
 'Dining and Drinking > Restaurant > Latin American Restaurant'
 'Dining and Drinking > Restaurant > Mexican Restaurant > Taco Restaurant']",b'\x00\x00\x00\x00\x01\xc0Y\xd9\xe56P\x1e&@4\xaa\xceg\xd7\x7f\xae',"{'xmin': -103.404615, 'ymin': 20.667212, 'xmax': -103.404615, 'ymax': 20.667212}","dining and drinking > restaurant > mexican restaurant, dining and drinking > restaurant > latin american restaurant, dining and drinking > restaurant > mexican restaurant > taco restaurant",1
52a74df611d23b3c5d947638,El Gaspachito,21.156038,-101.651887,,,,,,,,MX,2013-12-10,2021-08-12,,,,,,,,['4bf58dd8d48988d151941735'],['Dining and Drinking > Restaurant > Mexican Restaurant > Taco Restaurant'],"b""\x00\x00\x00\x00\x01\xc0Yi\xb8\x84@l\x01@5'\xf2\x1b:\xee\xe9""","{'xmin': -101.651887, 'ymin': 21.156038, 'xmax': -101.651887, 'ymax': 21.156038}",dining and drinking > restaurant > mexican restaurant > taco restaurant,1
65f7bbb258e4fc57db2e5cec,Fogón Egipcio,20.671314,-103.36922,,Guadalajara,Jalisco,44160,,,,MX,2024-03-18,2024-03-18,,,,,,,,['4bf58dd8d48988d151941735'],['Dining and Drinking > Restaurant > Mexican Restaurant > Taco Restaurant'],b'\x00\x00\x00\x00\x01\xc0Y\xd7\xa1L\xecA\xdd@4\xab\xdb;\xfbX\xd1',"{'xmin': -103.36922, 'ymin': 20.671314, 'xmax': -103.36922, 'ymax': 20.671314}",dining and drinking > restaurant > mexican restaurant > taco restaurant,1
51a0d1a4498e09818a1d44db,Tacos El Hijo.,20.6278961628831,-103.32901507341157,Refinería,Guadalajara,Jalisco,,,,,MX,2013-05-25,2020-11-26,,,,,,,,['4bf58dd8d48988d151941735'],['Dining and Drinking > Restaurant > Mexican Restaurant > Taco Restaurant'],b'\x00\x00\x00\x00\x01\xc0Y\xd5\x0e\x95=\x0cf@4\xa0\xbd\xcd\x8c\xdd\xe7',"{'xmin': -103.32901507341157, 'ymin': 20.6278961628831, 'xmax': -103.32901507341157, 'ymax': 20.6278961628831}",dining and drinking > restaurant > mexican restaurant > taco restaurant,1
57e9e1a9cd109af40ec24a63,¿Dónde María?,20.655564741794972,-103.31783399613869,Av. Revolución 1846,Guadalajara,JAL,44840,,,,MX,2016-09-27,2023-12-19,,33 2267 2812,,,308720532832645.0,,,['4bf58dd8d48988d151941735'],['Dining and Drinking > Restaurant > Mexican Restaurant > Taco Restaurant'],b'\x00\x00\x00\x00\x01\xc0Y\xd4Wdf\xbe@@4\xa7\xd3\x17Fk\x8b',"{'xmin': -103.31783399613869, 'ymin': 20.655564741794972, 'xmax': -103.31783399613869, 'ymax': 20.655564741794972}",dining and drinking > restaurant > mexican restaurant > taco restaurant,1
615dccb79900356b0ed2d69d,Tacos Emilio’s,20.509989,-100.810518,,Celaya,GTO,38090,,,,MX,2021-10-06,2021-10-06,,,,,,,,['4bf58dd8d48988d151941735'],['Dining and Drinking > Restaurant > Mexican Restaurant > Taco Restaurant'],b'\x00\x00\x00\x00\x01\xc0Y3\xdf\x86\xe3\xb4p@4\x82\x8e\xa3\x9cQ\xdb',"{'xmin': -100.810518, 'ymin': 20.509989, 'xmax': -100.810518, 'ymax': 20.509989}",dining and drinking > restaurant > mexican restaurant > taco restaurant,1
512c3cb5e4b0823d3ecd4b95,tacos de tripas gepeto,21.122607564080255,-101.73220475897797,paseos de la cima plus,leon,guamajuato,37410,,,,MX,2013-02-26,2020-11-21,,,,,,,,['4bf58dd8d48988d151941735'],['Dining and Drinking > Restaurant > Mexican Restaurant > Taco Restaurant'],b'\x00\x00\x00\x00\x01\xc0Yn\xdcqYrM@5\x1fc5\x95\xf7\x88',"{'xmin': -101.73220475897797, 'ymin': 21.122607564080255, 'xmax': -101.73220475897797, 'ymax': 21.122607564080255}",dining and drinking > restaurant > mexican restaurant > taco restaurant,1
4e46a24a18a8f9804ccad503,Chepe Taquería,21.486248207581916,-104.87697419537831,Av. Rey Nayar,Tepic,Nayarit,,,,,MX,2011-08-13,2020-11-25,,,,,,,,['4bf58dd8d48988d151941735'],['Dining and Drinking > Restaurant > Mexican Restaurant > Taco Restaurant'],b'\x00\x00\x00\x00\x01\xc0Z8 X`%}@5|z\xc35M\x8e',"{'xmin': -104.87697419537831, 'ymin': 21.486248207581916, 'xmax': -104.87697419537831, 'ymax': 21.486248207581916}",dining and drinking > restaurant > mexican restaurant > taco restaurant,1
5418fcd0498ef0fd44049652,Tacos monzon,22.14032968879668,-100.94497584575927,,,,,,,,MX,2014-09-17,2021-08-15,,,,,,,,['4bf58dd8d48988d151941735'],['Dining and Drinking > Restaurant > Mexican Restaurant > Taco Restaurant'],b'\x00\x00\x00\x00\x01\xc0Y<z{\xf8B\xf2@6#\xec\xa5\x80\n#',"{'xmin': -100.94497584575927, 'ymin': 22.14032968879668, 'xmax': -100.94497584575927, 'ymax': 22.14032968879668}",dining and drinking > restaurant > mexican restaurant > taco restaurant,1
5044c253e4b0741ad2c42a96,Tacos al vapor Los Venenosos,20.674743,-103.379961,Lope De Vega,Guadalajara,Jalisco,,,,,MX,2012-09-03,2021-08-11,,,,,,,,['4bf58dd8d48988d151941735'],['Dining and Drinking > Restaurant > Mexican Restaurant > Taco Restaurant'],b'\x00\x00\x00\x00\x01\xc0Y\xd8QG\xf10Y@4\xac\xbb\xf5\x0e4v',"{'xmin': -103.379961, 'ymin': 20.674743, 'xmax': -103.379961, 'ymax': 20.674743}",dining and drinking > restaurant > mexican restaurant > taco restaurant,1
5254d1a4498e61d1d5421887,El Camelluco,22.143549541673334,-100.99704370008747,,,,,,,,MX,2013-10-09,2023-12-21,,444 151 9151,,,,,,['4bf58dd8d48988d151941735'],['Dining and Drinking > Restaurant > Mexican Restaurant > Taco Restaurant'],b'\x00\x00\x00\x00\x01\xc0Y?\xcf\x90a#\xbf@6$\xbf\xa9\xaa\xd7\xbf',"{'xmin': -100.99704370008747, 'ymin': 22.143549541673334, 'xmax': -100.99704370008747, 'ymax': 22.143549541673334}",dining and drinking > restaurant > mexican restaurant > taco restaurant,1
4bf94c835317a5938c00017f,Tacos Juan Carlos,20.631421142821146,-103.41433384136624,Sierra de Bolaños 2069,Zapopan,JAL,45080,,,,MX,2010-05-23,2024-05-06,,33 3632 5399,http://www.tacosjuancarlos.com,,130402163684525.0,,tacosjuancarlos,['4bf58dd8d48988d151941735'],['Dining and Drinking > Restaurant > Mexican Restaurant > Taco Restaurant'],b'\x00\x00\x00\x00\x01\xc0Y\xda\x84r\x16\x92\xd2@4\xa1\xa4\xd0\xe6kv',"{'xmin': -103.41433384136624, 'ymin': 20.631421142821146, 'xmax': -103.41433384136624, 'ymax': 20.631421142821146}",dining and drinking > restaurant > mexican restaurant > taco restaurant,1
5a45b9b62b98442bd78a2e87,Taqueria Angelita,19.223791,-104.69893,,San Patricio,Jalisco,48980,,,,MX,2017-12-29,2020-11-22,,,,,,,,['4bf58dd8d48988d151941735'],['Dining and Drinking > Restaurant > Mexican Restaurant > Taco Restaurant'],"b'\x00\x00\x00\x00\x01\xc0Z,\xbbD\xe5\x0c_@39J]\xf2#\x9e'","{'xmin': -104.69893, 'ymin': 19.223791, 'xmax': -104.69893, 'ymax': 19.223791}",dining and drinking > restaurant > mexican restaurant > taco restaurant,1
4e721a42a8090a3f739ad4bc,Tacos & Food La Oficina,20.641891462436075,-103.41209100181062,,Zapopan,Jalisco,,,,,MX,2011-09-15,2023-12-19,,33 3631 1982,,,,,,['4bf58dd8d48988d151941735'],['Dining and Drinking > Restaurant > Mexican Restaurant > Taco Restaurant'],b'\x00\x00\x00\x00\x01\xc0Y\xda_\xb2\xef\xf0)@4\xa4R\xff\xb6\xbe\x9b',"{'xmin': -103.41209100181062, 'ymin': 20.641891462436075, 'xmax': -103.41209100181062, 'ymax': 20.641891462436075}",dining and drinking > restaurant > mexican restaurant > taco restaurant,1
55aefc7d498eb1283fefbd8f,Tacos Rosy,20.657868403561736,-103.36771730414735,Ciprés 1914,Guadalajara,Jalisco,44900,,,,MX,2015-07-22,2021-08-14,,,,,,,,['4bf58dd8d48988d151941735'],['Dining and Drinking > Restaurant > Mexican Restaurant > Taco Restaurant'],b'\x00\x00\x00\x00\x01\xc0Y\xd7\x88\xae(\xdf\x1d@4\xa8j\x10N^\x90',"{'xmin': -103.36771730414735, 'ymin': 20.657868403561736, 'xmax': -103.36771730414735, 'ymax': 20.657868403561736}",dining and drinking > restaurant > mexican restaurant > taco restaurant,1
54008a69498eb6d9e1d59d53,Birria de Chivo 'San Miguel',21.10060350937114,-101.61362479235243,,,,,,,,MX,2014-08-29,2021-08-12,,,,,,,,['4bf58dd8d48988d151941735'],['Dining and Drinking > Restaurant > Mexican Restaurant > Taco Restaurant'],b'\x00\x00\x00\x00\x01\xc0YgE\xa0\xeb\xca\xc8@5\x19\xc1&\xce\x9c\xa4',"{'xmin': -101.61362479235243, 'ymin': 21.10060350937114, 'xmax': -101.61362479235243, 'ymax': 21.10060350937114}",dining and drinking > restaurant > mexican restaurant > taco restaurant,1
50ed97bfe4b0c1cedbe0076f,Taquería Olmedo,19.80499,-104.215844,"El Grullo, Jalisco.",,,,,,,MX,2013-01-09,2021-08-14,,,,,,,,['4bf58dd8d48988d151941735'],['Dining and Drinking > Restaurant > Mexican Restaurant > Taco Restaurant'],b'\x00\x00\x00\x00\x01\xc0Z\r\xd0cZBl@3\xce\x13\xd3\x1b\x9bg',"{'xmin': -104.215844, 'ymin': 19.80499, 'xmax': -104.215844, 'ymax': 19.80499}",dining and drinking > restaurant > mexican restaurant > taco restaurant,1
525cca2f11d250689adfb763,Tacos De Gato,20.719299,-103.387537,,,,,,,,MX,2013-10-15,2021-08-16,,,,,,,,['4bf58dd8d48988d151941735'],['Dining and Drinking > Restaurant > Mexican Restaurant > Taco Restaurant'],b'\x00\x00\x00\x00\x01\xc0Y\xd8\xcdg\xfd?[@4\xb8#\xfa\xb1\x0b\xa6',"{'xmin': -103.387537, 'ymin': 20.719299, 'xmax': -103.387537, 'ymax': 20.719299}",dining and drinking > restaurant > mexican restaurant > taco restaurant,1
586684359f25836f2b3d5588,Las de Comal,19.684194,-101.225689,,,,,,,,MX,2016-12-30,2021-08-19,,,,,,,,['4bf58dd8d48988d151941735'],['Dining and Drinking > Restaurant > Mexican Restaurant > Taco Restaurant'],"b""\x00\x00\x00\x00\x01\xc0YNq\xb0F\x84I@3\xaf'V\x86\x1e\x93""","{'xmin': -101.225689, 'ymin': 19.684194, 'xmax': -101.225689, 'ymax': 19.684194}",dining and drinking > restaurant > mexican restaurant > taco restaurant,1
4eb1bbea7ee5a4e5f4cc9df6,Tacos De Ollita Y Algo Mas,20.682229,-103.36495,Angulo,Guadalajara,Jalisco,,,,,MX,2011-11-02,2021-08-15,,,,,,,,['4bf58dd8d48988d151941735'],['Dining and Drinking > Restaurant > Mexican Restaurant > Taco Restaurant'],b'\x00\x00\x00\x00\x01\xc0Y\xd7[W>\xab6@4\xae\xa6\x8fKa\xfe',"{'xmin': -103.36495, 'ymin': 20.682229, 'xmax': -103.36495, 'ymax': 20.682229}",dining and drinking > restaurant > mexican restaurant > taco restaurant,1
50465642e4b00b7e4560a619,Tortilleria Reyes,19.255783056961363,-103.71735230036084,,,,,,,,MX,2012-09-04,2021-08-16,,,,,,,,['4bf58dd8d48988d151941735'],['Dining and Drinking > Restaurant > Mexican Restaurant > Taco Restaurant'],b'\x00\x00\x00\x00\x01\xc0Y\xed\xe9\x19\x9fp\xa7@3Az\xff\x98\x85\x1c',"{'xmin': -103.71735230036084, 'ymin': 19.255783056961363, 'xmax': -103.71735230036084, 'ymax': 19.255783056961363}",dining and drinking > restaurant > mexican restaurant > taco restaurant,1
571e39da498edc8b1da40739,TampiTacos,20.710855,-101.33994,,,,,,,,MX,2016-04-25,2021-08-12,,,,,,,,['4bf58dd8d48988d151941735'],['Dining and Drinking > Restaurant > Mexican Restaurant > Taco Restaurant'],b'\x00\x00\x00\x00\x01\xc0YU\xc1\x93\xb3\xa6\x8b@4\xb5\xfa\x97\xe12\xb5',"{'xmin': -101.33994, 'ymin': 20.710855, 'xmax': -101.33994, 'ymax': 20.710855}",dining and drinking > restaurant > mexican restaurant > taco restaurant,1
7bfa8331347b4bcb1e39d77e,Luchita,20.627273,-103.417276,Avenida 18 de Marzo N°2137-B,Zapopan,Jalisco,45080,,,,MX,2010-11-04,2023-12-06,,,,,,,,['4bf58dd8d48988d151941735'],['Dining and Drinking > Restaurant > Mexican Restaurant > Taco Restaurant'],b'\x00\x00\x00\x00\x01\xc0Y\xda\xb4\xa6eY\xf7@4\xa0\x94\xf6\x9c\xa9\xef',"{'xmin': -103.417276, 'ymin': 20.627273, 'xmax': -103.417276, 'ymax': 20.627273}",dining and drinking > restaurant > mexican restaurant > taco restaurant,1
58bd908a668af72c7b65f837,Tacos Al Vapor El Crucerito,20.618375,-103.452305,,,,,,,,MX,2017-03-06,2021-08-17,,,,,,,,['4bf58dd8d48988d151941735'],['Dining and Drinking > Restaurant > Mexican Restaurant > Taco Restaurant'],b'\x00\x00\x00\x00\x01\xc0Y\xdc\xf2\x90\xab\xb4N@4\x9eM\xd2\xf1\xa9\xfc',"{'xmin': -103.452305, 'ymin': 20.618375, 'xmax': -103.452305, 'ymax': 20.618375}",dining and drinking > restaurant > mexican restaurant > taco restaurant,1
52f85bc8498ea486f3aae644,La Parrilla Villalvarense,19.260345,-103.758657,,,,,,,,MX,2014-02-10,2020-11-30,,,,,,,,['4bf58dd8d48988d151941735'],['Dining and Drinking > Restaurant > Mexican Restaurant > Taco Restaurant'],b'\x00\x00\x00\x00\x01\xc0Y\xf0\x8d\xd6\x16\xf8j@3B\xa5\xf8L\xadX',"{'xmin': -103.758657, 'ymin': 19.260345, 'xmax': -103.758657, 'ymax': 19.260345}",dining and drinking > restaurant > mexican restaurant > taco restaurant,1
5686ba9b498e3b32b05ec10f,Los Vagos,20.690422678232242,-103.26421449208358,,,,,,,,MX,2016-01-01,2021-08-16,,,,,,,,['4bf58dd8d48988d151941735'],['Dining and Drinking > Restaurant > Mexican Restaurant > Taco Restaurant'],b'\x00\x00\x00\x00\x01\xc0Y\xd0\xe8\xe3\xe6\xa85@4\xb0\xbf\x8agl\x99',"{'xmin': -103.26421449208358, 'ymin': 20.690422678232242, 'xmax': -103.26421449208358, 'ymax': 20.690422678232242}",dining and drinking > restaurant > mexican restaurant > taco restaurant,1
5299642b11d24f840a399009,Tacos don Lupe,20.682540313110014,-103.45282226518033,Morelos 448,Zapopan,jalisco,44520,,,,MX,2012-05-20,2021-11-23,,,,,,,,['4bf58dd8d48988d151941735'],['Dining and Drinking > Restaurant > Mexican Restaurant > Taco Restaurant'],b'\x00\x00\x00\x00\x01\xc0Y\xdc\xfb\n<\xf6i@4\xae\xba\xf6C\x02U',"{'xmin': -103.45282226518033, 'ymin': 20.682540313110014, 'xmax': -103.45282226518033, 'ymax': 20.682540313110014}",dining and drinking > restaurant > mexican restaurant > taco restaurant,1
50b42aa2e4b09d4cf9092031,Tacos Del Güero,19.684272,-101.198076,Av Universidad,Morelia,Michoacan,58060,,,,MX,2012-11-27,2020-11-30,,,,,,,,['4bf58dd8d48988d151941735'],['Dining and Drinking > Restaurant > Mexican Restaurant > Taco Restaurant'],"b'\x00\x00\x00\x00\x01\xc0YL\xadF\xf5\x87\xd7@3\xaf,s%\x91\x8a'","{'xmin': -101.198076, 'ymin': 19.684272, 'xmax': -101.198076, 'ymax': 19.684272}",dining and drinking > restaurant > mexican restaurant > taco restaurant,1
4d1e263d8629224b71c9ff86,Tacos Felipe,20.64644731742194,-103.3048117854944,Antonio Garcia Cubas,Guadalajara,Jalisco,,,,,MX,2010-12-31,2021-08-15,,,,,,,,['4bf58dd8d48988d151941735'],['Dining and Drinking > Restaurant > Mexican Restaurant > Taco Restaurant'],b'\x00\x00\x00\x00\x01\xc0Y\xd3\x82\tJ\x88\x90@4\xa5}\x92F\xea\x07',"{'xmin': -103.3048117854944, 'ymin': 20.64644731742194, 'xmax': -103.3048117854944, 'ymax': 20.64644731742194}",dining and drinking > restaurant > mexican restaurant > taco restaurant,1
651780e4ef4b40185a7ba051,Tacos Monkey,21.012984,-101.271212,,Guanajuato,Gto.,36050,,,,MX,2023-09-30,2023-09-30,,,,,,,,['4bf58dd8d48988d151941735'],['Dining and Drinking > Restaurant > Mexican Restaurant > Taco Restaurant'],b'\x00\x00\x00\x00\x01\xc0YQ[\x89\x93\x92\x19@5\x03R\xeb__\x0b',"{'xmin': -101.271212, 'ymin': 21.012984, 'xmax': -101.271212, 'ymax': 21.012984}",dining and drinking > restaurant > mexican restaurant > taco restaurant,1
51548422e4b04903cc73fdf9,Rivera's Fish Taco,19.771761,-104.367104,,,,,,,,MX,2013-03-28,2021-08-13,,,,,,,,['4bf58dd8d48988d151941735'],['Dining and Drinking > Restaurant > Mexican Restaurant > Taco Restaurant'],b'\x00\x00\x00\x00\x01\xc0Z\x17~\xa1\xc6\x8e\xc5@3\xc5\x92 \xffT\t',"{'xmin': -104.367104, 'ymin': 19.771761, 'xmax': -104.367104, 'ymax': 19.771761}",dining and drinking > restaurant > mexican restaurant > taco restaurant,1
50cb74d2e4b0f2cbcc8ccfb8,Carnitas Alpes,21.095906821833385,-101.72805475928381,,,,,,,,MX,2012-12-14,2021-08-15,,,,,,,,['4bf58dd8d48988d151941735'],['Dining and Drinking > Restaurant > Mexican Restaurant > Taco Restaurant'],b'\x00\x00\x00\x00\x01\xc0Yn\x98r\xfd4\x8d@5\x18\x8dYw<\xd9',"{'xmin': -101.72805475928381, 'ymin': 21.095906821833385, 'xmax': -101.72805475928381, 'ymax': 21.095906821833385}",dining and drinking > restaurant > mexican restaurant > taco restaurant,1
54ff417a498e8b4e7c3f07c7,CheTaco,20.967962321388523,-101.42141431188305,,,,,,,,MX,2015-03-10,2020-11-22,,,,,,,,['4bf58dd8d48988d151941735'],['Dining and Drinking > Restaurant > Mexican Restaurant > Taco Restaurant'],b'\x00\x00\x00\x00\x01\xc0YZ\xf8s\xbb\xe6\xa9@4\xf7\xcc`\xf2\x1f\xbb',"{'xmin': -101.42141431188305, 'ymin': 20.967962321388523, 'xmax': -101.42141431188305, 'ymax': 20.967962321388523}",dining and drinking > restaurant > mexican restaurant > taco restaurant,1
5c4fa8b466fc65002cd98b67,Taco Madre,20.567169,-103.483109,,Tlajomulco de Zúñiga,JAL,45645,,,,MX,2019-01-29,2020-11-22,,,,,,,,['4bf58dd8d48988d151941735'],['Dining and Drinking > Restaurant > Mexican Restaurant > Taco Restaurant'],b'\x00\x00\x00\x00\x01\xc0Y\xde\xebB\x02\xd9\xcf@4\x911\xfc\xd2N\x16',"{'xmin': -103.483109, 'ymin': 20.567169, 'xmax': -103.483109, 'ymax': 20.567169}",dining and drinking > restaurant > mexican restaurant > taco restaurant,1
50346e0de4b042c84529b69d,tacos san miguel,21.10786598331879,-101.6476189687847,,,,,,,,MX,2012-08-22,2021-08-15,,,,,,,,['4bf58dd8d48988d151941735'],['Dining and Drinking > Restaurant > Mexican Restaurant > Taco Restaurant'],b'\x00\x00\x00\x00\x01\xc0Yir\x96\xd4\xcc\xc5@5\x1b\x9d\x1a\xe6\xb4\x80',"{'xmin': -101.6476189687847, 'ymin': 21.10786598331879, 'xmax': -101.6476189687847, 'ymax': 21.10786598331879}",dining and drinking > restaurant > mexican restaurant > taco restaurant,1
56f89e62498e9eff4b61c160,tacos cumbres,21.088444,-101.656829,,,,,,,,MX,2016-03-28,2021-08-14,,,,,,,,['4bf58dd8d48988d151941735'],['Dining and Drinking > Restaurant > Mexican Restaurant > Taco Restaurant'],b'\x00\x00\x00\x00\x01\xc0Yj\t|\x80\x84\x1f@5\x16\xa4D\x17\x87\x05',"{'xmin': -101.656829, 'ymin': 21.088444, 'xmax': -101.656829, 'ymax': 21.088444}",dining and drinking > restaurant > mexican restaurant > taco restaurant,1
4fc58a7ae4b058a77a1945c3,Tacos Pedrito,21.244907626295323,-102.33560226106806,,,,,,,,MX,2012-05-30,2021-08-13,,,,,,,,['4bf58dd8d48988d151941735'],['Dining and Drinking > Restaurant > Mexican Restaurant > Taco Restaurant'],b'\x00\x00\x00\x00\x01\xc0Y\x95z\x81\xe7\xf0\x10@5>\xb2D%z\xba',"{'xmin': -102.33560226106806, 'ymin': 21.244907626295323, 'xmax': -102.33560226106806, 'ymax': 21.244907626295323}",dining and drinking > restaurant > mexican restaurant > taco restaurant,1
4f62adc4e4b098b393a8508a,Tacos El Rápido,21.015925922897786,-101.85696040176522,Emiliano Zapata,,,,,,,MX,2012-03-16,2021-08-10,,,,,,,,['4bf58dd8d48988d151941735'],['Dining and Drinking > Restaurant > Mexican Restaurant > Taco Restaurant'],b'\x00\x00\x00\x00\x01\xc0Yv\xd8pp\xe3\x1d@5\x04\x13\xb8\xa6\x01.',"{'xmin': -101.85696040176522, 'ymin': 21.015925922897786, 'xmax': -101.85696040176522, 'ymax': 21.015925922897786}",dining and drinking > restaurant > mexican restaurant > taco restaurant,1
4e415ce0e4cd432464363e6d,Tacos Don Pepe,21.087597546901822,-101.62070187461407,Gamma,León,GTO,,,,,MX,2011-08-09,2020-11-23,,,,,,,,['4bf58dd8d48988d151941735'],['Dining and Drinking > Restaurant > Mexican Restaurant > Taco Restaurant'],"b'\x00\x00\x00\x00\x01\xc0Yg\xb9\x94[\x02""@5\x16l\xca\xf7\'5'","{'xmin': -101.62070187461407, 'ymin': 21.087597546901822, 'xmax': -101.62070187461407, 'ymax': 21.087597546901822}",dining and drinking > restaurant > mexican restaurant > taco restaurant,1
51832012498e8493275bae8b,Tacos La Guadalupana,20.70699,-103.352609,,,,,,,,MX,2013-05-03,2021-08-11,,,,,,,,['4bf58dd8d48988d151941735'],['Dining and Drinking > Restaurant > Mexican Restaurant > Taco Restaurant'],b'\x00\x00\x00\x00\x01\xc0Y\xd6\x91%V\xd1\x9e@4\xb4\xfdK\xf0\x99[',"{'xmin': -103.352609, 'ymin': 20.70699, 'xmax': -103.352609, 'ymax': 20.70699}",dining and drinking > restaurant > mexican restaurant > taco restaurant,1
5e59ae4f2cdec7000966bbb8,Marialele,20.659238,-105.219445,Calle Veracru 156,Puerto Vallarta,JAL,48298,,,,MX,2020-02-29,2020-11-23,,442 790 6820,,,,,,['4bf58dd8d48988d151941735'],['Dining and Drinking > Restaurant > Mexican Restaurant > Taco Restaurant'],b'\x00\x00\x00\x00\x01\xc0ZN\x0bc\n\x91S@4\xa8\xc3\xd2RG\xcb',"{'xmin': -105.219445, 'ymin': 20.659238, 'xmax': -105.219445, 'ymax': 20.659238}",dining and drinking > restaurant > mexican restaurant > taco restaurant,1
525cbf4911d2e9a0af47e350,Taquería Los Arbolitos,20.90087363725324,-105.41305124759674,America Latina 7,San Francisco,Nayarit,63729,,,,MX,2013-10-15,2020-11-24,,311 258 4139,,,,,,['4bf58dd8d48988d151941735'],['Dining and Drinking > Restaurant > Mexican Restaurant > Taco Restaurant'],b'\x00\x00\x00\x00\x01\xc0ZZon\x80\x00\x00@4\xe6\x9f\xa7\x99\xd4\xcc',"{'xmin': -105.41305124759674, 'ymin': 20.90087363725324, 'xmax': -105.41305124759674, 'ymax': 20.90087363725324}",dining and drinking > restaurant > mexican restaurant > taco restaurant,1
58e27525a370b96bd954b157,Tacos El Miguelon,20.651509,-103.295774,Manuel M. Ponce,Guadalajara,JAL,44810,,,,MX,2017-04-03,2021-08-12,,,,,,,,['4bf58dd8d48988d151941735'],['Dining and Drinking > Restaurant > Mexican Restaurant > Taco Restaurant'],b'\x00\x00\x00\x00\x01\xc0Y\xd2\xed\xf6\x12@t@4\xa6\xc9K8\x0c\xb7',"{'xmin': -103.295774, 'ymin': 20.651509, 'xmax': -103.295774, 'ymax': 20.651509}",dining and drinking > restaurant > mexican restaurant > taco restaurant,1
547b45da498ec5945adc15a2,consome y birria de res rio grande,20.34843430149353,-102.01948511647362,,,,,,,,MX,2014-11-30,2021-08-15,,,,,,,,['4bf58dd8d48988d151941735'],['Dining and Drinking > Restaurant > Mexican Restaurant > Taco Restaurant'],b'\x00\x00\x00\x00\x01\xc0Y\x81?>\x80\x80\xd4@4Y2\xfd\x89\xb8%',"{'xmin': -102.01948511647362, 'ymin': 20.34843430149353, 'xmax': -102.01948511647362, 'ymax': 20.34843430149353}",dining and drinking > restaurant > mexican restaurant > taco restaurant,1
4eec13a36da1536879155a84,Taco n tento,22.167224524281472,-100.98053196377178,Calle Juan del Jarro,San Luis potosi,SLP,,,,,MX,2011-12-17,2020-11-25,,,,,,,,['4bf58dd8d48988d151941735'],['Dining and Drinking > Restaurant > Mexican Restaurant > Taco Restaurant'],b'\x00\x00\x00\x00\x01\xc0Y>\xc1\t#EG@6*\xcf9\xf6\xe0\xca',"{'xmin': -100.98053196377178, 'ymin': 22.167224524281472, 'xmax': -100.98053196377178, 'ymax': 22.167224524281472}",dining and drinking > restaurant > mexican restaurant > taco restaurant,1
50cdebe5e4b0aceb5df3a98b,Tacos y Tortas,22.175291274220335,-100.95928390252298,Av. Soledad,Soledad de G S,San Luis Potosí,,,,,MX,2012-12-16,2020-11-22,,,,,,,,['4bf58dd8d48988d151941735'],['Dining and Drinking > Restaurant > Mexican Restaurant > Taco Restaurant'],"b'\x00\x00\x00\x00\x01\xc0Y=d\xe8O:\x97@6,\xdf\xe3\x92\x0c\xee'","{'xmin': -100.95928390252298, 'ymin': 22.175291274220335, 'xmax': -100.95928390252298, 'ymax': 22.175291274220335}",dining and drinking > restaurant > mexican restaurant > taco restaurant,1
50149f26e4b080ff6b88d9db,Tacos y tortas El Chilango,21.23634,-104.89111,2 de octubre #10,Compostela,Nayarit,63700,,,,MX,2012-07-29,2020-11-25,,,,,,,,['4bf58dd8d48988d151941735'],['Dining and Drinking > Restaurant > Mexican Restaurant > Taco Restaurant'],b'\x00\x00\x00\x00\x01\xc0Z9\x07\xf2<\xc8\xde@5<\x80\xc7:\xbc\x94',"{'xmin': -104.89111, 'ymin': 21.23634, 'xmax': -104.89111, 'ymax': 21.23634}",dining and drinking > restaurant > mexican restaurant > taco restaurant,1
52e3238b498e112b1b316489,Tata Grill,21.14679,-101.686264,Blvd. Campestre,León,Guanajuato,,,,,MX,2014-01-25,2023-12-21,,477 255 2336,,,,,,['4bf58dd8d48988d151941735'],['Dining and Drinking > Restaurant > Mexican Restaurant > Taco Restaurant'],b'\x00\x00\x00\x00\x01\xc0Yk\xeb\xbf\xd7\x1b\x04@5%\x94\x07\x89a=',"{'xmin': -101.686264, 'ymin': 21.14679, 'xmax': -101.686264, 'ymax': 21.14679}",dining and drinking > restaurant > mexican restaurant > taco restaurant,1
569e78cd38fadfa0fe86513c,Fonda Doña Tere,21.019779,-101.26329,Antigua Estación De Ferrocarril,,,,,,,MX,2016-01-19,2021-08-12,,,,,,,,['4bf58dd8d48988d151941735'],['Dining and Drinking > Restaurant > Mexican Restaurant > Taco Restaurant'],b'\x00\x00\x00\x00\x01\xc0YP\xd9\xbeL\xd7I@5\x05\x10<\x8e%\xc8',"{'xmin': -101.26329, 'ymin': 21.019779, 'xmax': -101.26329, 'ymax': 21.019779}",dining and drinking > restaurant > mexican restaurant > taco restaurant,1
5c2d356feaf49a003971e392,Tortas Ahogadas “Kiko”,20.650685,-103.278971,Federico Medrano,Guadalajara,JAL,44820,,,,MX,2019-01-02,2021-08-11,,,,,,,,['4bf58dd8d48988d151941735'],['Dining and Drinking > Restaurant > Mexican Restaurant > Taco Restaurant'],b'\x00\x00\x00\x00\x01\xc0Y\xd1\xda\xa9.b\x13@4\xa6\x93J\xca\xffm',"{'xmin': -103.278971, 'ymin': 20.650685, 'xmax': -103.278971, 'ymax': 20.650685}",dining and drinking > restaurant > mexican restaurant > taco restaurant,1
4dadc5f1a86e0d401b8ef88d,Quesadilla de Miri,20.616998,-103.418521,Tianguis,Zapopan,Jalisco,,,,,MX,2011-04-19,2020-11-23,,,,,,,,['4bf58dd8d48988d151941735' '4bf58dd8d48988d1c1941735'],"['Dining and Drinking > Restaurant > Mexican Restaurant > Taco Restaurant'
 'Dining and Drinking > Restaurant > Mexican Restaurant']",b'\x00\x00\x00\x00\x01\xc0Y\xda\xc9\x0cM\xec\x1c@4\x9d\xf3\x94\xb7\xb2\x89',"{'xmin': -103.418521, 'ymin': 20.616998, 'xmax': -103.418521, 'ymax': 20.616998}","dining and drinking > restaurant > mexican restaurant > taco restaurant, dining and drinking > restaurant > mexican restaurant",1
5b84afbd345cbe00399b1fee,Super Taco Gourtmet,21.922564,-102.304652,Zaragoza 201 E,Aguascalientes,AGS,20120,,,,MX,2018-08-28,2020-11-30,,,,,,,,['4bf58dd8d48988d151941735' '4bf58dd8d48988d1c1941735'],"['Dining and Drinking > Restaurant > Mexican Restaurant > Taco Restaurant'
 'Dining and Drinking > Restaurant > Mexican Restaurant']","b""\x00\x00\x00\x00\x01\xc0Y\x93\x7fk\x1a*N@5\xec-'\x80w\x8a""","{'xmin': -102.304652, 'ymin': 21.922564, 'xmax': -102.304652, 'ymax': 21.922564}","dining and drinking > restaurant > mexican restaurant > taco restaurant, dining and drinking > restaurant > mexican restaurant",1
5bdc73f8a2a6ce002c79262a,Tacos Marielos,20.672638,-103.38932,Mazamitla 2929,Guadalajara,Jalisco,44110,,,,MX,2018-11-02,2021-08-15,,,,,,,,['4bf58dd8d48988d151941735'],['Dining and Drinking > Restaurant > Mexican Restaurant > Taco Restaurant'],b'\x00\x00\x00\x00\x01\xc0Y\xd8\xea\x9en\xebp@4\xac2\x01\x04\x0b\xfe',"{'xmin': -103.38932, 'ymin': 20.672638, 'xmax': -103.38932, 'ymax': 20.672638}",dining and drinking > restaurant > mexican restaurant > taco restaurant,1
5a6cb16a7564f7473f0e16c0,Tacos De Barbacoa Pelayo,20.574625,-103.358643,Ramon Marrinez Zamora,Tlaquepaque,JAL,45615,,,,MX,2018-01-27,2020-11-25,,,,,,,,['4bf58dd8d48988d151941735'],['Dining and Drinking > Restaurant > Mexican Restaurant > Taco Restaurant'],b'\x00\x00\x00\x00\x01\xc0Y\xd6\xf4\x01\xc4\xfc\x1e@4\x93\x1a\x9f\xbev\xc9',"{'xmin': -103.358643, 'ymin': 20.574625, 'xmax': -103.358643, 'ymax': 20.574625}",dining and drinking > restaurant > mexican restaurant > taco restaurant,1
5ad0195cd41bb713281c26a5,Don Mixiote,21.880425,-102.312232,,Aguascalientes,AGS,20070,,,,MX,2018-04-13,2020-11-24,,,,,,,,['4bf58dd8d48988d151941735'],['Dining and Drinking > Restaurant > Mexican Restaurant > Taco Restaurant'],b'\x00\x00\x00\x00\x01\xc0Y\x93\xfb\x9b\xed0\xf0@5\xe1c\x88e\x94\xaf',"{'xmin': -102.312232, 'ymin': 21.880425, 'xmax': -102.312232, 'ymax': 21.880425}",dining and drinking > restaurant > mexican restaurant > taco restaurant,1
535a7ec8498e74417b1ccc0a,Tacos Al Vapor Paseos Del Sol,20.62521,-103.464781,,,,,,,,MX,2014-04-25,2021-08-15,,,,,,,,['4bf58dd8d48988d151941735'],['Dining and Drinking > Restaurant > Mexican Restaurant > Taco Restaurant'],b'\x00\x00\x00\x00\x01\xc0Y\xdd\xbe\xf8\xce\xb3W@4\xa0\r\xc37!\xd5',"{'xmin': -103.464781, 'ymin': 20.62521, 'xmax': -103.464781, 'ymax': 20.62521}",dining and drinking > restaurant > mexican restaurant > taco restaurant,1
528d63b011d2a1cbd55cff8f,Taquero VIP,20.960645649938577,-101.29473366680485,Avenida Principal 148,Guanajuato,Guanajuato,36260,,,,MX,2013-11-21,2020-11-30,,,,,,,,['4bf58dd8d48988d151941735'],['Dining and Drinking > Restaurant > Mexican Restaurant > Taco Restaurant'],b'\x00\x00\x00\x00\x01\xc0YR\xdc\xea\x98\xfd?@4\xf5\xec\xdf\x91\x87\xe6',"{'xmin': -101.29473366680485, 'ymin': 20.960645649938577, 'xmax': -101.29473366680485, 'ymax': 20.960645649938577}",dining and drinking > restaurant > mexican restaurant > taco restaurant,1
4bdc887ac712b713b2c463b4,Kekas del CBTIS,20.70474884821517,-101.3545869593165,Prol. Guerrero,Irapuato,Guanajuato,,,,,MX,2010-05-01,2020-11-25,,,,,,,,['4bf58dd8d48988d151941735'],['Dining and Drinking > Restaurant > Mexican Restaurant > Taco Restaurant'],b'\x00\x00\x00\x00\x01\xc0YV\xb1\x8d\x80v\x8f@4\xb4jk\xa6\xfaS',"{'xmin': -101.3545869593165, 'ymin': 20.70474884821517, 'xmax': -101.3545869593165, 'ymax': 20.70474884821517}",dining and drinking > restaurant > mexican restaurant > taco restaurant,1
5d3ba5a9becaec0008c79481,La Pingüika,20.685278,-101.37655,,Irapuato,Guanajuato,36640,,,,MX,2019-07-27,2020-11-24,,,,,,,,['4bf58dd8d48988d151941735'],['Dining and Drinking > Restaurant > Mexican Restaurant > Taco Restaurant'],b'\x00\x00\x00\x00\x01\xc0YX\x19e+\xd3\xc3@4\xafna\x06\xab\x15',"{'xmin': -101.37655, 'ymin': 20.685278, 'xmax': -101.37655, 'ymax': 20.685278}",dining and drinking > restaurant > mexican restaurant > taco restaurant,1
5a483c67535d6f23fce12733,Fonda Coqui,20.749468,-105.384747,,Bahía de Banderas,NAY,63734,,,,MX,2017-12-31,2023-12-20,,329 295 7440,,,,,,['4bf58dd8d48988d151941735' '4bf58dd8d48988d1c1941735'],"['Dining and Drinking > Restaurant > Mexican Restaurant > Taco Restaurant'
 'Dining and Drinking > Restaurant > Mexican Restaurant']","b'\x00\x00\x00\x00\x01\xc0ZX\x9f\xb1\xe1\x8e\xfc@4\xbf\xdd""\x85f\x06'","{'xmin': -105.384747, 'ymin': 20.749468, 'xmax': -105.384747, 'ymax': 20.749468}","dining and drinking > restaurant > mexican restaurant > taco restaurant, dining and drinking > restaurant > mexican restaurant",1
5300e62f498ea62258f7f92f,Tacos Crudoles,20.666704,-103.390994,,Guadalajara,,,,,,MX,2014-02-16,2021-08-13,,,,,,,,['4bf58dd8d48988d151941735'],['Dining and Drinking > Restaurant > Mexican Restaurant > Taco Restaurant'],b'\x00\x00\x00\x00\x01\xc0Y\xd9\x06\x0b\xb2\xbb\xaa@4\xaa\xad\x1d\x04\x1c\xc5',"{'xmin': -103.390994, 'ymin': 20.666704, 'xmax': -103.390994, 'ymax': 20.666704}",dining and drinking > restaurant > mexican restaurant > taco restaurant,1
4bd4d64f4e32d13a2907c080,Atacadero,20.67909,-103.42086,,,,,,,,MX,2010-04-25,2021-08-13,2011-09-07,,,,,,,['4bf58dd8d48988d151941735'],['Dining and Drinking > Restaurant > Mexican Restaurant > Taco Restaurant'],b'\x00\x00\x00\x00\x01\xc0Y\xda\xef^\xc8\x0ct@4\xad\xd8\xd7\x9d\ng',"{'xmin': -103.42086, 'ymin': 20.67909, 'xmax': -103.42086, 'ymax': 20.67909}",dining and drinking > restaurant > mexican restaurant > taco restaurant,1
5a5fadc1d4cc983334c67173,Tacos El Gordo,20.654282,-103.34165,,Guadalajara,Jalisco,44790,,,,MX,2018-01-17,2021-08-16,,,,,,,,['4bf58dd8d48988d151941735'],['Dining and Drinking > Restaurant > Mexican Restaurant > Taco Restaurant'],b'\x00\x00\x00\x00\x01\xc0Y\xd5\xdd\x97\xf6+k@4\xa7\x7f\x06p\\\x89',"{'xmin': -103.34165, 'ymin': 20.654282, 'xmax': -103.34165, 'ymax': 20.654282}",dining and drinking > restaurant > mexican restaurant > taco restaurant,1
4f20bdd3e4b0628b53bdb887,El Takin,21.885217451715437,-102.25537587800143,Av Ojocaliente 311,Aguascalientes,AGS,20190,,,,MX,2012-01-26,2020-11-30,,,,,,,,['4bf58dd8d48988d151941735'],['Dining and Drinking > Restaurant > Mexican Restaurant > Taco Restaurant'],b'\x00\x00\x00\x00\x01\xc0Y\x90X\x14\x11\r\x05@5\xe2\x9d\x9cd\xf7]',"{'xmin': -102.25537587800143, 'ymin': 21.885217451715437, 'xmax': -102.25537587800143, 'ymax': 21.885217451715437}",dining and drinking > restaurant > mexican restaurant > taco restaurant,1
53476594498ebec4c9e74beb,tacos doña cone,20.75956699038915,-103.44076013122026,Av Base Aerea,,,,,,,MX,2014-04-11,2021-08-12,,,,,,,,['4bf58dd8d48988d151941735'],['Dining and Drinking > Restaurant > Mexican Restaurant > Taco Restaurant'],b'\x00\x00\x00\x00\x01\xc0Y\xdc5i\xfb>0@4\xc2r\xfbv\xd7\xb1',"{'xmin': -103.44076013122026, 'ymin': 20.75956699038915, 'xmax': -103.44076013122026, 'ymax': 20.75956699038915}",dining and drinking > restaurant > mexican restaurant > taco restaurant,1
4f8f886ce4b0f6229a1ffebf,Tacos Moya,20.618329,-103.317886,Batalla De Torreón,Tlaquepaque,Jalisco,45580,,,,MX,2012-04-19,2020-11-23,,,,,,,,['4bf58dd8d48988d151941735'],['Dining and Drinking > Restaurant > Mexican Restaurant > Taco Restaurant'],b'\x00\x00\x00\x00\x01\xc0Y\xd4X>\x85v\xcd@4\x9eJ\xcf1+\x1b',"{'xmin': -103.317886, 'ymin': 20.618329, 'xmax': -103.317886, 'ymax': 20.618329}",dining and drinking > restaurant > mexican restaurant > taco restaurant,1
58262facb613dc251faace1e,Tacos Neto,20.643259,-105.220692,Fco. Villa #1404,Puerto Vallarta,Jalisco,,,,,MX,2016-11-11,2020-11-25,,,,,,,,['4bf58dd8d48988d151941735'],['Dining and Drinking > Restaurant > Mexican Restaurant > Taco Restaurant'],b'\x00\x00\x00\x00\x01\xc0ZN\x1f\xd1V\x9fI@4\xa4\xac\x9f/\xdb\x90',"{'xmin': -105.220692, 'ymin': 20.643259, 'xmax': -105.220692, 'ymax': 20.643259}",dining and drinking > restaurant > mexican restaurant > taco restaurant,1
570ab379498eee8952016a21,El Barbacon Tacos,20.682993235112793,-103.3598089536296,Herrera Y Cairo 1086,,,,,,,MX,2016-04-10,2021-08-15,,,,,,,,['4bf58dd8d48988d151941735'],['Dining and Drinking > Restaurant > Mexican Restaurant > Taco Restaurant'],"b'\x00\x00\x00\x00\x01\xc0Y\xd7\x07\x1c"")j@4\xae\xd8\xa5\x082\xdd'","{'xmin': -103.3598089536296, 'ymin': 20.682993235112793, 'xmax': -103.3598089536296, 'ymax': 20.682993235112793}",dining and drinking > restaurant > mexican restaurant > taco restaurant,1
5080b346e4b0a7491b9c72f7,Tacos Villareal,20.68665,-103.433443,,,,,,,,MX,2012-10-19,2021-08-13,,,,,,,,['4bf58dd8d48988d151941735'],['Dining and Drinking > Restaurant > Mexican Restaurant > Taco Restaurant'],b'\x00\x00\x00\x00\x01\xc0Y\xdb\xbd\x87\xb5k\x87@4\xaf\xc8K]\xccd',"{'xmin': -103.433443, 'ymin': 20.68665, 'xmax': -103.433443, 'ymax': 20.68665}",dining and drinking > restaurant > mexican restaurant > taco restaurant,1
5e345d366582a200087a6bc7,SANTO TACO,20.88093682813911,-103.83075714111328,Carretera internacional 402,TEQUILA,JALISCO,46400,,,,MX,2020-01-31,2020-11-30,,33 2705 2050,,,,,,['4bf58dd8d48988d151941735'],['Dining and Drinking > Restaurant > Mexican Restaurant > Taco Restaurant'],b'\x00\x00\x00\x00\x01\xc0Y\xf5+ \x00\x00\x00@4\xe1\x85\x13r\xb3\x0f',"{'xmin': -103.83075714111328, 'ymin': 20.88093682813911, 'xmax': -103.83075714111328, 'ymax': 20.88093682813911}",dining and drinking > restaurant > mexican restaurant > taco restaurant,1
4b92a314f964a5205a0c34e3,Tacos de los muchachos,21.153281866048136,-101.69298362337855,Loma del pedregal,Leon de los Aldama,Gt,37150,,,,MX,2010-03-06,2020-11-23,,,,,,,,['4bf58dd8d48988d151941735'],['Dining and Drinking > Restaurant > Mexican Restaurant > Taco Restaurant'],"b""\x00\x00\x00\x00\x01\xc0YlY\xd7\xfb\xc4\xc4@5'=z\xf9\xbf!""","{'xmin': -101.69298362337855, 'ymin': 21.153281866048136, 'xmax': -101.69298362337855, 'ymax': 21.153281866048136}",dining and drinking > restaurant > mexican restaurant > taco restaurant,1
4f4e8f14e4b0b0c45cf9b96d,Birrieria Las Chorreadas,20.63743,-103.394797,,,,,,,,MX,2012-02-29,2021-08-14,,,,,,,,['4bf58dd8d48988d151941735'],['Dining and Drinking > Restaurant > Mexican Restaurant > Taco Restaurant'],b'\x00\x00\x00\x00\x01\xc0Y\xd9DZ\xa2\xe3\xc5@4\xa3.\x9c\xcb}A',"{'xmin': -103.394797, 'ymin': 20.63743, 'xmax': -103.394797, 'ymax': 20.63743}",dining and drinking > restaurant > mexican restaurant > taco restaurant,1
4d9b326b422ea1cd5695f64c,Tacos De A Tres,20.655466563617136,-103.31663231368219,,,,,,,,MX,2011-04-05,2021-08-13,,,,,,,,['4bf58dd8d48988d151941735'],['Dining and Drinking > Restaurant > Mexican Restaurant > Taco Restaurant'],b'\x00\x00\x00\x00\x01\xc0Y\xd4C\xb4.\x07\xcc@4\xa7\xcc\xa8\x1e[k',"{'xmin': -103.31663231368219, 'ymin': 20.655466563617136, 'xmax': -103.31663231368219, 'ymax': 20.655466563617136}",dining and drinking > restaurant > mexican restaurant > taco restaurant,1
56099ef5498e4a17f7aeaeaa,Tacos Los Del Rey,22.151582512247067,-100.93973984055287,,,,,,,,MX,2015-09-28,2020-11-30,,,,,,,,['4bf58dd8d48988d151941735'],['Dining and Drinking > Restaurant > Mexican Restaurant > Taco Restaurant'],b'\x00\x00\x00\x00\x01\xc0Y<$\xb2\x92{\x10@6&\xce\x1c\x8c\xbf&',"{'xmin': -100.93973984055287, 'ymin': 22.151582512247067, 'xmax': -100.93973984055287, 'ymax': 22.151582512247067}",dining and drinking > restaurant > mexican restaurant > taco restaurant,1
526aab2511d235b4721acf17,Tortas Los Hueros,20.659613,-103.353568,,Guadalajara,,,,,,MX,2013-10-25,2021-08-13,,,,,,,,['4bf58dd8d48988d151941735'],['Dining and Drinking > Restaurant > Mexican Restaurant > Taco Restaurant'],b'\x00\x00\x00\x00\x01\xc0Y\xd6\xa0\xdb\xad:`@4\xa8\xdce\xc7\x046',"{'xmin': -103.353568, 'ymin': 20.659613, 'xmax': -103.353568, 'ymax': 20.659613}",dining and drinking > restaurant > mexican restaurant > taco restaurant,1
5861de563e88355679fd724b,Especialidades de carne asada,21.891274,-102.271948,,,,,,,,MX,2016-12-27,2021-08-17,,,,,,,,['4bf58dd8d48988d151941735'],['Dining and Drinking > Restaurant > Mexican Restaurant > Taco Restaurant'],b'\x00\x00\x00\x00\x01\xc0Y\x91g\x98\x95\x8d\x9b@5\xe4*\x88i\xc6m',"{'xmin': -102.271948, 'ymin': 21.891274, 'xmax': -102.271948, 'ymax': 21.891274}",dining and drinking > restaurant > mexican restaurant > taco restaurant,1
52638b75498e99801ef5d752,Tacos El Patillas,20.690725326538086,-101.3488998413086,,,,,,,,MX,2013-10-20,2021-08-16,,,,,,,,['4bf58dd8d48988d151941735'],['Dining and Drinking > Restaurant > Mexican Restaurant > Taco Restaurant'],b'\x00\x00\x00\x00\x01\xc0YVT`\x00\x00\x00@4\xb0\xd3`\x00\x00\x00',"{'xmin': -101.3488998413086, 'ymin': 20.690725326538086, 'xmax': -101.3488998413086, 'ymax': 20.690725326538086}",dining and drinking > restaurant > mexican restaurant > taco restaurant,1
5a062d9395d9863f6ae19ccb,Tacos Veganos,20.698752,-103.333925,Circunvalacion 175,Guadalajara,JAL,44290,,,,MX,2017-11-10,2021-08-14,,,,,,,,"['4bf58dd8d48988d1cb941735' '4bf58dd8d48988d1d3941735'
 '4bf58dd8d48988d151941735']","['Dining and Drinking > Food Truck'
 'Dining and Drinking > Restaurant > Vegan and Vegetarian Restaurant'
 'Dining and Drinking > Restaurant > Mexican Restaurant > Taco Restaurant']",b'\x00\x00\x00\x00\x01\xc0Y\xd5_\x06\xf6\x94F@4\xb2\xe1i<\x03\xbc',"{'xmin': -103.333925, 'ymin': 20.698752, 'xmax': -103.333925, 'ymax': 20.698752}","dining and drinking > food truck, dining and drinking > restaurant > vegan and vegetarian restaurant, dining and drinking > restaurant > mexican restaurant > taco restaurant",1
66613fe65908895aa08ce4f2,Tacos Los Cuñados,20.582939,-103.385753,8 De Julio,San Pedro Tlaquepaque,Jal.,45601,,,,MX,2024-06-06,2024-06-06,,,,,,,,['4bf58dd8d48988d151941735' '4bf58dd8d48988d1c1941735'],"['Dining and Drinking > Restaurant > Mexican Restaurant > Taco Restaurant'
 'Dining and Drinking > Restaurant > Mexican Restaurant']",b'\x00\x00\x00\x00\x01\xc0Y\xd8\xb0-Y\xd5^@4\x95;}\x84\x90\x1d',"{'xmin': -103.385753, 'ymin': 20.582939, 'xmax': -103.385753, 'ymax': 20.582939}","dining and drinking > restaurant > mexican restaurant > taco restaurant, dining and drinking > restaurant > mexican restaurant",1
5f7a062e2214a218b52f81b7,El Che Y Mesie Laureles,20.725863,-103.38659,,Zapopan,Jalisco,45150,,,,MX,2020-10-04,2020-11-23,,,,,,,,['4bf58dd8d48988d151941735'],['Dining and Drinking > Restaurant > Mexican Restaurant > Taco Restaurant'],b'\x00\x00\x00\x00\x01\xc0Y\xd8\xbd\xe3\xfb\xbd{@4\xb9\xd2(V`_',"{'xmin': -103.38659, 'ymin': 20.725863, 'xmax': -103.38659, 'ymax': 20.725863}",dining and drinking > restaurant > mexican restaurant > taco restaurant,1
50b7ddcbe4b07a75dbcd6f6a,Tacos de birria Nico,21.81044,-105.208127,Santos degollado,Santiago Ixcuintla,Nayarit,63300,,,,MX,2012-11-29,2020-11-30,,,,,,,,['4bf58dd8d48988d151941735'],['Dining and Drinking > Restaurant > Mexican Restaurant > Taco Restaurant'],b'\x00\x00\x00\x00\x01\xc0ZMQ\xf3\xe8\x9a\x89@5\xcfx\xfe\xef^\xc8',"{'xmin': -105.208127, 'ymin': 21.81044, 'xmax': -105.208127, 'ymax': 21.81044}",dining and drinking > restaurant > mexican restaurant > taco restaurant,1
4e89318ab803129948dac025,Tacos el TORO,19.272693705314556,-103.7155989238169,,,,,,,,MX,2011-10-03,2021-08-16,,,,,,,,['4bf58dd8d48988d151941735'],['Dining and Drinking > Restaurant > Mexican Restaurant > Taco Restaurant'],b'\x00\x00\x00\x00\x01\xc0Y\xed\xcc_m\xb6+@3E\xcfA2&\xad',"{'xmin': -103.7155989238169, 'ymin': 19.272693705314556, 'xmax': -103.7155989238169, 'ymax': 19.272693705314556}",dining and drinking > restaurant > mexican restaurant > taco restaurant,1
4eee8e5ae300215594cc4eb2,Tacos El Chiras,20.602179740250282,-103.34944197488112,,Tlaquepaque,Jalisco,,,,,MX,2011-12-19,2020-11-25,,,,,,,,['4bf58dd8d48988d151941735'],['Dining and Drinking > Restaurant > Mexican Restaurant > Taco Restaurant'],b'\x00\x00\x00\x00\x01\xc0Y\xd6]A\xdf}\xb3@4\x9a(s\x92\xb0Q',"{'xmin': -103.34944197488112, 'ymin': 20.602179740250282, 'xmax': -103.34944197488112, 'ymax': 20.602179740250282}",dining and drinking > restaurant > mexican restaurant > taco restaurant,1
5314a54b11d2fce3d19cb6fc,tacos & güeros,20.64029312133789,-103.38683319091797,López De Legazpi,Guadalajara,,,,,,MX,2014-03-03,2021-08-11,,,,,,,,['4bf58dd8d48988d151941735'],['Dining and Drinking > Restaurant > Mexican Restaurant > Taco Restaurant'],b'\x00\x00\x00\x00\x01\xc0Y\xd8\xc1\xe0\x00\x00\x00@4\xa3\xea@\x00\x00\x00',"{'xmin': -103.38683319091797, 'ymin': 20.64029312133789, 'xmax': -103.38683319091797, 'ymax': 20.64029312133789}",dining and drinking > restaurant > mexican restaurant > taco restaurant,1
5c107ed90a08ab002cf26da0,Taquiza De La Sierra Mixe,20.576546,-101.215546,Boulevard Morelos 1733,Salamanca,GTO,36760,,,,MX,2018-12-12,2020-11-30,,,,,,,,['4bf58dd8d48988d151941735'],['Dining and Drinking > Restaurant > Mexican Restaurant > Taco Restaurant'],"b""\x00\x00\x00\x00\x01\xc0YM\xcb\x81s2'@4\x93\x98\x84\xc6\xa3\xbe""","{'xmin': -101.215546, 'ymin': 20.576546, 'xmax': -101.215546, 'ymax': 20.576546}",dining and drinking > restaurant > mexican restaurant > taco restaurant,1
59bdd25f86bc49168b951bfe,Los Sebastianes,21.851812,-102.318428,,Aguascalientes,AGS,20206,,,,MX,2017-09-17,2020-11-24,,,,,,,,['4bf58dd8d48988d151941735'],['Dining and Drinking > Restaurant > Mexican Restaurant > Taco Restaurant'],b'\x00\x00\x00\x00\x01\xc0Y\x94a\x1f\xd5\x88]@5\xda\x10Y\xeaW!',"{'xmin': -102.318428, 'ymin': 21.851812, 'xmax': -102.318428, 'ymax': 21.851812}",dining and drinking > restaurant > mexican restaurant > taco restaurant,1
531204d7498e5a774c686e09,Tacos de Canasta OXXO salida a lagos,21.171567692080842,-101.7500465246539,,,,,,,,MX,2014-03-01,2024-01-04,,,http://www.oxxo.com,,,,,['4bf58dd8d48988d151941735'],['Dining and Drinking > Restaurant > Mexican Restaurant > Taco Restaurant'],b'\x00\x00\x00\x00\x01\xc0Yp\x00\xc3#w|@5+\xeb\xdc:\x89\x94',"{'xmin': -101.7500465246539, 'ymin': 21.171567692080842, 'xmax': -101.7500465246539, 'ymax': 21.171567692080842}",dining and drinking > restaurant > mexican restaurant > taco restaurant,1
54e40a0c498e956b4add23f9,"Tacos al Carbón ""El Cherry""",21.121052846791184,-101.65008195411308,Blvd. Francisco Villa #1016,,,,,,,MX,2015-02-18,2021-08-12,,,,,,,,['4bf58dd8d48988d151941735'],['Dining and Drinking > Restaurant > Mexican Restaurant > Taco Restaurant'],b'\x00\x00\x00\x00\x01\xc0Yi\x9a\xf1W(\xab@5\x1e\xfdQ\xc2\x0eK',"{'xmin': -101.65008195411308, 'ymin': 21.121052846791184, 'xmax': -101.65008195411308, 'ymax': 21.121052846791184}",dining and drinking > restaurant > mexican restaurant > taco restaurant,1
4e3599cd52b17fb1c609bca3,Tacos Paco,20.67260344971751,-103.41755496831047,Sebastian Bach 4804,Zapopan,Jalisco,,,,,MX,2011-07-31,2020-11-30,,,,,,,,['4bf58dd8d48988d151941735'],['Dining and Drinking > Restaurant > Mexican Restaurant > Taco Restaurant'],b'\x00\x00\x00\x00\x01\xc0Y\xda\xb98yK@@4\xac/\xbd[\xb6\xa7',"{'xmin': -103.41755496831047, 'ymin': 20.67260344971751, 'xmax': -103.41755496831047, 'ymax': 20.67260344971751}",dining and drinking > restaurant > mexican restaurant > taco restaurant,1
4ef619a7e5e83430ad1d2a3d,aca con doña martha,21.50285289630016,-104.90741729736328,lopez cotilla,tepic,nayarit,63136,,,,MX,2011-12-24,2020-11-22,,311 214 7495,,,,,,['4bf58dd8d48988d151941735'],['Dining and Drinking > Restaurant > Mexican Restaurant > Taco Restaurant'],b'\x00\x00\x00\x00\x01\xc0Z:\x13 \x00\x00\x00@5\x80\xba\xf7\xa8N\xdd',"{'xmin': -104.90741729736328, 'ymin': 21.50285289630016, 'xmax': -104.90741729736328, 'ymax': 21.50285289630016}",dining and drinking > restaurant > mexican restaurant > taco restaurant,1
519bd5b5498ed2dfaa94ef3a,Birrieria Javier (Tacos el man),21.898124579997965,-102.2868479654391,J. Reyes Martínez,Aguascalientes,Aguascalientes,20030,,,,MX,2013-05-21,2020-11-25,,,,,,,,['4bf58dd8d48988d151941735'],['Dining and Drinking > Restaurant > Mexican Restaurant > Taco Restaurant'],b'\x00\x00\x00\x00\x01\xc0Y\x92[\xb7\x91\x9f\x0b@5\xe5\xeb~\x12\xd33',"{'xmin': -102.2868479654391, 'ymin': 21.898124579997965, 'xmax': -102.2868479654391, 'ymax': 21.898124579997965}",dining and drinking > restaurant > mexican restaurant > taco restaurant,1
6355854798911525a733ca1e,Birria Y Tacos El Batis,31.02216,-114.843892,Av. Mar Caribe,San Felipe,Baja California,21850,,,,MX,2022-10-23,2022-10-23,,,,,,,,['4bf58dd8d48988d151941735'],['Dining and Drinking > Restaurant > Mexican Restaurant > Taco Restaurant'],b'\x00\x00\x00\x00\x01\xc0\\\xb6\x02S\x97V\xc9@?\x05\xacG\x1bG\x84',"{'xmin': -114.843892, 'ymin': 31.02216, 'xmax': -114.843892, 'ymax': 31.02216}",dining and drinking > restaurant > mexican restaurant > taco restaurant,1
4fc8365ce4b062a3fab2a66b,Tacos Joaquin,20.681161940878603,-103.28208854943131,,,,,,,,MX,2012-06-01,2021-08-11,,,,,,,,['4bf58dd8d48988d151941735'],['Dining and Drinking > Restaurant > Mexican Restaurant > Taco Restaurant'],b'\x00\x00\x00\x00\x01\xc0Y\xd2\r\xbd!\x98\x8c@4\xae`\xa1\x03Z~',"{'xmin': -103.28208854943131, 'ymin': 20.681161940878603, 'xmax': -103.28208854943131, 'ymax': 20.681161940878603}",dining and drinking > restaurant > mexican restaurant > taco restaurant,1
5f664082213b27333218060d,El Mexicano,20.893726,-101.021047,San Javier,,GTO,,,,,MX,2020-09-19,2020-11-23,,,,,,,,['4bf58dd8d48988d151941735'],['Dining and Drinking > Restaurant > Mexican Restaurant > Taco Restaurant'],b'\x00\x00\x00\x00\x01\xc0YAX\xd5\x84+s@4\xe4\xcb:%\x95\xbc',"{'xmin': -101.021047, 'ymin': 20.893726, 'xmax': -101.021047, 'ymax': 20.893726}",dining and drinking > restaurant > mexican restaurant > taco restaurant,1
55fdb1a5498e273b16903da7,Tacos Paco,20.678945665555467,-103.42117565934052,Av. Vallarta,Zapopan,,,,,,MX,2015-09-19,2020-11-22,,,,,,,,['4bf58dd8d48988d151941735'],['Dining and Drinking > Restaurant > Mexican Restaurant > Taco Restaurant'],b'\x00\x00\x00\x00\x01\xc0Y\xda\xf4\x8a\xc0\xafH@4\xad\xcfb\x15RZ',"{'xmin': -103.42117565934052, 'ymin': 20.678945665555467, 'xmax': -103.42117565934052, 'ymax': 20.678945665555467}",dining and drinking > restaurant > mexican restaurant > taco restaurant,1
4e79451762e1645552c16ef2,Tacos porfis,20.680682906122637,-103.30798252825123,Emilio Rabaza 1949,Guadalajara,Jalisco,,,,,MX,2011-09-21,2021-08-13,,,,,,,,['4bf58dd8d48988d151941735'],['Dining and Drinking > Restaurant > Mexican Restaurant > Taco Restaurant'],b'\x00\x00\x00\x00\x01\xc0Y\xd3\xb5\xfcY\xa5\x05@4\xaeA<$\xbe3',"{'xmin': -103.30798252825123, 'ymin': 20.680682906122637, 'xmax': -103.30798252825123, 'ymax': 20.680682906122637}",dining and drinking > restaurant > mexican restaurant > taco restaurant,1
4f66b201e4b09ff9be93207c,Tacos de con José,20.709284013928286,-103.35265688873898,Manuel De Mimbela,Guadalajara,Jalisco,,,,,MX,2012-03-19,2021-08-15,,,,,,,,['4bf58dd8d48988d151941735'],['Dining and Drinking > Restaurant > Mexican Restaurant > Taco Restaurant'],b'\x00\x00\x00\x00\x01\xc0Y\xd6\x91\xee2\xf5\xf4@4\xb5\x93\xa3\x1be\xc9',"{'xmin': -103.35265688873898, 'ymin': 20.709284013928286, 'xmax': -103.35265688873898, 'ymax': 20.709284013928286}",dining and drinking > restaurant > mexican restaurant > taco restaurant,1
5005898ae4b0d73a8e304e99,Tacos Panza Hueca,21.871997677214402,-102.30162855484583,Valparaiso,Aguascalientes,AGS,,,,,MX,2012-07-17,2020-11-24,,,,,,,,['4bf58dd8d48988d151941735'],['Dining and Drinking > Restaurant > Mexican Restaurant > Taco Restaurant'],b'\x00\x00\x00\x00\x01\xc0Y\x93M\xe1\xda\xa6\x91@5\xdf;=a\xd2\xe6',"{'xmin': -102.30162855484583, 'ymin': 21.871997677214402, 'xmax': -102.30162855484583, 'ymax': 21.871997677214402}",dining and drinking > restaurant > mexican restaurant > taco restaurant,1
4f9425aae4b0f63925c12407,Quesadillas De Paty,21.16302233264833,-101.67248931794386,,,,,,,,MX,2012-04-22,2021-08-12,,,,,,,,['4bf58dd8d48988d151941735'],['Dining and Drinking > Restaurant > Mexican Restaurant > Taco Restaurant'],b'\x00\x00\x00\x00\x01\xc0Yk\n\x10\xa2\xde\x9b@5)\xbb\xd4\xe3>\x02',"{'xmin': -101.67248931794386, 'ymin': 21.16302233264833, 'xmax': -101.67248931794386, 'ymax': 21.16302233264833}",dining and drinking > restaurant > mexican restaurant > taco restaurant,1
5ca966c8b9b37b002cde50a0,Taqueria Arboledas,19.277168,-103.729328,,Villa de Álvarez,COL,28978,,,,MX,2019-04-07,2020-11-24,,,,,,,,['4bf58dd8d48988d151941735'],['Dining and Drinking > Restaurant > Mexican Restaurant > Taco Restaurant'],b'\x00\x00\x00\x00\x01\xc0Y\xee\xadOY\x03\xa7@3F\xf4{g\x7fk',"{'xmin': -103.729328, 'ymin': 19.277168, 'xmax': -103.729328, 'ymax': 19.277168}",dining and drinking > restaurant > mexican restaurant > taco restaurant,1
5430c75f498e1a4f90660a8f,Tacos Angus,21.122169494628906,-101.64939880371094,Copal,Leon,Guanajuato,,,,,MX,2014-10-05,2020-11-30,,,,,,,,['4bf58dd8d48988d151941735'],['Dining and Drinking > Restaurant > Mexican Restaurant > Taco Restaurant'],b'\x00\x00\x00\x00\x01\xc0Yi\x8f\xc0\x00\x00\x00@5\x1fF\x80\x00\x00\x00',"{'xmin': -101.64939880371094, 'ymin': 21.122169494628906, 'xmax': -101.64939880371094, 'ymax': 21.122169494628906}",dining and drinking > restaurant > mexican restaurant > taco restaurant,1
58642d3f8ab03f69fed0ae72,"Taqueria ""La Grapa""",20.679804,-102.574955,,San Jose de Gracia,Jalisco,,,,,MX,2016-12-28,2020-11-30,,,,,,,,['4bf58dd8d48988d151941735'],['Dining and Drinking > Restaurant > Mexican Restaurant > Taco Restaurant'],b'\x00\x00\x00\x00\x01\xc0Y\xa4\xcc\x10\x0ej\xfd@4\xae\x07\xa2\x8b\xb0\xa3',"{'xmin': -102.574955, 'ymin': 20.679804, 'xmax': -102.574955, 'ymax': 20.679804}",dining and drinking > restaurant > mexican restaurant > taco restaurant,1
5d6c2e777c763a0008a24f7f,Tacos & Fish,21.917192,-102.312452,Monte Everest 104-10,Aguascalientes,AGS,20127,,,,MX,2019-09-01,2023-09-13,,,,,,,,['4bf58dd8d48988d151941735' '4bf58dd8d48988d1ce941735'],"['Dining and Drinking > Restaurant > Mexican Restaurant > Taco Restaurant'
 'Dining and Drinking > Restaurant > Seafood Restaurant']","b""\x00\x00\x00\x00\x01\xc0Y\x93\xff6\xacdw@5\xea\xcd\x18L' ""","{'xmin': -102.312452, 'ymin': 21.917192, 'xmax': -102.312452, 'ymax': 21.917192}","dining and drinking > restaurant > mexican restaurant > taco restaurant, dining and drinking > restaurant > seafood restaurant",1
4dd8013852b1a5c6445b20db,Taquiza & Fish Tacos,20.751651,-105.325418,,Bucerias,NAY,,,,,MX,2011-05-21,2020-11-23,,,,,,,,['4bf58dd8d48988d151941735'],['Dining and Drinking > Restaurant > Mexican Restaurant > Taco Restaurant'],b'\x00\x00\x00\x00\x01\xc0ZT\xd3\xa6\x04\xe1\xe7@4\xc0l3/\x01u',"{'xmin': -105.325418, 'ymin': 20.751651, 'xmax': -105.325418, 'ymax': 20.751651}",dining and drinking > restaurant > mexican restaurant > taco restaurant,1
77c2b8b4c175407a3cb568ab,Taqueria,20.701321,-103.354713,Avenida Federalismo 1740,Guadalajara,Jalisco,44260,,,,MX,2010-11-04,2024-11-05,,,,,,,,['4bf58dd8d48988d151941735'],['Dining and Drinking > Restaurant > Mexican Restaurant > Taco Restaurant'],"b""\x00\x00\x00\x00\x01\xc0Y\xd6\xb3\x9e'\x9d\xd4@4\xb3\x89\xc5\xe6\xff~""","{'xmin': -103.354713, 'ymin': 20.701321, 'xmax': -103.354713, 'ymax': 20.701321}",dining and drinking > restaurant > mexican restaurant > taco restaurant,1
4f54f9dfe4b036244d051b9b,Tacos Y Tortas Toño,20.548578249194694,-100.81034457772562,,,,,,,,MX,2012-03-05,2021-08-16,,,,,,,,['4bf58dd8d48988d151941735'],['Dining and Drinking > Restaurant > Mexican Restaurant > Taco Restaurant'],b'\x00\x00\x00\x00\x01\xc0Y3\xdc\xaf\x80\xf4\xa3@4\x8co\x9f\xc7\x96\x91',"{'xmin': -100.81034457772562, 'ymin': 20.548578249194694, 'xmax': -100.81034457772562, 'ymax': 20.548578249194694}",dining and drinking > restaurant > mexican restaurant > taco restaurant,1
5148c80ce4b04b1945e63596,Tacos De Doña Golla,20.630152,-103.338368,,,,,,,,MX,2013-03-19,2021-08-13,,,,,,,,['4bf58dd8d48988d151941735'],['Dining and Drinking > Restaurant > Mexican Restaurant > Taco Restaurant'],b'\x00\x00\x00\x00\x01\xc0Y\xd5\xa7\xd2A\x80\xd4@4\xa1Q\xa47\x82M',"{'xmin': -103.338368, 'ymin': 20.630152, 'xmax': -103.338368, 'ymax': 20.630152}",dining and drinking > restaurant > mexican restaurant > taco restaurant,1
4e25d59452b17b2b5dd270c8,"Tacos de barbacoa ""Beto""",20.74076062401214,-103.38499102911295,Plaza San Isidro Local D-17,Zapopan,Jalisco,45100,,,,MX,2011-07-19,2020-11-22,,,,,,,,['4bf58dd8d48988d151941735'],['Dining and Drinking > Restaurant > Mexican Restaurant > Taco Restaurant'],b'\x00\x00\x00\x00\x01\xc0Y\xd8\xa3\xb1i\xd2\xc9@4\xbd\xa2|\xfeK\xf4',"{'xmin': -103.38499102911295, 'ymin': 20.74076062401214, 'xmax': -103.38499102911295, 'ymax': 20.74076062401214}",dining and drinking > restaurant > mexican restaurant > taco restaurant,1
5b6b5128a42362002c63c70f,Taquería El Infierno Uriangato,20.119913,-101.177585,,Uriangato,GTO,38986,,,,MX,2018-08-08,2020-11-20,,,,,,,,['4bf58dd8d48988d151941735'],['Dining and Drinking > Restaurant > Mexican Restaurant > Taco Restaurant'],b'\x00\x00\x00\x00\x01\xc0YK]\x8dy\xd0\xa6@4\x1e\xb2\x9eM]\x81',"{'xmin': -101.177585, 'ymin': 20.119913, 'xmax': -101.177585, 'ymax': 20.119913}",dining and drinking > restaurant > mexican restaurant > taco restaurant,1
52222be0498e09c961adcd5c,Tacos Nastys,20.640433,-103.352163,,,,,,,,MX,2013-08-31,2021-08-13,,,,,,,,['4bf58dd8d48988d151941735'],['Dining and Drinking > Restaurant > Mexican Restaurant > Taco Restaurant'],b'\x00\x00\x00\x00\x01\xc0Y\xd6\x89\xd6\xad\xf7\x1f@4\xa3\xf3j\xc6Gx',"{'xmin': -103.352163, 'ymin': 20.640433, 'xmax': -103.352163, 'ymax': 20.640433}",dining and drinking > restaurant > mexican restaurant > taco restaurant,1
53ada144498ef53631305654,Tacos con Don Pancho,20.654337,-103.418329,,,,,,,,MX,2014-06-27,2021-08-14,,,,,,,,['4bf58dd8d48988d151941735'],['Dining and Drinking > Restaurant > Mexican Restaurant > Taco Restaurant'],b'\x00\x00\x00\x00\x01\xc0Y\xda\xc5\xe6\xff}\xfa@4\xa7\x82\xa1/\x90\x11',"{'xmin': -103.418329, 'ymin': 20.654337, 'xmax': -103.418329, 'ymax': 20.654337}",dining and drinking > restaurant > mexican restaurant > taco restaurant,1
5b6ef92ddd12f8002c3bbd4a,Los Otros De Asada,20.539625,-100.81787,Antonio Garcia Cubas,Celaya,Guanajuato,38010,,,,MX,2018-08-11,2020-11-23,,,,,,,,['4bf58dd8d48988d151941735'],['Dining and Drinking > Restaurant > Mexican Restaurant > Taco Restaurant'],b'\x00\x00\x00\x00\x01\xc0Y4W\xfbi\x98J@4\x8a$\xdd/\x1a\xa0',"{'xmin': -100.81787, 'ymin': 20.539625, 'xmax': -100.81787, 'ymax': 20.539625}",dining and drinking > restaurant > mexican restaurant > taco restaurant,1
5771ed8f498e342d60134798,Tacos el Tigre,20.298567,-101.598625,Pastor Ortiz,Michoacán,,,,,,MX,2016-06-28,2021-08-12,,,,,,,,['4bf58dd8d48988d151941735'],['Dining and Drinking > Restaurant > Mexican Restaurant > Taco Restaurant'],b'\x00\x00\x00\x00\x01\xc0YfO\xdf;dZ@4Ln\xe3\x0c\xaa2',"{'xmin': -101.598625, 'ymin': 20.298567, 'xmax': -101.598625, 'ymax': 20.298567}",dining and drinking > restaurant > mexican restaurant > taco restaurant,1
59d83e6435811b3a0fe33fff,Tacos Gourmet,20.721178,-103.36362,Av Atemajac 1375,Zapopan,Jalisco,45190,,,,MX,2017-10-07,2020-11-26,,,,,,,,['4bf58dd8d48988d151941735' '4bf58dd8d48988d1cb941735'],"['Dining and Drinking > Restaurant > Mexican Restaurant > Taco Restaurant'
 'Dining and Drinking > Food Truck']",b'\x00\x00\x00\x00\x01\xc0Y\xd7E\x8c\xd2\n\xfa@4\xb8\x9f\x1f\x14\x98=',"{'xmin': -103.36362, 'ymin': 20.721178, 'xmax': -103.36362, 'ymax': 20.721178}","dining and drinking > restaurant > mexican restaurant > taco restaurant, dining and drinking > food truck",1
4da9fe6ef7b145b370064c43,Pastor Del Sol,20.651218628115505,-103.39958516527501,Plaza Del Sol,Zapopan,,,,,,MX,2011-04-16,2021-11-25,,,,,,,,['4bf58dd8d48988d1c1941735' '4bf58dd8d48988d151941735'],"['Dining and Drinking > Restaurant > Mexican Restaurant'
 'Dining and Drinking > Restaurant > Mexican Restaurant > Taco Restaurant']",b'\x00\x00\x00\x00\x01\xc0Y\xd9\x92\xcd\xa84\xab@4\xa6\xb6C\x96MU',"{'xmin': -103.39958516527501, 'ymin': 20.651218628115505, 'xmax': -103.39958516527501, 'ymax': 20.651218628115505}","dining and drinking > restaurant > mexican restaurant, dining and drinking > restaurant > mexican restaurant > taco restaurant",1
4e4de06d2271a1bdc3c94129,Tacos la cochera,22.137724102936115,-101.02883493875935,Cordillera himalaya 105,San Luis Potosí,,,,,,MX,2011-08-19,2020-11-22,,,,,,,,['4bf58dd8d48988d151941735'],['Dining and Drinking > Restaurant > Mexican Restaurant > Taco Restaurant'],b'\x00\x00\x00\x00\x01\xc0YA\xd8n\x7f\xbd\x07@6#A\xe3\x05\xfbG',"{'xmin': -101.02883493875935, 'ymin': 22.137724102936115, 'xmax': -101.02883493875935, 'ymax': 22.137724102936115}",dining and drinking > restaurant > mexican restaurant > taco restaurant,1
56d90b41cd108d4b2e07d9ee,La Casa Del Abuelo,21.511078646947123,-104.89904080134593,Allende 352,Tepic,Nayarit,,,,,MX,2016-03-04,2020-11-22,,,,,,,,['4bf58dd8d48988d151941735'],['Dining and Drinking > Restaurant > Mexican Restaurant > Taco Restaurant'],b'\x00\x00\x00\x00\x01\xc0Z9\x89\xe2m\xe3:@5\x82\xd6\x0c\xdaRc',"{'xmin': -104.89904080134593, 'ymin': 21.511078646947123, 'xmax': -104.89904080134593, 'ymax': 21.511078646947123}",dining and drinking > restaurant > mexican restaurant > taco restaurant,1
4fce1de2e4b0e3e7a43f4c43,Taqueria Las Fodongas,21.253616,-102.327704,,,,,,,,MX,2012-06-05,2021-08-13,,,,,,,,['4bf58dd8d48988d151941735'],['Dining and Drinking > Restaurant > Mexican Restaurant > Taco Restaurant'],b'\x00\x00\x00\x00\x01\xc0Y\x94\xf9\x1a2\xb1-@5@\xec\xfai\xbe\n',"{'xmin': -102.327704, 'ymin': 21.253616, 'xmax': -102.327704, 'ymax': 21.253616}",dining and drinking > restaurant > mexican restaurant > taco restaurant,1
51e8a94e498e64e3b04997f9,Los Piratacos,21.898756729921885,-102.31651812277114,Antiguo Camino A San Ignacio,Aguascalientes,AGS,,,,,MX,2013-07-19,2020-11-25,,,,,,,,['4bf58dd8d48988d151941735'],['Dining and Drinking > Restaurant > Mexican Restaurant > Taco Restaurant'],b'\x00\x00\x00\x00\x01\xc0Y\x94A\xd5:y-@5\xe6\x14\xeb\xca\x13\x0c',"{'xmin': -102.31651812277114, 'ymin': 21.898756729921885, 'xmax': -102.31651812277114, 'ymax': 21.898756729921885}",dining and drinking > restaurant > mexican restaurant > taco restaurant,1
59b5f5950d8a0f0528e7fa3a,El Asador De Los Tocayos,20.609293,-103.35865,,San Pedro Tlaquepaque,Jalisco,,,,,MX,2017-09-11,2020-11-23,,,,,,,,['4bf58dd8d48988d151941735'],['Dining and Drinking > Restaurant > Mexican Restaurant > Taco Restaurant'],b'\x00\x00\x00\x00\x01\xc0Y\xd6\xf4\x1f!-w@4\x9b\xfa\xa0D\xae\x86',"{'xmin': -103.35865, 'ymin': 20.609293, 'xmax': -103.35865, 'ymax': 20.609293}",dining and drinking > restaurant > mexican restaurant > taco restaurant,1
50fd70f5e4b02fe31b0dcc89,"Tacos ""Soto""",21.4934,-104.8806,Fracc. las aves,tepic,nayarit,,,,,MX,2013-01-21,2020-11-30,,,,,,,,['4bf58dd8d48988d151941735'],['Dining and Drinking > Restaurant > Mexican Restaurant > Taco Restaurant'],b'\x00\x00\x00\x00\x01\xc0Z8[\xc0\x1a6\xe3@5~Ov_\xd8\xae',"{'xmin': -104.8806, 'ymin': 21.4934, 'xmax': -104.8806, 'ymax': 21.4934}",dining and drinking > restaurant > mexican restaurant > taco restaurant,1
567232c5498e858acfc38821,Taquería Arandas,20.811335423520287,-102.76476384724344,Niños Héroes,Tepatitlán de Morelos,Jalisco,,,,,MX,2015-12-17,2020-11-24,,,,,,,,['4bf58dd8d48988d151941735'],['Dining and Drinking > Restaurant > Mexican Restaurant > Taco Restaurant'],b'\x00\x00\x00\x00\x01\xc0Y\xb0\xf1\xe4\x10D\xb8@4\xcf\xb3\xad\xa6\x1b\x1f',"{'xmin': -102.76476384724344, 'ymin': 20.811335423520287, 'xmax': -102.76476384724344, 'ymax': 20.811335423520287}",dining and drinking > restaurant > mexican restaurant > taco restaurant,1
55bd7c66498ea2a02aec7a54,"Carnes Asadas al Carbón ""La Amiga""",20.672857,-103.358426,,,,,,,,MX,2015-08-02,2021-08-15,,,,,,,,['4bf58dd8d48988d151941735'],['Dining and Drinking > Restaurant > Mexican Restaurant > Taco Restaurant'],b'\x00\x00\x00\x00\x01\xc0Y\xd6\xf0s\x9b\x02O@4\xac@[9\xe2z',"{'xmin': -103.358426, 'ymin': 20.672857, 'xmax': -103.358426, 'ymax': 20.672857}",dining and drinking > restaurant > mexican restaurant > taco restaurant,1
510c8bb2e4b033507cf0adf2,Tacos Tito's,20.618318146793165,-103.41920809737563,Av. Mazamitla,Zapopan,Jalisco,,,,,MX,2013-02-02,2020-11-23,,,,,,,,['4bf58dd8d48988d151941735'],['Dining and Drinking > Restaurant > Mexican Restaurant > Taco Restaurant'],b'\x00\x00\x00\x00\x01\xc0Y\xda\xd4N3\x1c\x97@4\x9eJ\x19\x1a\xff\xfe',"{'xmin': -103.41920809737563, 'ymin': 20.618318146793165, 'xmax': -103.41920809737563, 'ymax': 20.618318146793165}",dining and drinking > restaurant > mexican restaurant > taco restaurant,1
61b27f8b690a1f78ab805d3b,Mi Lechoncito,21.938338,-102.32495,,Jesús María,AGS,20900,,,,MX,2021-12-09,2023-12-21,,449 363 4104,,,,,,['4bf58dd8d48988d151941735' '4bf58dd8d48988d1c5941735'],"['Dining and Drinking > Restaurant > Mexican Restaurant > Taco Restaurant'
 'Dining and Drinking > Restaurant > Sandwich Spot']",b'\x00\x00\x00\x00\x01\xc0Y\x94\xcb\xfb\x15\xb5t@5\xf06\xebN\x98\x14',"{'xmin': -102.32495, 'ymin': 21.938338, 'xmax': -102.32495, 'ymax': 21.938338}","dining and drinking > restaurant > mexican restaurant > taco restaurant, dining and drinking > restaurant > sandwich spot",1
640e7a149dc90a477fa23748,Mr Alex Tacos De Birria,19.35014,-103.657776,calzada Galván sur,Colima,Colima,28535,,,,MX,2023-03-13,2023-03-13,,,,,,,,['4bf58dd8d48988d151941735'],['Dining and Drinking > Restaurant > Mexican Restaurant > Taco Restaurant'],b'\x00\x00\x00\x00\x01\xc0Y\xea\x19\x00\x82\x05\xff@3Y\xa2\xc6i\x05}',"{'xmin': -103.657776, 'ymin': 19.35014, 'xmax': -103.657776, 'ymax': 19.35014}",dining and drinking > restaurant > mexican restaurant > taco restaurant,1
4e51b6837d8bd425e4b003d5,Tacos Gaby,19.117405,-104.351963,,Manzanillo,Colima,,,,,MX,2011-08-22,2020-11-30,,,,,,,,['4bf58dd8d48988d151941735'],['Dining and Drinking > Restaurant > Mexican Restaurant > Taco Restaurant'],b'\x00\x00\x00\x00\x01\xc0Z\x16\x86\x8f\xd1\x99\xbb@3\x1e\x0eA\x0bc\x0b',"{'xmin': -104.351963, 'ymin': 19.117405, 'xmax': -104.351963, 'ymax': 19.117405}",dining and drinking > restaurant > mexican restaurant > taco restaurant,1
50742ce0e4b03cb6bbc1025c,Tacos El K-paz,21.882570356335496,-102.26499932066373,Av Lopez mateos,Aguascalientes,AGS,,,,,MX,2012-10-09,2020-11-22,,,,,,,,['4bf58dd8d48988d151941735'],['Dining and Drinking > Restaurant > Mexican Restaurant > Taco Restaurant'],b'\x00\x00\x00\x00\x01\xc0Y\x90\xf5\xbf\xb5\xed\xa1@5\xe1\xf0!\x80\xe1I',"{'xmin': -102.26499932066373, 'ymin': 21.882570356335496, 'xmax': -102.26499932066373, 'ymax': 21.882570356335496}",dining and drinking > restaurant > mexican restaurant > taco restaurant,1
5a2defb5e96d0c17ba8da0fa,Taqueria El Campestre,20.685254,-101.37728,,Irapuato,GTO,36515,,,,MX,2017-12-11,2020-11-23,,,,,,,,['4bf58dd8d48988d151941735'],['Dining and Drinking > Restaurant > Mexican Restaurant > Taco Restaurant'],b'\x00\x00\x00\x00\x01\xc0YX%[\x03[\xd5@4\xafl\xce_t\x04',"{'xmin': -101.37728, 'ymin': 20.685254, 'xmax': -101.37728, 'ymax': 20.685254}",dining and drinking > restaurant > mexican restaurant > taco restaurant,1
4f9f5df6e4b027acbf08573d,La parrilla de la Villa,19.28179636373784,-103.72872152631663,,,,,,,,MX,2012-05-01,2020-11-22,,,,,,,,['4bf58dd8d48988d151941735'],['Dining and Drinking > Restaurant > Mexican Restaurant > Taco Restaurant'],b'\x00\x00\x00\x00\x01\xc0Y\xee\xa3_\x9c\xda\xf4@3H#\xcevb\xc0',"{'xmin': -103.72872152631663, 'ymin': 19.28179636373784, 'xmax': -103.72872152631663, 'ymax': 19.28179636373784}",dining and drinking > restaurant > mexican restaurant > taco restaurant,1
4dfcb746b61c84188eeda26d,Tacos Mary,19.103316639350844,-104.32776680383479,,Manzanillo Municipality,COL,,,,,MX,2011-06-18,2021-08-13,,,,,,,,['4bf58dd8d48988d151941735'],['Dining and Drinking > Restaurant > Mexican Restaurant > Taco Restaurant'],b'\x00\x00\x00\x00\x01\xc0Z\x14\xfa!\x9d\xcb\xd5@3\x1ar\xf5\x93$\xfe',"{'xmin': -104.32776680383479, 'ymin': 19.103316639350844, 'xmax': -104.32776680383479, 'ymax': 19.103316639350844}",dining and drinking > restaurant > mexican restaurant > taco restaurant,1
66821e95ba97af6454a48bbc,Tacos San Pedro,21.037008,-101.846271,Hacienda De Flores,San Francisco del Rincón,Gto.,36312,,,,MX,2024-07-01,2024-07-01,,,,,,,,['4bf58dd8d48988d151941735'],['Dining and Drinking > Restaurant > Mexican Restaurant > Taco Restaurant'],b'\x00\x00\x00\x00\x01\xc0Yv)M\xd7#h@5\ty[5\xb0\xbc',"{'xmin': -101.846271, 'ymin': 21.037008, 'xmax': -101.846271, 'ymax': 21.037008}",dining and drinking > restaurant > mexican restaurant > taco restaurant,1
4e97a37adab454407ee67552,Taqueria Paco's,21.508762558321568,-104.90563450841493,Av Jacarandas,,,,,,,MX,2011-10-14,2023-12-19,,311 165 7472,,,,,,['4bf58dd8d48988d1c1941735' '4bf58dd8d48988d151941735'],"['Dining and Drinking > Restaurant > Mexican Restaurant'
 'Dining and Drinking > Restaurant > Mexican Restaurant > Taco Restaurant']",b'\x00\x00\x00\x00\x01\xc0Z9\xf5\xeap\xf1[@5\x82>CUk\xa1',"{'xmin': -104.90563450841493, 'ymin': 21.508762558321568, 'xmax': -104.90563450841493, 'ymax': 21.508762558321568}","dining and drinking > restaurant > mexican restaurant, dining and drinking > restaurant > mexican restaurant > taco restaurant",1
55e87915498e4b103c827520,tacos y tortas nacho,21.142089,-101.655708,,,,,,,,MX,2015-09-03,2021-08-12,,,,,,,,['4bf58dd8d48988d151941735'],['Dining and Drinking > Restaurant > Mexican Restaurant > Taco Restaurant'],b'\x00\x00\x00\x00\x01\xc0Yi\xf7\x1e\xaf\xeep@5$_\xf1\xd8\x1f\x10',"{'xmin': -101.655708, 'ymin': 21.142089, 'xmax': -101.655708, 'ymax': 21.142089}",dining and drinking > restaurant > mexican restaurant > taco restaurant,1
4d542abfdcb1a1433cc1bbbf,Carnitas Chelis,20.061209178474027,-102.71648768248673,Blvd Lázaro Cárdenas Norte 257-B,"Sahuayo de Morelos, MICH",Michoacán,,,,,MX,2011-02-10,2020-11-23,,353 128 1980,,,565815096871723.0,,,"['4bf58dd8d48988d1c1941735' '4bf58dd8d48988d151941735'
 '4bf58dd8d48988d1c5941735']","['Dining and Drinking > Restaurant > Mexican Restaurant'
 'Dining and Drinking > Restaurant > Mexican Restaurant > Taco Restaurant'
 'Dining and Drinking > Restaurant > Sandwich Spot']","b""\x00\x00\x00\x00\x01\xc0Y\xad\xda\xef'\x11\x1c@4\x0f\xabg\x9b\xc2\xcf""","{'xmin': -102.71648768248673, 'ymin': 20.061209178474027, 'xmax': -102.71648768248673, 'ymax': 20.061209178474027}","dining and drinking > restaurant > mexican restaurant, dining and drinking > restaurant > mexican restaurant > taco restaurant, dining and drinking > restaurant > sandwich spot",1
506d081fe4b0efc1272d29a3,"Taqueria ""La Lupita""",19.29289808164934,-99.6655567818573,,,,,,,,MX,2012-10-04,2021-08-10,,,,,,,,['4bf58dd8d48988d151941735'],['Dining and Drinking > Restaurant > Mexican Restaurant > Taco Restaurant'],b'\x00\x00\x00\x00\x01\xc0X\xea\x98{x\xedR@3J\xfb^a\xbe\xbc',"{'xmin': -99.6655567818573, 'ymin': 19.29289808164934, 'xmax': -99.6655567818573, 'ymax': 19.29289808164934}",dining and drinking > restaurant > mexican restaurant > taco restaurant,1
52df329f498e25f4ccf5ebe1,Bombon Mixe,17.055967461105787,-96.72260707735643,,,,,,,,MX,2014-01-22,2021-08-14,,,,,,,,['4bf58dd8d48988d151941735'],['Dining and Drinking > Restaurant > Mexican Restaurant > Taco Restaurant'],b'\x00\x00\x00\x00\x01\xc0X.?1\xc1F\xa8@1\x0eS\xe2/\x16\xea',"{'xmin': -96.72260707735643, 'ymin': 17.055967461105787, 'xmax': -96.72260707735643, 'ymax': 17.055967461105787}",dining and drinking > restaurant > mexican restaurant > taco restaurant,1
4fcc2ccce4b07c4ac01d04e5,"Tacos ""Doña Mary""",16.860068611422957,-99.90476671024537,Calle de la Fabrica s/n,Acapulco,Guerrero,39590,,,,MX,2012-06-04,2020-11-30,,,,,,,,['4bf58dd8d48988d151941735'],['Dining and Drinking > Restaurant > Mexican Restaurant > Taco Restaurant'],b'\x00\x00\x00\x00\x01\xc0X\xf9\xe7\xb2\xa1\xc0\xdb@0\xdc-t\xde`\xb3',"{'xmin': -99.90476671024537, 'ymin': 16.860068611422957, 'xmax': -99.90476671024537, 'ymax': 16.860068611422957}",dining and drinking > restaurant > mexican restaurant > taco restaurant,1
50de54f0e4b0f340fbe01b82,Doritaco,19.31452462926237,-99.16136966749187,Moctecuzoma Y Coras,,,,,,,MX,2012-12-29,2021-08-12,,,,,,,,['4bf58dd8d48988d151941735'],['Dining and Drinking > Restaurant > Mexican Restaurant > Taco Restaurant'],b'\x00\x00\x00\x00\x01\xc0X\xcaS\xe1q\x1cj@3P\x84\xaf\xa4w\xe9',"{'xmin': -99.16136966749187, 'ymin': 19.31452462926237, 'xmax': -99.16136966749187, 'ymax': 19.31452462926237}",dining and drinking > restaurant > mexican restaurant > taco restaurant,1
577d3261498e658cdeae281d,Todo Pibil,19.20001,-96.137641,,,,,,,,MX,2016-07-06,2021-08-14,,,,,,,,['4bf58dd8d48988d151941735'],['Dining and Drinking > Restaurant > Mexican Restaurant > Taco Restaurant'],b'\x00\x00\x00\x00\x01\xc0X\x08\xcf\x1c2e\xae@333\xda\xf8\xdfz',"{'xmin': -96.137641, 'ymin': 19.20001, 'xmax': -96.137641, 'ymax': 19.20001}",dining and drinking > restaurant > mexican restaurant > taco restaurant,1
507a295be4b03bba60c4a724,Fokus,19.18079895661569,-96.12461956956554,Santos Pérez Abascal,Veracruz,Veracruz,91910,,,,MX,2012-10-14,2020-11-25,,,,,,,,['4bf58dd8d48988d151941735'],['Dining and Drinking > Restaurant > Mexican Restaurant > Taco Restaurant'],b'\x00\x00\x00\x00\x01\xc0X\x07\xf9\xc4[\xeep@3.H\xd7%\xd0\xb8',"{'xmin': -96.12461956956554, 'ymin': 19.18079895661569, 'xmax': -96.12461956956554, 'ymax': 19.18079895661569}",dining and drinking > restaurant > mexican restaurant > taco restaurant,1
4ff10311e4b0616aab0399c3,Tacos Richard,20.006004456511313,-102.27972670249682,,,,,,,,MX,2012-07-02,2021-08-13,,,,,,,,['4bf58dd8d48988d151941735'],['Dining and Drinking > Restaurant > Mexican Restaurant > Taco Restaurant'],b'\x00\x00\x00\x00\x01\xc0Y\x91\xe7\n\xd3\xc2\xac@4\x01\x89\x82\x10X\xaa',"{'xmin': -102.27972670249682, 'ymin': 20.006004456511313, 'xmax': -102.27972670249682, 'ymax': 20.006004456511313}",dining and drinking > restaurant > mexican restaurant > taco restaurant,1
5c9a94886f0aa2002c6bf448,Plaza Del Taquito,19.272821,-99.634926,,Toluca de Lerdo,Estado de México,50140,,,,MX,2019-03-26,2020-11-24,,,,,,,,['4bf58dd8d48988d151941735'],['Dining and Drinking > Restaurant > Mexican Restaurant > Taco Restaurant'],b'\x00\x00\x00\x00\x01\xc0X\xe8\xa2\xa0\xa9XS@3E\xd7\x98\xd8\xa9z',"{'xmin': -99.634926, 'ymin': 19.272821, 'xmax': -99.634926, 'ymax': 19.272821}",dining and drinking > restaurant > mexican restaurant > taco restaurant,1
5737c9c3498eeae084690838,"Taquería ""Sierra Mixe""",19.205984,-99.14951,,,,,,,,MX,2016-05-15,2021-08-11,,,,,,,,['4bf58dd8d48988d151941735'],['Dining and Drinking > Restaurant > Mexican Restaurant > Taco Restaurant'],b'\x00\x00\x00\x00\x01\xc0X\xc9\x91\x92d\x1b3@34\xbb^\x0f\x7f\xd0',"{'xmin': -99.14951, 'ymin': 19.205984, 'xmax': -99.14951, 'ymax': 19.205984}",dining and drinking > restaurant > mexican restaurant > taco restaurant,1
5aa22f20acc5f55cdf525481,El Mexicano,20.284536,-103.42452,,Jocotepec,Jalisco,45800,,,,MX,2018-03-09,2020-11-25,,,,,,,,['4bf58dd8d48988d151941735'],['Dining and Drinking > Restaurant > Mexican Restaurant > Taco Restaurant'],b'\x00\x00\x00\x00\x01\xc0Y\xdb+U\xef\x1f\xde@4H\xd7Y\xee\x88\xdf',"{'xmin': -103.42452, 'ymin': 20.284536, 'xmax': -103.42452, 'ymax': 20.284536}",dining and drinking > restaurant > mexican restaurant > taco restaurant,1
5cf44fd1f1936e002c19d4f9,La Frida Grill,18.090495,-96.126962,,San Juan Bautista Tuxtepec,OAX,68310,,,,MX,2019-06-02,2020-11-25,,,,,,,,['4bf58dd8d48988d151941735'],['Dining and Drinking > Restaurant > Mexican Restaurant > Taco Restaurant'],b'\x00\x00\x00\x00\x01\xc0X\x08 %9um@2\x17*\xae)s\x97',"{'xmin': -96.126962, 'ymin': 18.090495, 'xmax': -96.126962, 'ymax': 18.090495}",dining and drinking > restaurant > mexican restaurant > taco restaurant,1
4eff58f1f9abd5b390160fa5,Tacos Pancho Jugos Y Licuados,18.78111,-95.769832,Pedro Alvarado,,,,,,,MX,2011-12-31,2021-08-10,,,,,,,,['4bf58dd8d48988d151941735'],['Dining and Drinking > Restaurant > Mexican Restaurant > Taco Restaurant'],b'\x00\x00\x00\x00\x01\xc0W\xf1D\xedo\xda\x83@2\xc7\xf6\xd30\x94\x1d',"{'xmin': -95.769832, 'ymin': 18.78111, 'xmax': -95.769832, 'ymax': 18.78111}",dining and drinking > restaurant > mexican restaurant > taco restaurant,1
4e6c201eb61c739ba86c5105,Tacos de La Glorieta,19.40390622219331,-102.0531764717257,Av Latinoamericana,Uruapan,Michoacán de Ocampo,,,,,MX,2011-09-11,2020-11-24,,,,,,,,['4bf58dd8d48988d151941735'],['Dining and Drinking > Restaurant > Mexican Restaurant > Taco Restaurant'],b'\x00\x00\x00\x00\x01\xc0Y\x83g>I\xbe\xa1@3gfe\xee\xf8\x9f',"{'xmin': -102.0531764717257, 'ymin': 19.40390622219331, 'xmax': -102.0531764717257, 'ymax': 19.40390622219331}",dining and drinking > restaurant > mexican restaurant > taco restaurant,1
510c8c93e4b075af04934c5b,Taqueria Los Arcos,20.337155,-102.774609,,,,,,,,MX,2013-02-02,2021-08-15,,,,,,,,['4bf58dd8d48988d151941735'],['Dining and Drinking > Restaurant > Mexican Restaurant > Taco Restaurant'],b'\x00\x00\x00\x00\x01\xc0Y\xb1\x931\xa0\x8b\xfc@4VO\xcaB\xae\xd1',"{'xmin': -102.774609, 'ymin': 20.337155, 'xmax': -102.774609, 'ymax': 20.337155}",dining and drinking > restaurant > mexican restaurant > taco restaurant,1
50e0ff30e4b0c9708d79b390,Tacos Orientales & Tacos Árabes,18.898789408866428,-96.94526014284462,Ave 9 No. 2217 Col. San José,Córdoba,Veracruz,,,,,MX,2012-12-31,2020-11-21,,271 716 0952,,,,,,['4bf58dd8d48988d151941735'],['Dining and Drinking > Restaurant > Mexican Restaurant > Taco Restaurant'],b'\x00\x00\x00\x00\x01\xc0X<\x7f$e\xee\xb7@2\xe6\x17\x10\r\x12\x8e',"{'xmin': -96.94526014284462, 'ymin': 18.898789408866428, 'xmax': -96.94526014284462, 'ymax': 18.898789408866428}",dining and drinking > restaurant > mexican restaurant > taco restaurant,1
4ffc613de4b044d6aff405fe,Los Auténticos Martínez.,17.09844207763672,-96.75000762939453,,,,,,,,MX,2012-07-10,2021-08-11,,,,,,,,['4bf58dd8d48988d151941735'],['Dining and Drinking > Restaurant > Mexican Restaurant > Taco Restaurant'],b'\x00\x00\x00\x00\x01\xc0X0\x00 \x00\x00\x00@1\x193\x80\x00\x00\x00',"{'xmin': -96.75000762939453, 'ymin': 17.09844207763672, 'xmax': -96.75000762939453, 'ymax': 17.09844207763672}",dining and drinking > restaurant > mexican restaurant > taco restaurant,1
5294e69611d2f248fe9a6ae3,Carnitas Del SAT,19.277029891046116,-99.12657842880306,Majuelos,Xochimilco,,,,,,MX,2013-11-26,2020-11-30,,,,,,,,['4bf58dd8d48988d151941735'],['Dining and Drinking > Restaurant > Mexican Restaurant > Taco Restaurant'],b'\x00\x00\x00\x00\x01\xc0X\xc8\x19\xdci\x05\xa5@3F\xebnR\x0e\xb9',"{'xmin': -99.12657842880306, 'ymin': 19.277029891046116, 'xmax': -99.12657842880306, 'ymax': 19.277029891046116}",dining and drinking > restaurant > mexican restaurant > taco restaurant,1
534e052e498e0ea2e4cb6424,El Tacon-tento,17.07571856456314,-96.72578926022344,,,,,,,,MX,2014-04-16,2021-08-15,,,,,,,,['4bf58dd8d48988d151941735'],['Dining and Drinking > Restaurant > Mexican Restaurant > Taco Restaurant'],b'\x00\x00\x00\x00\x01\xc0X.sT\xcc\x1c\xa7@1\x13bJ\xb6\x7f\xae',"{'xmin': -96.72578926022344, 'ymin': 17.07571856456314, 'xmax': -96.72578926022344, 'ymax': 17.07571856456314}",dining and drinking > restaurant > mexican restaurant > taco restaurant,1
52be2e8f498ed14d88f17fb4,tacos de carne,19.319896,-99.103015,,,,,,,,MX,2013-12-28,2021-08-16,,,,,,,,['4bf58dd8d48988d151941735'],['Dining and Drinking > Restaurant > Mexican Restaurant > Taco Restaurant'],b'\x00\x00\x00\x00\x01\xc0X\xc6\x97\xcc9\xff\xd6@3Q\xe4\xb4J\x1f\x08',"{'xmin': -99.103015, 'ymin': 19.319896, 'xmax': -99.103015, 'ymax': 19.319896}",dining and drinking > restaurant > mexican restaurant > taco restaurant,1
4f17a2aae4b062dab92894f0,Taqueria Chabela,18.231670639223395,-95.94973613757007,,,,,,,,MX,2012-01-19,2021-08-16,,,,,,,,['4bf58dd8d48988d151941735'],['Dining and Drinking > Restaurant > Mexican Restaurant > Taco Restaurant'],b'\x00\x00\x00\x00\x01\xc0W\xfc\xc8z\x14\xacW@2;N\xc4Z\xe8l',"{'xmin': -95.94973613757007, 'ymin': 18.231670639223395, 'xmax': -95.94973613757007, 'ymax': 18.231670639223395}",dining and drinking > restaurant > mexican restaurant > taco restaurant,1
567b5394498e79029efa54aa,Taqueria Karito,15.136011,-92.46182,,,,,,,,MX,2015-12-24,2021-08-16,,,,,,,,['4bf58dd8d48988d151941735'],['Dining and Drinking > Restaurant > Mexican Restaurant > Taco Restaurant'],b'\x00\x00\x00\x00\x01\xc0W\x1d\x8euy(\xe1@.E\xa3;\xd9\xca\xe2',"{'xmin': -92.46182, 'ymin': 15.136011, 'xmax': -92.46182, 'ymax': 15.136011}",dining and drinking > restaurant > mexican restaurant > taco restaurant,1
52eb21cb498e08fcd019f9e9,Taqueria TAMIX,19.171781545401522,-96.12873903577774,Av . Cristóbal Colón,,,,,,,MX,2014-01-31,2021-08-13,,,,,,,,['4bf58dd8d48988d1c1941735' '4bf58dd8d48988d151941735'],"['Dining and Drinking > Restaurant > Mexican Restaurant'
 'Dining and Drinking > Restaurant > Mexican Restaurant > Taco Restaurant']",b'\x00\x00\x00\x00\x01\xc0X\x08=B\xa7\x18\x93@3+\xf9\xe0\x17\x8eN',"{'xmin': -96.12873903577774, 'ymin': 19.171781545401522, 'xmax': -96.12873903577774, 'ymax': 19.171781545401522}","dining and drinking > restaurant > mexican restaurant, dining and drinking > restaurant > mexican restaurant > taco restaurant",1
5b5bd9346f0aa2002cfe41e3,Tacos El Joven,20.549582,-103.44491,,Santa Anita,Jalisco,45600,,,,MX,2018-07-28,2020-11-21,,,,,,,,['4bf58dd8d48988d151941735'],['Dining and Drinking > Restaurant > Mexican Restaurant > Taco Restaurant'],b'\x00\x00\x00\x00\x01\xc0Y\xdcyg\xca\xeat@4\x8c\xb1g\xecxd',"{'xmin': -103.44491, 'ymin': 20.549582, 'xmax': -103.44491, 'ymax': 20.549582}",dining and drinking > restaurant > mexican restaurant > taco restaurant,1
5676e26f498e4168904f0dcc,Tacos De Borrego,18.35724179721623,-95.80422509343276,,,,,,,,MX,2015-12-20,2021-08-11,,,,,,,,['4bf58dd8d48988d151941735'],['Dining and Drinking > Restaurant > Mexican Restaurant > Taco Restaurant'],b'\x00\x00\x00\x00\x01\xc0W\xf3xl\x86\xba\xa4@2[t2\xcb\xce\xd7',"{'xmin': -95.80422509343276, 'ymin': 18.35724179721623, 'xmax': -95.80422509343276, 'ymax': 18.35724179721623}",dining and drinking > restaurant > mexican restaurant > taco restaurant,1
530ac05f498e66974d795f9f,El Rey del Taco,18.465356357067723,-97.40083878578938,Héroes De Nacozari #202,Tehuacán,Puebla,,,,,MX,2014-02-24,2020-11-23,,,,,,,,['4bf58dd8d48988d151941735'],['Dining and Drinking > Restaurant > Mexican Restaurant > Taco Restaurant'],b'\x00\x00\x00\x00\x01\xc0XY\xa7W\xb8\xfb\xc2@2w!\x98\x1e\x97q',"{'xmin': -97.40083878578938, 'ymin': 18.465356357067723, 'xmax': -97.40083878578938, 'ymax': 18.465356357067723}",dining and drinking > restaurant > mexican restaurant > taco restaurant,1
5aa31805628c830943964e9b,Los Pibiles,19.268698,-99.16451,,,,,,,,MX,2018-03-09,2021-08-14,,,,,,,,['4bf58dd8d48988d151941735'],['Dining and Drinking > Restaurant > Mexican Restaurant > Taco Restaurant'],b'\x00\x00\x00\x00\x01\xc0X\xca\x87T\xf3w\\@3D\xc9db\x80(',"{'xmin': -99.16451, 'ymin': 19.268698, 'xmax': -99.16451, 'ymax': 19.268698}",dining and drinking > restaurant > mexican restaurant > taco restaurant,1
52917468498e2d5c68ec243c,"Taquería ""Los Bucaneros""",19.702850548666465,-101.1867256659093,,,,,,,,MX,2013-11-24,2021-08-17,,,,,,,,['4bf58dd8d48988d151941735'],['Dining and Drinking > Restaurant > Mexican Restaurant > Taco Restaurant'],b'\x00\x00\x00\x00\x01\xc0YK\xf3P5\x19\xdf@3\xb3\xee\x03x\x7f\x85',"{'xmin': -101.1867256659093, 'ymin': 19.702850548666465, 'xmax': -101.1867256659093, 'ymax': 19.702850548666465}",dining and drinking > restaurant > mexican restaurant > taco restaurant,1
52f6da90498e3bdf0a49bc6d,Taquitos el hornito,19.278999092382865,-99.65417665935436,,,,,,,,MX,2014-02-09,2023-12-20,,722 216 0680,,,,,,['4bf58dd8d48988d151941735'],['Dining and Drinking > Restaurant > Mexican Restaurant > Taco Restaurant'],b'\x00\x00\x00\x00\x01\xc0X\xe9\xde\x07\xc7n\xf2@3Gl|\te\xe9',"{'xmin': -99.65417665935436, 'ymin': 19.278999092382865, 'xmax': -99.65417665935436, 'ymax': 19.278999092382865}",dining and drinking > restaurant > mexican restaurant > taco restaurant,1
5ad94493ca18ea1465c0c12f,Tacos Balta,19.405424,-102.04917,Av Lázaro Cardenas,Uruapan,Michoacán,60150,,,,MX,2018-04-20,2020-11-30,,,,,,,,['4bf58dd8d48988d151941735'],['Dining and Drinking > Restaurant > Mexican Restaurant > Taco Restaurant'],b'\x00\x00\x00\x00\x01\xc0Y\x83%\x99\xed|p@3g\xc9\xde\x05\x03u',"{'xmin': -102.04917, 'ymin': 19.405424, 'xmax': -102.04917, 'ymax': 19.405424}",dining and drinking > restaurant > mexican restaurant > taco restaurant,1
517d61c1e4b0a90ae5da8b1d,El Mexiquense,19.243356414835166,-99.61376741758242,,,,,,,,MX,2013-04-28,2020-11-22,,,,,,,,['4bf58dd8d48988d151941735'],['Dining and Drinking > Restaurant > Mexican Restaurant > Taco Restaurant'],"b'\x00\x00\x00\x00\x01\xc0X\xe7G\xf7""w{@3>L\x9b""\xfd%'","{'xmin': -99.61376741758242, 'ymin': 19.243356414835166, 'xmax': -99.61376741758242, 'ymax': 19.243356414835166}",dining and drinking > restaurant > mexican restaurant > taco restaurant,1
4cacad3497c8a1cd04faa2a5,Súper tacos miríam,19.281925155230613,-99.65528467510023,Ramón corona,Toluca,México,50130,,,,MX,2010-10-06,2021-12-20,,,,,,,,['4bf58dd8d48988d151941735'],['Dining and Drinking > Restaurant > Mexican Restaurant > Taco Restaurant'],"b'\x00\x00\x00\x00\x01\xc0X\xe9\xf0/""H\x08@3H,?9\xa2\x9d'","{'xmin': -99.65528467510023, 'ymin': 19.281925155230613, 'xmax': -99.65528467510023, 'ymax': 19.281925155230613}",dining and drinking > restaurant > mexican restaurant > taco restaurant,1
50ee2b2fe4b006e05789c1a0,La Bruja III,19.318494277129336,-99.09644222908709,Efeso,Mexico,DF,,,,,MX,2013-01-10,2020-11-24,,,,,,,,['4bf58dd8d48988d1c1941735' '4bf58dd8d48988d151941735'],"['Dining and Drinking > Restaurant > Mexican Restaurant'
 'Dining and Drinking > Restaurant > Mexican Restaurant > Taco Restaurant']","b'\x00\x00\x00\x00\x01\xc0X\xc6,\x1c\x06\xf8y@3Q\x88\xd7H;\xd1'","{'xmin': -99.09644222908709, 'ymin': 19.318494277129336, 'xmax': -99.09644222908709, 'ymax': 19.318494277129336}","dining and drinking > restaurant > mexican restaurant, dining and drinking > restaurant > mexican restaurant > taco restaurant",1
51a60ce4498e24db17175267,lupias bomba,18.770225524902344,-95.76158905029297,,,,,,,,MX,2013-05-29,2021-08-15,,,,,,,,['4bf58dd8d48988d151941735'],['Dining and Drinking > Restaurant > Mexican Restaurant > Taco Restaurant'],b'\x00\x00\x00\x00\x01\xc0W\xf0\xbd\xe0\x00\x00\x00@2\xc5-\x80\x00\x00\x00',"{'xmin': -95.76158905029297, 'ymin': 18.770225524902344, 'xmax': -95.76158905029297, 'ymax': 18.770225524902344}",dining and drinking > restaurant > mexican restaurant > taco restaurant,1
60bfa979f47adf128429119d,Los Atascados,19.296095,-99.02139,Av San Rafael Atlixco,Ciudad de México,Ciudad de México,13400,,,,MX,2021-06-08,2023-09-13,,56 1760 6997,,,,,,['4bf58dd8d48988d151941735'],['Dining and Drinking > Restaurant > Mexican Restaurant > Taco Restaurant'],b'\x00\x00\x00\x00\x01\xc0X\xc1^t)\x9d\x88@3K\xcc\xe1\xc5\x82V',"{'xmin': -99.02139, 'ymin': 19.296095, 'xmax': -99.02139, 'ymax': 19.296095}",dining and drinking > restaurant > mexican restaurant > taco restaurant,1
61dfa55752dc4a469d201535,Tacos El Mono,20.526243,-103.084433,,Santa Fe,JAL,45460,,,,MX,2022-01-13,2022-01-13,,,,,,,,['4bf58dd8d48988d151941735'],['Dining and Drinking > Restaurant > Mexican Restaurant > Taco Restaurant'],b'\x00\x00\x00\x00\x01\xc0Y\xc5gY\xabm\x01@4\x86\xb7\xdcz\xbf\xba',"{'xmin': -103.084433, 'ymin': 20.526243, 'xmax': -103.084433, 'ymax': 20.526243}",dining and drinking > restaurant > mexican restaurant > taco restaurant,1
5cc4b9adc9f907002c0f4b42,Carnitas Tacochino,17.544064,-99.49372,prolongación altamirano,Chilpancingo de los Bravo,Guerrero,39060,,,,MX,2019-04-27,2020-11-25,,,,,,,,['4bf58dd8d48988d151941735'],['Dining and Drinking > Restaurant > Mexican Restaurant > Taco Restaurant'],b'\x00\x00\x00\x00\x01\xc0X\xdf\x99\x1b\xc5Xd@1\x8bG\xc7>\xeeR',"{'xmin': -99.49372, 'ymin': 17.544064, 'xmax': -99.49372, 'ymax': 17.544064}",dining and drinking > restaurant > mexican restaurant > taco restaurant,1
4f94e866e4b0f639264c8e54,Quesadillas Magda,19.26509425227134,-99.09831663011282,,,,,,,,MX,2012-04-23,2021-08-14,,,,,,,,['4bf58dd8d48988d151941735'],['Dining and Drinking > Restaurant > Mexican Restaurant > Taco Restaurant'],b'\x00\x00\x00\x00\x01\xc0X\xc6J\xd1\xd5\xbf3@3C\xdd7\x87\xdc\xec',"{'xmin': -99.09831663011282, 'ymin': 19.26509425227134, 'xmax': -99.09831663011282, 'ymax': 19.26509425227134}",dining and drinking > restaurant > mexican restaurant > taco restaurant,1
