fsq_place_id,name,latitude,longitude,address,locality,region,postcode,admin_region,post_town,po_box,country,date_created,date_refreshed,date_closed,tel,website,email,facebook_id,instagram,twitter,fsq_category_ids,fsq_category_labels,geom,bbox,labels_str,taco_restaurant
4e421b36d4c0557c35b3d975,Taqueria Mexico Lindo,31.86344871930738,-116.628218863087,,Ensenada Municipality,Baja California,,,,,MX,2011-08-10,2024-01-03,,646 178 8628,http://www.taqueriamexicolindo.com,,,,,['4bf58dd8d48988d151941735' '4bf58dd8d48988d1c1941735'],"['Dining and Drinking > Restaurant > Mexican Restaurant > Taco Restaurant'
 'Dining and Drinking > Restaurant > Mexican Restaurant']",b'\x00\x00\x00\x00\x01\xc0](4\xbc\xe3\xec\x18@?\xdd\n\xf9\xab2\xc3',"{'xmin': -116.628218863087, 'ymin': 31.86344871930738, 'xmax': -116.628218863087, 'ymax': 31.86344871930738}","dining and drinking > restaurant > mexican restaurant > taco restaurant, dining and drinking > restaurant > mexican restaurant",1
518dcf93498e7182c73749ef,Tacos Furia Roja,32.646635,-115.520759,,,,,,,,MX,2013-05-11,2021-08-24,,,,,,,,['4bf58dd8d48988d151941735'],['Dining and Drinking > Restaurant > Mexican Restaurant > Taco Restaurant'],b'\x00\x00\x00\x00\x01\xc0\\\xe1T\x1d\x8e\x86@@@R\xc4\xef\x88\xb9x',"{'xmin': -115.520759, 'ymin': 32.646635, 'xmax': -115.520759, 'ymax': 32.646635}",dining and drinking > restaurant > mexican restaurant > taco restaurant,1
51f43658498e5a8849830126,Tacos El Poblanito,32.52957135764812,-116.97312640547304,,,,,,,,MX,2013-07-27,2021-11-29,,,,,,,,['4bf58dd8d48988d151941735'],['Dining and Drinking > Restaurant > Mexican Restaurant > Taco Restaurant'],b'\x00\x00\x00\x00\x01\xc0]>G\xb3\xf9\x98^@@C\xc8\xfe\x86\xff\x9e',"{'xmin': -116.97312640547304, 'ymin': 32.52957135764812, 'xmax': -116.97312640547304, 'ymax': 32.52957135764812}",dining and drinking > restaurant > mexican restaurant > taco restaurant,1
5a30475758aa7f31f23c0ca6,Bondojito,32.614016,-115.392376,Lazaro Cardenas,Mexicali,BC,21377,,,,MX,2017-12-12,2020-11-23,,,,,,,,['4bf58dd8d48988d151941735'],['Dining and Drinking > Restaurant > Mexican Restaurant > Taco Restaurant'],b'\x00\x00\x00\x00\x01\xc0\\\xd9\x1c\xb09\xef\x0f@@N\x98\x13\x87\x9cA',"{'xmin': -115.392376, 'ymin': 32.614016, 'xmax': -115.392376, 'ymax': 32.614016}",dining and drinking > restaurant > mexican restaurant > taco restaurant,1
51fc6f6d498e560e01bea428,Tacos Walter,32.50926325645823,-116.99088886670518,,Tijuana,,,,,,MX,2013-08-03,2020-11-23,,,,,,,,['4bf58dd8d48988d151941735'],['Dining and Drinking > Restaurant > Mexican Restaurant > Taco Restaurant'],b'\x00\x00\x00\x00\x01\xc0]?j\xb9#\x1e\x08@@A/\x89\xd3\xc5s',"{'xmin': -116.99088886670518, 'ymin': 32.50926325645823, 'xmax': -116.99088886670518, 'ymax': 32.50926325645823}",dining and drinking > restaurant > mexican restaurant > taco restaurant,1
5367c0c8498e825cb7b06e66,"Tacos de birria, Angelica",32.493892669677734,-116.88400268554688,,,,,,,,MX,2014-05-05,2021-08-14,,,,,,,,['4bf58dd8d48988d151941735'],['Dining and Drinking > Restaurant > Mexican Restaurant > Taco Restaurant'],b'\x00\x00\x00\x00\x01\xc0]8\x93\x80\x00\x00\x00@@?7\xe0\x00\x00\x00',"{'xmin': -116.88400268554688, 'ymin': 32.493892669677734, 'xmax': -116.88400268554688, 'ymax': 32.493892669677734}",dining and drinking > restaurant > mexican restaurant > taco restaurant,1
4fe3f082e4b052163d929632,Tacos Puebla,32.50098629916369,-116.8860219017002,Blvd. Casa Blanca,Tijuana,Baja California,,,,,MX,2012-06-22,2020-11-25,,,,,,,,['4bf58dd8d48988d151941735'],['Dining and Drinking > Restaurant > Mexican Restaurant > Taco Restaurant'],b'\x00\x00\x00\x00\x01\xc0]8\xb4\x954\xd5\xe5@@@ Q\xadSy',"{'xmin': -116.8860219017002, 'ymin': 32.50098629916369, 'xmax': -116.8860219017002, 'ymax': 32.50098629916369}",dining and drinking > restaurant > mexican restaurant > taco restaurant,1
5104484be4b0d770c825964a,Carnitas Doña Amparo,32.563073,-115.355938,,,,,,,,MX,2013-01-26,2021-08-12,,,,,,,,['4bf58dd8d48988d151941735'],['Dining and Drinking > Restaurant > Mexican Restaurant > Taco Restaurant'],b'\x00\x00\x00\x00\x01\xc0\\\xd6\xc7\xb0-Y\xd5@@H\x12\xc6\xac!\\',"{'xmin': -115.355938, 'ymin': 32.563073, 'xmax': -115.355938, 'ymax': 32.563073}",dining and drinking > restaurant > mexican restaurant > taco restaurant,1
4bc20eb3abf4952118ddc193,Carretas de Borrego y Cabeza,32.64428023446296,-115.46830700403036,De La Industria,Mexicali,BC,,,,,MX,2010-04-11,2020-11-30,,,,,,,,"['4bf58dd8d48988d151941735' '4bf58dd8d48988d1c1941735'
 '4bf58dd8d48988d1cb941735']","['Dining and Drinking > Restaurant > Mexican Restaurant > Taco Restaurant'
 'Dining and Drinking > Restaurant > Mexican Restaurant'
 'Dining and Drinking > Food Truck']",b'\x00\x00\x00\x00\x01\xc0\\\xdd\xf8\xbd\xf0\xb3\x15@@Rw\xc6T=#',"{'xmin': -115.46830700403036, 'ymin': 32.64428023446296, 'xmax': -115.46830700403036, 'ymax': 32.64428023446296}","dining and drinking > restaurant > mexican restaurant > taco restaurant, dining and drinking > restaurant > mexican restaurant, dining and drinking > food truck",1
5ab30ef66c08d13e414e3917,Tacos “Ángel”,32.510337,-116.868661,,Tijuana,BC,22789,,,,MX,2018-03-22,2020-11-25,,,,,,,,['4bf58dd8d48988d151941735' '4bf58dd8d48988d1c1941735'],"['Dining and Drinking > Restaurant > Mexican Restaurant > Taco Restaurant'
 'Dining and Drinking > Restaurant > Mexican Restaurant']",b'\x00\x00\x00\x00\x01\xc0]7\x98$N\x93\xe2@@AR\xb9\nx)',"{'xmin': -116.868661, 'ymin': 32.510337, 'xmax': -116.868661, 'ymax': 32.510337}","dining and drinking > restaurant > mexican restaurant > taco restaurant, dining and drinking > restaurant > mexican restaurant",1
514ddb76e4b03aaaeecbb2c0,Tacos Pina (La Doña De Los Tacos),21.868973,-102.293781,,,,,,,,MX,2013-03-23,2021-08-15,,,,,,,,['4bf58dd8d48988d151941735'],['Dining and Drinking > Restaurant > Mexican Restaurant > Taco Restaurant'],b'\x00\x00\x00\x00\x01\xc0Y\x92\xcdN\xd2\xcb\xea@5\xdeu\x03\xb8\x1be',"{'xmin': -102.293781, 'ymin': 21.868973, 'xmax': -102.293781, 'ymax': 21.868973}",dining and drinking > restaurant > mexican restaurant > taco restaurant,1
51d6e71d498e668e643c0780,Quezadillas Y Gorditas El Hospital,20.728462982578094,-101.95028385251325,,,,,,,,MX,2013-07-05,2021-08-16,,,,,,,,['4bf58dd8d48988d151941735'],['Dining and Drinking > Restaurant > Mexican Restaurant > Taco Restaurant'],b'\x00\x00\x00\x00\x01\xc0Y|\xd1s]\x1d\x86@4\xba|\x8c\xce\x85\x00',"{'xmin': -101.95028385251325, 'ymin': 20.728462982578094, 'xmax': -101.95028385251325, 'ymax': 20.728462982578094}",dining and drinking > restaurant > mexican restaurant > taco restaurant,1
66f7789af4f5bc638f6a5c3a,Tacos Chopo,20.612716,-105.231553,,Puerto Vallarta,Jal.,48300,,,,MX,2024-09-28,2024-09-28,,,,,,,,['4bf58dd8d48988d151941735'],['Dining and Drinking > Restaurant > Mexican Restaurant > Taco Restaurant'],b'\x00\x00\x00\x00\x01\xc0ZN\xd1\xc3\xac\x92\x9b@4\x9c\xda\xf4\xad\xbcf',"{'xmin': -105.231553, 'ymin': 20.612716, 'xmax': -105.231553, 'ymax': 20.612716}",dining and drinking > restaurant > mexican restaurant > taco restaurant,1
50ce7c6ee4b044fa5e4cf44e,tacos ayagon,20.6246280670166,-103.37078094482422,,,,,,,,MX,2012-12-17,2021-08-16,,,,,,,,['4bf58dd8d48988d151941735'],['Dining and Drinking > Restaurant > Mexican Restaurant > Taco Restaurant'],b'\x00\x00\x00\x00\x01\xc0Y\xd7\xba\xe0\x00\x00\x00@4\x9f\xe7\xa0\x00\x00\x00',"{'xmin': -103.37078094482422, 'ymin': 20.6246280670166, 'xmax': -103.37078094482422, 'ymax': 20.6246280670166}",dining and drinking > restaurant > mexican restaurant > taco restaurant,1
596d6f91b6eedb23e240b3b0,La Taquería Grill,20.568929,-105.250522,,Puerto Vallarta,JAL,,,,,MX,2017-07-18,2020-11-24,,,,,,,,['4bf58dd8d48988d151941735' '4bf58dd8d48988d1c1941735'],"['Dining and Drinking > Restaurant > Mexican Restaurant > Taco Restaurant'
 'Dining and Drinking > Restaurant > Mexican Restaurant']",b'\x00\x00\x00\x00\x01\xc0ZP\x08\x8dm;m@4\x91\xa5T\xb8\xbe\xf9',"{'xmin': -105.250522, 'ymin': 20.568929, 'xmax': -105.250522, 'ymax': 20.568929}","dining and drinking > restaurant > mexican restaurant > taco restaurant, dining and drinking > restaurant > mexican restaurant",1
531be0c1498e0de8e1368854,El Gorupo,20.58036279796761,-101.21953176453455,Av. Morelos S/N,Salamanca,Guanajuato,36740,,,,MX,2014-03-09,2020-11-25,,,,,,,,['4bf58dd8d48988d151941735'],['Dining and Drinking > Restaurant > Mexican Restaurant > Taco Restaurant'],b'\x00\x00\x00\x00\x01\xc0YN\x0c\xce\xf5F\xfb@4\x94\x92\xa8\x05\x16\x00',"{'xmin': -101.21953176453455, 'ymin': 20.58036279796761, 'xmax': -101.21953176453455, 'ymax': 20.58036279796761}",dining and drinking > restaurant > mexican restaurant > taco restaurant,1
5205bccc11d2e16e181cced5,Tacos Los Pepeyos's,20.665554,-103.407191,,,,,,,,MX,2013-08-10,2021-08-10,,,,,,,,['4bf58dd8d48988d151941735'],['Dining and Drinking > Restaurant > Mexican Restaurant > Taco Restaurant'],b'\x00\x00\x00\x00\x01\xc0Y\xda\x0fj\xd7\x0eo@4\xaaa\xbf7\xb8\xd4',"{'xmin': -103.407191, 'ymin': 20.665554, 'xmax': -103.407191, 'ymax': 20.665554}",dining and drinking > restaurant > mexican restaurant > taco restaurant,1
508ab586e4b0a1c846bc8462,Tacos De Carnitas El Güero,21.24296409398924,-104.90797095194762,,,,,,,,MX,2012-10-26,2023-12-19,,327 277 3031,,,,,,['4bf58dd8d48988d151941735'],['Dining and Drinking > Restaurant > Mexican Restaurant > Taco Restaurant'],b'\x00\x00\x00\x00\x01\xc0Z:\x1c22\x15P@5>2\xe5\x15\xc9;',"{'xmin': -104.90797095194762, 'ymin': 21.24296409398924, 'xmax': -104.90797095194762, 'ymax': 21.24296409398924}",dining and drinking > restaurant > mexican restaurant > taco restaurant,1
539e4bae498e2365d2b2da52,Tacos zacatecas sucursal  mirador,21.525312,-104.888213,Mixcoac Esquina Fco. Glez Boca negra,Tepic,Nayarit,,,,,MX,2014-06-16,2020-11-24,,,,,,,,['4bf58dd8d48988d151941735'],['Dining and Drinking > Restaurant > Mexican Restaurant > Taco Restaurant'],b'\x00\x00\x00\x00\x01\xc0Z8\xd8{V\xb8s@5\x86z\xd8\xe42D',"{'xmin': -104.888213, 'ymin': 21.525312, 'xmax': -104.888213, 'ymax': 21.525312}",dining and drinking > restaurant > mexican restaurant > taco restaurant,1
5023e7efe4b07e351c0968c5,Tacos El Fer,21.88727501194368,-102.25115680371734,Esquina De Montoro,Aguascalientes,AGS,,,,,MX,2012-08-09,2020-11-30,,,,,,,,['4bf58dd8d48988d1cb941735' '4bf58dd8d48988d151941735'],"['Dining and Drinking > Food Truck'
 'Dining and Drinking > Restaurant > Mexican Restaurant > Taco Restaurant']",b'\x00\x00\x00\x00\x01\xc0Y\x90\x12\xf3\xfc\x88\x91@5\xe3$t\x86\xdb*',"{'xmin': -102.25115680371734, 'ymin': 21.88727501194368, 'xmax': -102.25115680371734, 'ymax': 21.88727501194368}","dining and drinking > food truck, dining and drinking > restaurant > mexican restaurant > taco restaurant",1
590c8890da708028e02f8082,La Canija,20.635806461355877,-103.38365703821182,Isla Salinas #2115,Guadalajara,Jalisco,44950,,,,MX,2017-05-05,2021-08-10,,33 3468 1516,,,,,,['4bf58dd8d48988d151941735'],['Dining and Drinking > Restaurant > Mexican Restaurant > Taco Restaurant'],b'\x00\x00\x00\x00\x01\xc0Y\xd8\x8d\xd6@\x00\x00@4\xa2\xc46V\x1b\xe6',"{'xmin': -103.38365703821182, 'ymin': 20.635806461355877, 'xmax': -103.38365703821182, 'ymax': 20.635806461355877}",dining and drinking > restaurant > mexican restaurant > taco restaurant,1
619a90b064ba512077ae327c,Barbacoa Don Cuco,21.034423,-101.55094,Carretera Irapuato-León,,GTO,37683,,,,MX,2021-11-21,2021-11-21,,,,,,,,['4bf58dd8d48988d151941735'],['Dining and Drinking > Restaurant > Mexican Restaurant > Taco Restaurant'],b'\x00\x00\x00\x00\x01\xc0YcB\x99\xd8\x83\xba@5\x08\xcf\xf2\x1b:\xef',"{'xmin': -101.55094, 'ymin': 21.034423, 'xmax': -101.55094, 'ymax': 21.034423}",dining and drinking > restaurant > mexican restaurant > taco restaurant,1
580a7b6838fab1dc4b02afd0,Las ahogadas de mi casa,19.683797,-101.190787,,,,,,,,MX,2016-10-21,2021-08-13,,,,,,,,['4bf58dd8d48988d151941735'],['Dining and Drinking > Restaurant > Mexican Restaurant > Taco Restaurant'],b'\x00\x00\x00\x00\x01\xc0YL5\xda\xad` @3\xaf\rQ\xf8\x1aX',"{'xmin': -101.190787, 'ymin': 19.683797, 'xmax': -101.190787, 'ymax': 19.683797}",dining and drinking > restaurant > mexican restaurant > taco restaurant,1
4ef5390d8231b0d6239d46e1,Tacos Don Ciro,20.541027900357125,-100.68765009422954,,Apaseo El Grande,Guanajuato,,,,,MX,2011-12-24,2020-11-24,,,,,,,,['4bf58dd8d48988d151941735'],['Dining and Drinking > Restaurant > Mexican Restaurant > Taco Restaurant'],"b'\x00\x00\x00\x00\x01\xc0Y,\x02u\x8as\xa9@4\x8a\x80\xcd\xf2A\xe5'","{'xmin': -100.68765009422954, 'ymin': 20.541027900357125, 'xmax': -100.68765009422954, 'ymax': 20.541027900357125}",dining and drinking > restaurant > mexican restaurant > taco restaurant,1
55fcdae4498e7a8fbb919555,Los Espartacos,19.265926361083984,-103.72724914550781,,,,,,,,MX,2015-09-19,2020-11-24,,,,,,,,['4bf58dd8d48988d151941735'],['Dining and Drinking > Restaurant > Mexican Restaurant > Taco Restaurant'],b'\x00\x00\x00\x00\x01\xc0Y\xee\x8b@\x00\x00\x00@3D\x13\xc0\x00\x00\x00',"{'xmin': -103.72724914550781, 'ymin': 19.265926361083984, 'xmax': -103.72724914550781, 'ymax': 19.265926361083984}",dining and drinking > restaurant > mexican restaurant > taco restaurant,1
505a7a7be4b0b47e0c745a84,Tocos Del Guajas,20.391258321100104,-101.18605638040489,Juarez 148,Valle De Santiago,Gto,38400,,,,MX,2012-09-20,2020-11-22,,,,,,,,['4bf58dd8d48988d151941735'],['Dining and Drinking > Restaurant > Mexican Restaurant > Taco Restaurant'],b'\x00\x00\x00\x00\x01\xc0YK\xe8Y\x05CF@4d)\x81]i\xae',"{'xmin': -101.18605638040489, 'ymin': 20.391258321100104, 'xmax': -101.18605638040489, 'ymax': 20.391258321100104}",dining and drinking > restaurant > mexican restaurant > taco restaurant,1
53b76c94498e7b6c99dcebb9,Tacos Rosrry's,21.501152,-104.903875,,,,,,,,MX,2014-07-05,2021-08-15,,,,,,,,['4bf58dd8d48988d151941735'],['Dining and Drinking > Restaurant > Mexican Restaurant > Taco Restaurant'],b'\x00\x00\x00\x00\x01\xc0Z9\xd9\x16\x87+\x02@5\x80K\x7fZS3',"{'xmin': -104.903875, 'ymin': 21.501152, 'xmax': -104.903875, 'ymax': 21.501152}",dining and drinking > restaurant > mexican restaurant > taco restaurant,1
8b18708e96174dd91ee64601,Tacos de Vapor Oceano Indico de Linda Vista,21.143711,-101.703246,Oceano Indico de Lindavenida Ista 404,León,Guanajuato,37300,,,,MX,2013-03-24,2023-12-06,,477 151 1576,,,,,,['4bf58dd8d48988d151941735'],['Dining and Drinking > Restaurant > Mexican Restaurant > Taco Restaurant'],b'\x00\x00\x00\x00\x01\xc0Ym\x01\xfb\x82\xc2\xbd@5$\xca>}\x13Q',"{'xmin': -101.703246, 'ymin': 21.143711, 'xmax': -101.703246, 'ymax': 21.143711}",dining and drinking > restaurant > mexican restaurant > taco restaurant,1
50038438e4b0ded98f6d2fa2,Tacos El Guacamolito,20.625871,-103.251679,,,,,,,,MX,2012-07-16,2021-08-15,,,,,,,,['4bf58dd8d48988d151941735'],['Dining and Drinking > Restaurant > Mexican Restaurant > Taco Restaurant'],b'\x00\x00\x00\x00\x01\xc0Y\xd0\x1b\x82<\x85\xc2@4\xa09\x14\xf4\x83\xcb',"{'xmin': -103.251679, 'ymin': 20.625871, 'xmax': -103.251679, 'ymax': 20.625871}",dining and drinking > restaurant > mexican restaurant > taco restaurant,1
571842b7cd100ea411481247,Tacos Esteban,20.654033775297954,-103.42263801355392,Avenida patria No. 1479,Zapopan,Jalisco,,,,,MX,2016-04-21,2020-11-23,,33 3125 1266,,,,,,['4bf58dd8d48988d151941735'],['Dining and Drinking > Restaurant > Mexican Restaurant > Taco Restaurant'],b'\x00\x00\x00\x00\x01\xc0Y\xdb\x0c\x80O\x90\xac@4\xa7n\xc1\xebbV',"{'xmin': -103.42263801355392, 'ymin': 20.654033775297954, 'xmax': -103.42263801355392, 'ymax': 20.654033775297954}",dining and drinking > restaurant > mexican restaurant > taco restaurant,1
571f8690498e4d161083a40d,Tampi Tacos,20.583551548804362,-101.2144579995736,,,,,,,,MX,2016-04-26,2021-08-17,,,,,,,,['4bf58dd8d48988d151941735'],['Dining and Drinking > Restaurant > Mexican Restaurant > Taco Restaurant'],b'\x00\x00\x00\x00\x01\xc0YM\xb9\xae\x0b\xa20@4\x95c\xa2a\xa5\x17',"{'xmin': -101.2144579995736, 'ymin': 20.583551548804362, 'xmax': -101.2144579995736, 'ymax': 20.583551548804362}",dining and drinking > restaurant > mexican restaurant > taco restaurant,1
58ddcae5b3cdc848677b443e,Taqueria Alteños,21.86145,-102.312439,,Aguascalientes,AGS,20235,,,,MX,2017-03-31,2020-11-21,,,,,,,,['4bf58dd8d48988d151941735'],['Dining and Drinking > Restaurant > Mexican Restaurant > Taco Restaurant'],b'\x00\x00\x00\x00\x01\xc0Y\x93\xff\x00%\xbf\xad@5\xdc\x87\xfc\xb9#\xa3',"{'xmin': -102.312439, 'ymin': 21.86145, 'xmax': -102.312439, 'ymax': 21.86145}",dining and drinking > restaurant > mexican restaurant > taco restaurant,1
54a07399498e739daaf6808b,Tortilleria y Molino La Rosa de Guadalupe,20.613474,-103.350563,,,,,,,,MX,2014-12-28,2021-08-17,,,,,,,,['4bf58dd8d48988d151941735'],['Dining and Drinking > Restaurant > Mexican Restaurant > Taco Restaurant'],b'\x00\x00\x00\x00\x01\xc0Y\xd6o\x9f\xcb\x0c\x02@4\x9d\x0c\xa1\xce\xf2A',"{'xmin': -103.350563, 'ymin': 20.613474, 'xmax': -103.350563, 'ymax': 20.613474}",dining and drinking > restaurant > mexican restaurant > taco restaurant,1
4da64ffd81543f4ee9666d4b,Tacos Juve,20.70233863140191,-103.33249979576986,Monte olivette,Guadalajara,Jalisco,44290,,,,MX,2011-04-14,2021-08-16,,,,,,,,['4bf58dd8d48988d151941735'],['Dining and Drinking > Restaurant > Mexican Restaurant > Taco Restaurant'],b'\x00\x00\x00\x00\x01\xc0Y\xd5G\xad90\x87@4\xb3\xccv\xec\x96\xaf',"{'xmin': -103.33249979576986, 'ymin': 20.70233863140191, 'xmax': -103.33249979576986, 'ymax': 20.70233863140191}",dining and drinking > restaurant > mexican restaurant > taco restaurant,1
4f52dcb0e4b07c31b3e949b4,Tacos de papa,20.672132363266062,-103.32084410648221,Dionisio Rodriguez,Guadalajara,Jalisco,,,,,MX,2012-03-04,2021-08-15,,,,,,,,['4bf58dd8d48988d151941735'],['Dining and Drinking > Restaurant > Mexican Restaurant > Taco Restaurant'],b'\x00\x00\x00\x00\x01\xc0Y\xd4\x88\xb5\xb8\x1d&@4\xac\x10\xdd\xd6\xcf\x99',"{'xmin': -103.32084410648221, 'ymin': 20.672132363266062, 'xmax': -103.32084410648221, 'ymax': 20.672132363266062}",dining and drinking > restaurant > mexican restaurant > taco restaurant,1
53817731498ebb8d531f95d0,Tacos Los Huajes,20.621356964111328,-103.05928802490234,López Rayón 469,Zapotlanejo,JAL,,,,,MX,2014-05-25,2020-11-23,,,,,,,,['4bf58dd8d48988d151941735'],['Dining and Drinking > Restaurant > Mexican Restaurant > Taco Restaurant'],b'\x00\x00\x00\x00\x01\xc0Y\xc3\xcb`\x00\x00\x00@4\x9f\x11@\x00\x00\x00',"{'xmin': -103.05928802490234, 'ymin': 20.621356964111328, 'xmax': -103.05928802490234, 'ymax': 20.621356964111328}",dining and drinking > restaurant > mexican restaurant > taco restaurant,1
5af5bfab628c83002c0c866f,Tacos De Barbacoa El Padrino,21.858967,-102.30541,Enrique Olivares Santana,Aguascalientes,AGS,20288,,,,MX,2018-05-11,2020-11-22,,,,,,,,['4bf58dd8d48988d151941735'],['Dining and Drinking > Restaurant > Mexican Restaurant > Taco Restaurant'],b'\x00\x00\x00\x00\x01\xc0Y\x93\x8b\xd6bw\xc4@5\xdb\xe5B\xe5W\xde',"{'xmin': -102.30541, 'ymin': 21.858967, 'xmax': -102.30541, 'ymax': 21.858967}",dining and drinking > restaurant > mexican restaurant > taco restaurant,1
55c6afed498e1fc7dd8361c5,Taqueria Rivera,21.001834869384766,-101.28270721435547,,,,,,,,MX,2015-08-09,2021-08-16,,,,,,,,['4bf58dd8d48988d151941735'],['Dining and Drinking > Restaurant > Mexican Restaurant > Taco Restaurant'],b'\x00\x00\x00\x00\x01\xc0YR\x17\xe0\x00\x00\x00@5\x00x@\x00\x00\x00',"{'xmin': -101.28270721435547, 'ymin': 21.001834869384766, 'xmax': -101.28270721435547, 'ymax': 21.001834869384766}",dining and drinking > restaurant > mexican restaurant > taco restaurant,1
505cbf49e4b06ee0cb9d1311,Los Pioneros,19.229210637032303,-103.69977432958476,,,,,,,,MX,2012-09-21,2021-08-13,,,,,,,,['4bf58dd8d48988d151941735'],['Dining and Drinking > Restaurant > Mexican Restaurant > Taco Restaurant'],b'\x00\x00\x00\x00\x01\xc0Y\xec\xc9\x1aE\tf@3:\xad\x8c]\xf2\xf6',"{'xmin': -103.69977432958476, 'ymin': 19.229210637032303, 'xmax': -103.69977432958476, 'ymax': 19.229210637032303}",dining and drinking > restaurant > mexican restaurant > taco restaurant,1
620b16bdb5711c45ff28e7ac,Taqueria La Esquinita,20.603658,-103.41237,,Tlaquepaque,JAL,45609,,,,MX,2022-02-15,2022-02-15,,,,,,,,['4bf58dd8d48988d151941735'],['Dining and Drinking > Restaurant > Mexican Restaurant > Taco Restaurant'],b'\x00\x00\x00\x00\x01\xc0Y\xdadE#\xf6\x7f@4\x9a\x89T\xa7\xf8\x01',"{'xmin': -103.41237, 'ymin': 20.603658, 'xmax': -103.41237, 'ymax': 20.603658}",dining and drinking > restaurant > mexican restaurant > taco restaurant,1
5255f1a111d26e4e3886be56,Taqueria Arandas,20.993724848384538,-101.28496626441259,,,,,,,,MX,2013-10-10,2021-08-15,,,,,,,,['4bf58dd8d48988d151941735'],['Dining and Drinking > Restaurant > Mexican Restaurant > Taco Restaurant'],b'\x00\x00\x00\x00\x01\xc0YR<\xe3$\x87b@4\xfed\xc0m\x08\xbe',"{'xmin': -101.28496626441259, 'ymin': 20.993724848384538, 'xmax': -101.28496626441259, 'ymax': 20.993724848384538}",dining and drinking > restaurant > mexican restaurant > taco restaurant,1
58cd61c144587f4e79bb2bb7,Tortas El Rancherito,22.137367,-101.027496,,,,,,,,MX,2017-03-18,2021-08-12,,,,,,,,['4bf58dd8d48988d151941735'],['Dining and Drinking > Restaurant > Mexican Restaurant > Taco Restaurant'],b'\x00\x00\x00\x00\x01\xc0YA\xc2~\x951U@6#*{\xd4\x8c\xb5',"{'xmin': -101.027496, 'ymin': 22.137367, 'xmax': -101.027496, 'ymax': 22.137367}",dining and drinking > restaurant > mexican restaurant > taco restaurant,1
573b4d40498eac25e10e908f,Hoyo 6,20.77209,-103.42943,,,,,,,,MX,2016-05-17,2020-11-30,,,,,,,,['4bf58dd8d48988d151941735'],['Dining and Drinking > Restaurant > Mexican Restaurant > Taco Restaurant'],b'\x00\x00\x00\x00\x01\xc0Y\xdb{\xc7\xf7z\xf6@4\xc5\xa7\xb0\xb3\x91\x92',"{'xmin': -103.42943, 'ymin': 20.77209, 'xmax': -103.42943, 'ymax': 20.77209}",dining and drinking > restaurant > mexican restaurant > taco restaurant,1
507ce275e4b0a74b92eca527,Tacos Doña Cow,21.148868098985716,-101.62202957603148,,,,,,,,MX,2012-10-16,2021-08-11,,,,,,,,['4bf58dd8d48988d151941735'],['Dining and Drinking > Restaurant > Mexican Restaurant > Taco Restaurant'],b'\x00\x00\x00\x00\x01\xc0Yg\xcfU#\x8c\xcc@5&\x1c8@\x8f\xb4',"{'xmin': -101.62202957603148, 'ymin': 21.148868098985716, 'xmax': -101.62202957603148, 'ymax': 21.148868098985716}",dining and drinking > restaurant > mexican restaurant > taco restaurant,1
59cb213059fe5c749897f921,Tacos al carbon Don Toy,20.699717,-103.342104,595 Avenida de los Científicos,Guadalajara,JAL,44260,,,,MX,2017-09-27,2021-08-16,,,,,,,,['4bf58dd8d48988d151941735'],['Dining and Drinking > Restaurant > Mexican Restaurant > Taco Restaurant'],"b'\x00\x00\x00\x00\x01\xc0Y\xd5\xe5\x08,\xf5,@4\xb3 \xa7?t\x8a'","{'xmin': -103.342104, 'ymin': 20.699717, 'xmax': -103.342104, 'ymax': 20.699717}",dining and drinking > restaurant > mexican restaurant > taco restaurant,1
c6ce56c38ece44fb6905a72b,Taqueria,21.065745,-101.620171,Boulevard Torres Landa 404,,Guanajuato,37560,,,,MX,2010-11-04,2024-09-26,,,,,,,,['4bf58dd8d48988d151941735'],['Dining and Drinking > Restaurant > Mexican Restaurant > Taco Restaurant'],"b'\x00\x00\x00\x00\x01\xc0Yg\xb0\xe1\xb4\xbb^@5\x10\xd4\xaa\x10\xe0""'","{'xmin': -101.620171, 'ymin': 21.065745, 'xmax': -101.620171, 'ymax': 21.065745}",dining and drinking > restaurant > mexican restaurant > taco restaurant,1
4f1f2fbee4b0bf9c515d3d42,Maguicho Tacos y Burritos de Guisados,20.686322,-103.433168,"Gaston leroux ,Plaza el Pueblito Local 37 Frente Al Parque",Zapopan,Jalisco,,,,,MX,2012-01-24,2020-11-22,,,,,,,,['4bf58dd8d48988d151941735'],['Dining and Drinking > Restaurant > Mexican Restaurant > Taco Restaurant'],b'\x00\x00\x00\x00\x01\xc0Y\xdb\xb9\x06Fk\x1e@4\xaf\xb2\xccp\x86{',"{'xmin': -103.433168, 'ymin': 20.686322, 'xmax': -103.433168, 'ymax': 20.686322}",dining and drinking > restaurant > mexican restaurant > taco restaurant,1
5679833b498ec9dbd56c5915,Tacos Doña CHELA,20.365528,-103.82237,,,,,,,,MX,2015-12-22,2021-08-17,,,,,,,,['4bf58dd8d48988d151941735'],['Dining and Drinking > Restaurant > Mexican Restaurant > Taco Restaurant'],b'\x00\x00\x00\x00\x01\xc0Y\xf4\xa1\xb5\xc7\xcd\x8a@4]\x93>5\xc5\xb5',"{'xmin': -103.82237, 'ymin': 20.365528, 'xmax': -103.82237, 'ymax': 20.365528}",dining and drinking > restaurant > mexican restaurant > taco restaurant,1
5a94c34d51950e7725fc8a07,Taqueria Tan Tan,20.623734,-105.220821,,Puerto Vallarta,JAL,48340,,,,MX,2018-02-27,2020-11-23,,,,,,,,['4bf58dd8d48988d151941735'],['Dining and Drinking > Restaurant > Mexican Restaurant > Taco Restaurant'],b'\x00\x00\x00\x00\x01\xc0ZN!\xeegQH@4\x9f\xad\x08\x0bg<',"{'xmin': -105.220821, 'ymin': 20.623734, 'xmax': -105.220821, 'ymax': 20.623734}",dining and drinking > restaurant > mexican restaurant > taco restaurant,1
52d05f2e11d29fe078b2cd2d,Tacos del Árabe,21.947884666520363,-102.33108376680566,,,,,,,,MX,2014-01-10,2020-11-30,,,,,,,,['4bf58dd8d48988d151941735'],['Dining and Drinking > Restaurant > Mexican Restaurant > Taco Restaurant'],b'\x00\x00\x00\x00\x01\xc0Y\x950y\xf7\xaa\xad@5\xf2\xa8\x91\xcb\x15\xb7',"{'xmin': -102.33108376680566, 'ymin': 21.947884666520363, 'xmax': -102.33108376680566, 'ymax': 21.947884666520363}",dining and drinking > restaurant > mexican restaurant > taco restaurant,1
4b8d3b84f964a520d6ee32e3,El Cano,22.14797745719344,-101.01339123253295,,San Luis Potosí,San Luis Potosí,,,,,MX,2010-03-02,2020-11-23,,,,,,,,['4bf58dd8d48988d151941735'],['Dining and Drinking > Restaurant > Mexican Restaurant > Taco Restaurant'],b'\x00\x00\x00\x00\x01\xc0Y@\xdbf\xe6r\x0f@6%\xe1\xd9\xc30\xea',"{'xmin': -101.01339123253295, 'ymin': 22.14797745719344, 'xmax': -101.01339123253295, 'ymax': 22.14797745719344}",dining and drinking > restaurant > mexican restaurant > taco restaurant,1
5666fcb7498e86b88d12dce1,"Tacos Y Quesadillas ""DOÑA CUCA""",21.137453079223633,-101.7442626953125,,,,,,,,MX,2015-12-08,2020-11-22,,,,,,,,['4bf58dd8d48988d151941735'],['Dining and Drinking > Restaurant > Mexican Restaurant > Taco Restaurant'],b'\x00\x00\x00\x00\x01\xc0Yo\xa2\x00\x00\x00\x00@5#0 \x00\x00\x00',"{'xmin': -101.7442626953125, 'ymin': 21.137453079223633, 'xmax': -101.7442626953125, 'ymax': 21.137453079223633}",dining and drinking > restaurant > mexican restaurant > taco restaurant,1
59ed5598491be7388621680a,Tacos Alteños,20.661571,-103.406173,Cubilete,Zapopan,JAL,45046,,,,MX,2017-10-23,2020-11-24,,,,,,,,['4bf58dd8d48988d151941735'],['Dining and Drinking > Restaurant > Mexican Restaurant > Taco Restaurant'],b'\x00\x00\x00\x00\x01\xc0Y\xd9\xfe\xbd\t\xe1*@4\xa9\\\xb7\x90\xfbe',"{'xmin': -103.406173, 'ymin': 20.661571, 'xmax': -103.406173, 'ymax': 20.661571}",dining and drinking > restaurant > mexican restaurant > taco restaurant,1
4ff10acbe4b09f46baa8bfb6,Tacos Don Chema & Mari,20.65805056144576,-101.3407984369252,,,,,,,,MX,2012-07-02,2021-08-12,,,,,,,,['4bf58dd8d48988d151941735'],['Dining and Drinking > Restaurant > Mexican Restaurant > Taco Restaurant'],b'\x00\x00\x00\x00\x01\xc0YU\xcf\xa4?G\xc9@4\xa8v\x00h\x86#',"{'xmin': -101.3407984369252, 'ymin': 20.65805056144576, 'xmax': -101.3407984369252, 'ymax': 20.65805056144576}",dining and drinking > restaurant > mexican restaurant > taco restaurant,1
4f79c322e4b0e91fa90ba842,Gorditas Los Paraisos,21.137687,-101.693262,,,,,,,,MX,2012-04-02,2021-08-11,,,,,,,,['4bf58dd8d48988d151941735'],['Dining and Drinking > Restaurant > Mexican Restaurant > Taco Restaurant'],b'\x00\x00\x00\x00\x01\xc0Yl^g\x94c\xd0@5#?t\x8a\x15\x98',"{'xmin': -101.693262, 'ymin': 21.137687, 'xmax': -101.693262, 'ymax': 21.137687}",dining and drinking > restaurant > mexican restaurant > taco restaurant,1
508c5fa4e4b0f38c010b9ddc,tacos elsa noemi,20.634836196899414,-105.23013305664062,,,,,,,,MX,2012-10-27,2021-08-16,,,,,,,,['4bf58dd8d48988d151941735'],['Dining and Drinking > Restaurant > Mexican Restaurant > Taco Restaurant'],b'\x00\x00\x00\x00\x01\xc0ZN\xba\x80\x00\x00\x00@4\xa2\x84\xa0\x00\x00\x00',"{'xmin': -105.23013305664062, 'ymin': 20.634836196899414, 'xmax': -105.23013305664062, 'ymax': 20.634836196899414}",dining and drinking > restaurant > mexican restaurant > taco restaurant,1
4f8c54fee4b0c71a7475dd53,Tacos de Barbacoa de las VíasVías,22.170446859323064,-101.00018370016657,Av. Ferrocarril,San Luis Potosí,San Luis Potosí,,,,,MX,2012-04-16,2020-11-22,,,,,,,,['4bf58dd8d48988d151941735'],['Dining and Drinking > Restaurant > Mexican Restaurant > Taco Restaurant'],b'\x00\x00\x00\x00\x01\xc0Y@\x03\x02~\x8dK@6+\xa2g\xc6\x7f\x9c',"{'xmin': -101.00018370016657, 'ymin': 22.170446859323064, 'xmax': -101.00018370016657, 'ymax': 22.170446859323064}",dining and drinking > restaurant > mexican restaurant > taco restaurant,1
5273d92d11d2e780ce82c09e,Tacos Gomexpress,21.971431732177734,-102.28917694091797,,Trojes de Alonso,,,,,,MX,2013-11-01,2021-11-08,,,,,,,,['4bf58dd8d48988d151941735'],['Dining and Drinking > Restaurant > Mexican Restaurant > Taco Restaurant'],b'\x00\x00\x00\x00\x01\xc0Y\x92\x81\xe0\x00\x00\x00@5\xf8\xaf\xc0\x00\x00\x00',"{'xmin': -102.28917694091797, 'ymin': 21.971431732177734, 'xmax': -102.28917694091797, 'ymax': 21.971431732177734}",dining and drinking > restaurant > mexican restaurant > taco restaurant,1
4fe5325ce4b0c11281cfe804,Taqueria Alaniz,20.71711540222168,-105.2114486694336,,,,,,,,MX,2012-06-23,2021-08-16,,322 187 5300,,,,,,['4bf58dd8d48988d151941735'],['Dining and Drinking > Restaurant > Mexican Restaurant > Taco Restaurant'],b'\x00\x00\x00\x00\x01\xc0ZM\x88`\x00\x00\x00@4\xb7\x94\xe0\x00\x00\x00',"{'xmin': -105.2114486694336, 'ymin': 20.71711540222168, 'xmax': -105.2114486694336, 'ymax': 20.71711540222168}",dining and drinking > restaurant > mexican restaurant > taco restaurant,1
50d67e58e4b0ca303ac3ca78,Tacos Los Pandas,20.638620729727393,-103.39036204336284,Calle Gomera,Guadalajara,Jalisco,,,,,MX,2012-12-23,2021-08-16,,,,,,,,['4bf58dd8d48988d151941735'],['Dining and Drinking > Restaurant > Mexican Restaurant > Taco Restaurant'],b'\x00\x00\x00\x00\x01\xc0Y\xd8\xfb\xb1\x14u\xf6@4\xa3|\xa5\xec\xba\x10',"{'xmin': -103.39036204336284, 'ymin': 20.638620729727393, 'xmax': -103.39036204336284, 'ymax': 20.638620729727393}",dining and drinking > restaurant > mexican restaurant > taco restaurant,1
50cb883ce4b0262ed9ad9bfe,Tacos El Chino,20.141572952270508,-101.1870346069336,Urrutia,Uriangato,Guanajuato,38980,,,,MX,2012-12-14,2020-11-30,,,,,,,,['4bf58dd8d48988d151941735'],['Dining and Drinking > Restaurant > Mexican Restaurant > Taco Restaurant'],b'\x00\x00\x00\x00\x01\xc0YK\xf8`\x00\x00\x00@4$> \x00\x00\x00',"{'xmin': -101.1870346069336, 'ymin': 20.141572952270508, 'xmax': -101.1870346069336, 'ymax': 20.141572952270508}",dining and drinking > restaurant > mexican restaurant > taco restaurant,1
50198aa3e4b0ad58b3da24d9,"Tacos de Barbacoa ""Pepe""",20.70545376619099,-102.34343176693517,,,,,,,,MX,2012-08-01,2021-08-19,,,,,,,,['4bf58dd8d48988d151941735'],['Dining and Drinking > Restaurant > Mexican Restaurant > Taco Restaurant'],b'\x00\x00\x00\x00\x01\xc0Y\x95\xfa\xc9;\xd98@4\xb4\x98\x9e6\xa1]',"{'xmin': -102.34343176693517, 'ymin': 20.70545376619099, 'xmax': -102.34343176693517, 'ymax': 20.70545376619099}",dining and drinking > restaurant > mexican restaurant > taco restaurant,1
4ee5763bb634710b8bebf4d0,Tacos Cesar,20.63432368017202,-103.41237878997067,Vicente Guerrero,Zapopan,Jalisco,,,,,MX,2011-12-12,2020-11-25,,,,,,,,['4bf58dd8d48988d151941735'],['Dining and Drinking > Restaurant > Mexican Restaurant > Taco Restaurant'],b'\x00\x00\x00\x00\x01\xc0Y\xdadj\x02\x1f=@4\xa2c\tej\xcd',"{'xmin': -103.41237878997067, 'ymin': 20.63432368017202, 'xmax': -103.41237878997067, 'ymax': 20.63432368017202}",dining and drinking > restaurant > mexican restaurant > taco restaurant,1
5489ef0e498e8beca9919a62,taqueria Sergio's,20.55226443767705,-104.05195355415344,toluquilla 128d,Ameca,Jalisco,46600,,,,MX,2014-12-11,2020-11-23,,375 101 1142,,,,,,['4bf58dd8d48988d151941735'],['Dining and Drinking > Restaurant > Mexican Restaurant > Taco Restaurant'],b'\x00\x00\x00\x00\x01\xc0Z\x03S5\x00\x00\x00@4\x8da3\xc2\x91\x17',"{'xmin': -104.05195355415344, 'ymin': 20.55226443767705, 'xmax': -104.05195355415344, 'ymax': 20.55226443767705}",dining and drinking > restaurant > mexican restaurant > taco restaurant,1
4e091549d22d658532af9751,Dynamica Casas,20.714913983596723,-103.38707216686586,Av. Americas 1250,Zapopan,Jalisco,45160,,,,MX,2011-06-27,2020-11-26,,,,,,,,['4bf58dd8d48988d124941735' '4bf58dd8d48988d151941735'],"['Business and Professional Services > Office'
 'Dining and Drinking > Restaurant > Mexican Restaurant > Taco Restaurant']",b'\x00\x00\x00\x00\x01\xc0Y\xd8\xc5\xcaVx^@4\xb7\x04\x9aS\x00B',"{'xmin': -103.38707216686586, 'ymin': 20.714913983596723, 'xmax': -103.38707216686586, 'ymax': 20.714913983596723}","business and professional services > office, dining and drinking > restaurant > mexican restaurant > taco restaurant",1
5612ceb5498e5252126ae418,Doña Gloria,19.685805,-101.204542,,,,,,,,MX,2015-10-05,2021-08-17,,,,,,,,['4bf58dd8d48988d151941735'],['Dining and Drinking > Restaurant > Mexican Restaurant > Taco Restaurant'],b'\x00\x00\x00\x00\x01\xc0YM\x177T*$@3\xaf\x90\xea\x9en\xeb',"{'xmin': -101.204542, 'ymin': 19.685805, 'xmax': -101.204542, 'ymax': 19.685805}",dining and drinking > restaurant > mexican restaurant > taco restaurant,1
4df43a05b0fb807158c5569e,Taqueria Morales,20.79070075774078,-103.46839690145327,San Mateo,Tesistan (San Francisco Tesist,Jalisco,,,,,MX,2011-06-12,2020-11-25,,,,,,,,['4bf58dd8d48988d151941735'],['Dining and Drinking > Restaurant > Mexican Restaurant > Taco Restaurant'],b'\x00\x00\x00\x00\x01\xc0Y\xdd\xfa6\xffR\x88@4\xcak]gkH',"{'xmin': -103.46839690145327, 'ymin': 20.79070075774078, 'xmax': -103.46839690145327, 'ymax': 20.79070075774078}",dining and drinking > restaurant > mexican restaurant > taco restaurant,1
4f4ce7dbe4b00b42c3a2a6c1,Tacos Don Timnbon,19.246999,-103.715688,,Colima,,,,,,MX,2012-02-28,2020-11-24,,,,,,,,['4bf58dd8d48988d151941735'],['Dining and Drinking > Restaurant > Mexican Restaurant > Taco Restaurant'],b'\x00\x00\x00\x00\x01\xc0Y\xed\xcd\xd5\n\x88\xf0@3?;S\x93%\x0b',"{'xmin': -103.715688, 'ymin': 19.246999, 'xmax': -103.715688, 'ymax': 19.246999}",dining and drinking > restaurant > mexican restaurant > taco restaurant,1
5279513c498e44c2d0dde9ca,Loncheria Carretero,21.519663070081705,-104.92657989536706,,,,,,,,MX,2013-11-05,2021-08-17,,,,,,,,['4bf58dd8d48988d151941735'],['Dining and Drinking > Restaurant > Mexican Restaurant > Taco Restaurant'],b'\x00\x00\x00\x00\x01\xc0Z;M\x15\xc2\xee\xe3@5\x85\x08\xa3\x92\xf0\x9c',"{'xmin': -104.92657989536706, 'ymin': 21.519663070081705, 'xmax': -104.92657989536706, 'ymax': 21.519663070081705}",dining and drinking > restaurant > mexican restaurant > taco restaurant,1
523f995011d202b54e4601b1,Tacos De Rita,21.151615,-100.933311,,,,,,,,MX,2013-09-23,2021-08-16,,,,,,,,['4bf58dd8d48988d151941735'],['Dining and Drinking > Restaurant > Mexican Restaurant > Taco Restaurant'],b'\x00\x00\x00\x00\x01\xc0Y;\xbb^\x0f\x7f\xd0@5&\xd0=\x9a\x95B',"{'xmin': -100.933311, 'ymin': 21.151615, 'xmax': -100.933311, 'ymax': 21.151615}",dining and drinking > restaurant > mexican restaurant > taco restaurant,1
5ba3e7be0719020025a01601,Tacos Moy,20.654133,-103.422646,,Zapopan,Jalisco,45054,,,,MX,2018-09-20,2020-11-25,,,,,,,,['4bf58dd8d48988d151941735'],['Dining and Drinking > Restaurant > Mexican Restaurant > Taco Restaurant'],b'\x00\x00\x00\x00\x01\xc0Y\xdb\x0c\xa1\xce\xf2A@4\xa7uB\xa2<\x00',"{'xmin': -103.422646, 'ymin': 20.654133, 'xmax': -103.422646, 'ymax': 20.654133}",dining and drinking > restaurant > mexican restaurant > taco restaurant,1
520be64511d265c342d883ca,Tacos Silva,19.120049,-104.352444,Calle Juarez,Manzanillo,Colima,28860,,,,MX,2013-08-14,2020-11-23,,,,,,,jp1999pablo,['4bf58dd8d48988d151941735'],['Dining and Drinking > Restaurant > Mexican Restaurant > Taco Restaurant'],b'\x00\x00\x00\x00\x01\xc0Z\x16\x8eqGj\xf9@3\x1e\xbb\x88\x00\xea\xe2',"{'xmin': -104.352444, 'ymin': 19.120049, 'xmax': -104.352444, 'ymax': 19.120049}",dining and drinking > restaurant > mexican restaurant > taco restaurant,1
50a3d43be4b068340f6b8c4a,Tacos Tuxpeños Suc. Torre Puerto,19.079892117678057,-104.28807947775256,,,,,,,,MX,2012-11-14,2021-08-16,,,,,,,,['4bf58dd8d48988d151941735'],['Dining and Drinking > Restaurant > Mexican Restaurant > Taco Restaurant'],b'\x00\x00\x00\x00\x01\xc0Z\x12o\xe4\xe7\xe6%@3\x14s\xcfP\xa2\xac',"{'xmin': -104.28807947775256, 'ymin': 19.079892117678057, 'xmax': -104.28807947775256, 'ymax': 19.079892117678057}",dining and drinking > restaurant > mexican restaurant > taco restaurant,1
51f00e4c498eb0cf724e6027,"Quesadillas ""Doña Sol""",19.680327,-101.232863,,,,,,,,MX,2013-07-24,2021-08-14,,,,,,,,['4bf58dd8d48988d151941735'],['Dining and Drinking > Restaurant > Mexican Restaurant > Taco Restaurant'],b'\x00\x00\x00\x00\x01\xc0YN\xe7:6\\\xb3@3\xae)\xe9\x07\x95\xf6',"{'xmin': -101.232863, 'ymin': 19.680327, 'xmax': -101.232863, 'ymax': 19.680327}",dining and drinking > restaurant > mexican restaurant > taco restaurant,1
53235256498e4f0738570b6f,Cortijo,20.70003505936325,-101.36526565439414,,,,,,,,MX,2014-03-14,2021-08-15,,,,,,,,['4bf58dd8d48988d151941735'],['Dining and Drinking > Restaurant > Mexican Restaurant > Taco Restaurant'],b'\x00\x00\x00\x00\x01\xc0YW`\x831\xfed@4\xb35\x7ff\x04\xc1',"{'xmin': -101.36526565439414, 'ymin': 20.70003505936325, 'xmax': -101.36526565439414, 'ymax': 20.70003505936325}",dining and drinking > restaurant > mexican restaurant > taco restaurant,1
527a89b711d251cb61ec0a3d,Barbacoa “El profe“,21.1550235748291,-100.9352798461914,,,,,,,,MX,2013-11-06,2021-08-12,,,,,,,,['4bf58dd8d48988d151941735'],['Dining and Drinking > Restaurant > Mexican Restaurant > Taco Restaurant'],"b""\x00\x00\x00\x00\x01\xc0Y;\xdb\xa0\x00\x00\x00@5'\xaf\xa0\x00\x00\x00""","{'xmin': -100.9352798461914, 'ymin': 21.1550235748291, 'xmax': -100.9352798461914, 'ymax': 21.1550235748291}",dining and drinking > restaurant > mexican restaurant > taco restaurant,1
566e7e6e498edbe08ba89c04,tacos el rodeo,21.884789,-102.312424,Av Convención #1001,,Aguascalientes,,,,,MX,2015-12-14,2021-08-16,,,,,,,,['4bf58dd8d48988d151941735'],['Dining and Drinking > Restaurant > Mexican Restaurant > Taco Restaurant'],b'\x00\x00\x00\x00\x01\xc0Y\x93\xfe\xc1;\x9f\x12@5\xe2\x81\x88*\xdcM',"{'xmin': -102.312424, 'ymin': 21.884789, 'xmax': -102.312424, 'ymax': 21.884789}",dining and drinking > restaurant > mexican restaurant > taco restaurant,1
5dbf7143ef9ef00008d7887d,Tacos Los Provi,20.71185,-103.37925,,Zapopan,Jalisco,45160,,,,MX,2019-11-04,2020-11-25,,,,,,,,['4bf58dd8d48988d151941735'],['Dining and Drinking > Restaurant > Mexican Restaurant > Taco Restaurant'],b'\x00\x00\x00\x00\x01\xc0Y\xd8E\xa1\xca\xc0\x83@4\xb6;\xcd5\xa8X',"{'xmin': -103.37925, 'ymin': 20.71185, 'xmax': -103.37925, 'ymax': 20.71185}",dining and drinking > restaurant > mexican restaurant > taco restaurant,1
51474f9be4b0ff6e3c7a22e4,Tacos De Barbacoa Los pericos,20.668711396047215,-103.34132608941805,,Guadalajara,,,,,,MX,2013-03-18,2021-08-17,,,,,,,,['4bf58dd8d48988d151941735'],['Dining and Drinking > Restaurant > Mexican Restaurant > Taco Restaurant'],b'\x00\x00\x00\x00\x01\xc0Y\xd5\xd8Ia\xd4\x9d@4\xab0\xab\x88|<',"{'xmin': -103.34132608941805, 'ymin': 20.668711396047215, 'xmax': -103.34132608941805, 'ymax': 20.668711396047215}",dining and drinking > restaurant > mexican restaurant > taco restaurant,1
5b78545b2aff31002cc94a2b,El Taquerito Del Chata,21.100511,-101.611436,Av. Olimpica 1610,León,GTO,37290,,,,MX,2018-08-18,2020-11-21,2019-08-01,,,,,,,['4bf58dd8d48988d151941735'],['Dining and Drinking > Restaurant > Mexican Restaurant > Taco Restaurant'],b'\x00\x00\x00\x00\x01\xc0Yg!\xc4u\xe66@5\x19\xbb\x16\xc1\xe3e',"{'xmin': -101.611436, 'ymin': 21.100511, 'xmax': -101.611436, 'ymax': 21.100511}",dining and drinking > restaurant > mexican restaurant > taco restaurant,1
5629441b498e8dd708c91237,Tortilleria El Colli,20.647001962749233,-103.42707941713654,,,,,,,,MX,2015-10-22,2021-08-16,,,,,,,,['4bf58dd8d48988d151941735'],['Dining and Drinking > Restaurant > Mexican Restaurant > Taco Restaurant'],b'\x00\x00\x00\x00\x01\xc0Y\xdbUD\xe8Y[@4\xa5\xa1\xeb\xaet\xad',"{'xmin': -103.42707941713654, 'ymin': 20.647001962749233, 'xmax': -103.42707941713654, 'ymax': 20.647001962749233}",dining and drinking > restaurant > mexican restaurant > taco restaurant,1
55c69fe9498e95c95a691c16,La Malquerida,20.669810749005713,-103.2212167027614,Av Matatlan No 1211 A,Tonala,Jalisco,,,,,MX,2015-08-09,2020-11-23,,,,,,,,['4bf58dd8d48988d151941735'],['Dining and Drinking > Restaurant > Mexican Restaurant > Taco Restaurant'],"b'\x00\x00\x00\x00\x01\xc0Y\xce(j\x19\xec\x1b@4\xabx\xb7\x9d}""'","{'xmin': -103.2212167027614, 'ymin': 20.669810749005713, 'xmax': -103.2212167027614, 'ymax': 20.669810749005713}",dining and drinking > restaurant > mexican restaurant > taco restaurant,1
57799912498ee32e9ad7d012,Las tarascas,19.692237,-101.188315,,,,,,,,MX,2016-07-03,2021-08-12,,,,,,,,['4bf58dd8d48988d151941735'],['Dining and Drinking > Restaurant > Mexican Restaurant > Taco Restaurant'],b'\x00\x00\x00\x00\x01\xc0YL\rZ[\x96)@3\xb16q\xac\x14\xc6',"{'xmin': -101.188315, 'ymin': 19.692237, 'xmax': -101.188315, 'ymax': 19.692237}",dining and drinking > restaurant > mexican restaurant > taco restaurant,1
5f8a53e8b0fa1651c126e6eb,Tacos Don Nico,31.316748,-113.542867,,Puerto Peñasco,SON,83555,,,,MX,2020-10-17,2020-11-25,,,,,,,,['4bf58dd8d48988d151941735'],['Dining and Drinking > Restaurant > Mexican Restaurant > Taco Restaurant'],b'\x00\x00\x00\x00\x01\xc0\\b\xbeU:\xc4\xf8@?Q\x16e\x9d\x12\xcb',"{'xmin': -113.542867, 'ymin': 31.316748, 'xmax': -113.542867, 'ymax': 31.316748}",dining and drinking > restaurant > mexican restaurant > taco restaurant,1
507e41ede4b058f609ea955b,"Tacos ""Los Chones""",20.656883373357534,-103.36887108250933,Fresno 1896,Guadalajara,Jalisco,44909,,,,MX,2012-10-17,2023-12-19,,33 1113 5029,,,,,,['4bf58dd8d48988d151941735'],['Dining and Drinking > Restaurant > Mexican Restaurant > Taco Restaurant'],b'\x00\x00\x00\x00\x01\xc0Y\xd7\x9b\x95t\xf4U@4\xa8)\x82=\xdbU',"{'xmin': -103.36887108250933, 'ymin': 20.656883373357534, 'xmax': -103.36887108250933, 'ymax': 20.656883373357534}",dining and drinking > restaurant > mexican restaurant > taco restaurant,1
56d2683d498e20aecbde898a,Tacos Tito's,20.436649,-103.929112,,San Martín de Hidalgo,,,,,,MX,2016-02-28,2020-11-30,,,,,,,,['4bf58dd8d48988d151941735'],['Dining and Drinking > Restaurant > Mexican Restaurant > Taco Restaurant'],b'\x00\x00\x00\x00\x01\xc0Y\xfbv\x92-\x94\x8e@4o\xc8:\x96\xd4\xc3',"{'xmin': -103.929112, 'ymin': 20.436649, 'xmax': -103.929112, 'ymax': 20.436649}",dining and drinking > restaurant > mexican restaurant > taco restaurant,1
53ea5502498e24cd90127bf0,Las flautas del Abuelo,20.757238584663963,-105.34100437377278,,Bucerias,,,,,,MX,2014-08-12,2020-11-23,,,,,,,,['4bf58dd8d48988d151941735'],['Dining and Drinking > Restaurant > Mexican Restaurant > Taco Restaurant'],b'\x00\x00\x00\x00\x01\xc0ZU\xd3\x04\x02Ii@4\xc1\xdacLf\xab',"{'xmin': -105.34100437377278, 'ymin': 20.757238584663963, 'xmax': -105.34100437377278, 'ymax': 20.757238584663963}",dining and drinking > restaurant > mexican restaurant > taco restaurant,1
50ac4f81e4b086be6e6e569e,Tacos De Asada Y Costillitas A La Bbq,20.625739,-103.251744,,,,,,,,MX,2012-11-21,2021-08-12,,,,,,,,['4bf58dd8d48988d151941735'],['Dining and Drinking > Restaurant > Mexican Restaurant > Taco Restaurant'],b'\x00\x00\x00\x00\x01\xc0Y\xd0\x1c\x92\xdd\xbd\xb6@4\xa00n\\\xd4\xed',"{'xmin': -103.251744, 'ymin': 20.625739, 'xmax': -103.251744, 'ymax': 20.625739}",dining and drinking > restaurant > mexican restaurant > taco restaurant,1
51dd9247498e3c6e219fecee,Tacos Levanta Crudas,19.232317,-103.696831,,,,,,,,MX,2013-07-10,2021-08-12,,,,,,,,['4bf58dd8d48988d151941735'],['Dining and Drinking > Restaurant > Mexican Restaurant > Taco Restaurant'],b'\x00\x00\x00\x00\x01\xc0Y\xec\x98\xe1\x0c\xf5\xb2@3;y }N\t',"{'xmin': -103.696831, 'ymin': 19.232317, 'xmax': -103.696831, 'ymax': 19.232317}",dining and drinking > restaurant > mexican restaurant > taco restaurant,1
51fab7ad498e75e40ac10ff9,Taqueria El Sahuayo,20.635815551450882,-103.39824971938262,,,,,,,,MX,2013-08-01,2021-08-16,,,,,,,,['4bf58dd8d48988d151941735'],['Dining and Drinking > Restaurant > Mexican Restaurant > Taco Restaurant'],b'\x00\x00\x00\x00\x01\xc0Y\xd9|\xecd\x18\xee@4\xa2\xc4\xce\xd7\xc5\x0e',"{'xmin': -103.39824971938262, 'ymin': 20.635815551450882, 'xmax': -103.39824971938262, 'ymax': 20.635815551450882}",dining and drinking > restaurant > mexican restaurant > taco restaurant,1
4f57e017e4b0ad7e15550db6,Tacos & Salsas,21.88316622031588,-102.29564117365035,CC El Parían,Aguascalientes,AGS,,,,,MX,2012-03-07,2020-11-25,,,,,,,,['4bf58dd8d48988d151941735' '4bf58dd8d48988d1c1941735'],"['Dining and Drinking > Restaurant > Mexican Restaurant > Taco Restaurant'
 'Dining and Drinking > Restaurant > Mexican Restaurant']",b'\x00\x00\x00\x00\x01\xc0Y\x92\xeb\xc8\xf5\x0bz@5\xe2\x17.q0J',"{'xmin': -102.29564117365035, 'ymin': 21.88316622031588, 'xmax': -102.29564117365035, 'ymax': 21.88316622031588}","dining and drinking > restaurant > mexican restaurant > taco restaurant, dining and drinking > restaurant > mexican restaurant",1
52f7002a498ee5ec7ac13d6d,"Barbacoa y Tacos ""Don Pepe""",19.23589072557424,-103.70204779756904,,,,,,,,MX,2014-02-09,2021-08-15,,,,,,,,['4bf58dd8d48988d151941735'],['Dining and Drinking > Restaurant > Mexican Restaurant > Taco Restaurant'],b'\x00\x00\x00\x00\x01\xc0Y\xec\xeeY\xe2\xb2l@3<cU\xa7\xc5e',"{'xmin': -103.70204779756904, 'ymin': 19.23589072557424, 'xmax': -103.70204779756904, 'ymax': 19.23589072557424}",dining and drinking > restaurant > mexican restaurant > taco restaurant,1
59fd2237e65d0c59842aa433,Taquería El Carrizal,20.809761,-104.40116,Guerrero s/n,Amatlán de Cañas,Nayarit,63960,,,,MX,2017-11-04,2020-11-30,,324 100 2280,,,,,,['4bf58dd8d48988d151941735'],['Dining and Drinking > Restaurant > Mexican Restaurant > Taco Restaurant'],b'\x00\x00\x00\x00\x01\xc0Z\x19\xac\x9a\xfe\x1d\xa8@4\xcfL\x7f4\x93\x86',"{'xmin': -104.40116, 'ymin': 20.809761, 'xmax': -104.40116, 'ymax': 20.809761}",dining and drinking > restaurant > mexican restaurant > taco restaurant,1
571d3be0498e95f8075402b0,Tacos Arandas Tepabril,20.798802,-102.762414,,,,,,,,MX,2016-04-24,2021-08-10,,,,,,,,['4bf58dd8d48988d151941735'],['Dining and Drinking > Restaurant > Mexican Restaurant > Taco Restaurant'],b'\x00\x00\x00\x00\x01\xc0Y\xb0\xcbd\x17\x00\xce@4\xcc~I\xb1\xfa\xb9',"{'xmin': -102.762414, 'ymin': 20.798802, 'xmax': -102.762414, 'ymax': 20.798802}",dining and drinking > restaurant > mexican restaurant > taco restaurant,1
5921c995a92d987372ede115,Birria Y Doraritos Capuchinos,20.729706,-103.402822,,Guadalajara,JAL,45140,,,,MX,2017-05-21,2020-11-22,,,,,,,,['4bf58dd8d48988d151941735'],['Dining and Drinking > Restaurant > Mexican Restaurant > Taco Restaurant'],b'\x00\x00\x00\x00\x01\xc0Y\xd9\xc7\xd5\xed\x06\xff@4\xba\xce\x03-\xb1\xea',"{'xmin': -103.402822, 'ymin': 20.729706, 'xmax': -103.402822, 'ymax': 20.729706}",dining and drinking > restaurant > mexican restaurant > taco restaurant,1
50847751e4b0fedebf064d12,Tacon Tento PV,20.622514724731445,-105.22250366210938,Río Grande,Puerto Vallarta,Jalisco,48350,,,,MX,2012-10-21,2020-11-23,,,,,,,,['4bf58dd8d48988d151941735'],['Dining and Drinking > Restaurant > Mexican Restaurant > Taco Restaurant'],b'\x00\x00\x00\x00\x01\xc0ZN=\x80\x00\x00\x00@4\x9f] \x00\x00\x00',"{'xmin': -105.22250366210938, 'ymin': 20.622514724731445, 'xmax': -105.22250366210938, 'ymax': 20.622514724731445}",dining and drinking > restaurant > mexican restaurant > taco restaurant,1
504c0e85e4b04a78afd332f5,Tacos D'Anita,19.25496672854034,-103.75448277176474,José D. Ruíz 508-A,Villa de Álvarez,COL,28984,,,,MX,2012-09-09,2020-11-25,,,,,,,,['4bf58dd8d48988d151941735'],['Dining and Drinking > Restaurant > Mexican Restaurant > Taco Restaurant'],b'\x00\x00\x00\x00\x01\xc0Y\xf0Ir\x1b\x88\x00@3AE\x7f\xe0\xa6\x1c',"{'xmin': -103.75448277176474, 'ymin': 19.25496672854034, 'xmax': -103.75448277176474, 'ymax': 19.25496672854034}",dining and drinking > restaurant > mexican restaurant > taco restaurant,1
4eaa422902d52c460ac0fbf2,Tacos Los Reyes,21.13909742,-101.65971903,,,,,,,,MX,2011-10-28,2021-08-16,,,,,,,,['4bf58dd8d48988d151941735'],['Dining and Drinking > Restaurant > Mexican Restaurant > Taco Restaurant'],b'\x00\x00\x00\x00\x01\xc0Yj8\xd6*\x99\x87@5#\x9b\xe3u\xdb\xa4',"{'xmin': -101.65971903, 'ymin': 21.13909742, 'xmax': -101.65971903, 'ymax': 21.13909742}",dining and drinking > restaurant > mexican restaurant > taco restaurant,1
50d11579e4b0328e9a8c269a,El Taco Tripa,20.702071,-101.372032,,,,,,,,MX,2012-12-19,2021-08-12,,,,,,,,['4bf58dd8d48988d151941735'],['Dining and Drinking > Restaurant > Mexican Restaurant > Taco Restaurant'],b'\x00\x00\x00\x00\x01\xc0YW\xcf_ND1@4\xb3\xba\xec\xd0xS',"{'xmin': -101.372032, 'ymin': 20.702071, 'xmax': -101.372032, 'ymax': 20.702071}",dining and drinking > restaurant > mexican restaurant > taco restaurant,1
5793b64dcd10f4e24b0cf039,Pepe Hillos,21.903116626103667,-102.3009940981865,,Aguascalientes,Aguascalientes,,,,,MX,2016-07-23,2020-11-25,,,,,,,,['4bf58dd8d48988d151941735'],['Dining and Drinking > Restaurant > Mexican Restaurant > Taco Restaurant'],b'\x00\x00\x00\x00\x01\xc0Y\x93C|\xc0\x00\x00@5\xe72\xa6\xb5\x96\xd0',"{'xmin': -102.3009940981865, 'ymin': 21.903116626103667, 'xmax': -102.3009940981865, 'ymax': 21.903116626103667}",dining and drinking > restaurant > mexican restaurant > taco restaurant,1
4f6ffe87e4b0861078ea125b,El Padrino,20.640291,-103.316106,,,,,,,,MX,2012-03-26,2021-08-14,,,,,,,,['4bf58dd8d48988d151941735'],['Dining and Drinking > Restaurant > Mexican Restaurant > Taco Restaurant'],b'\x00\x00\x00\x00\x01\xc0Y\xd4;\x14\xa9\x04q@4\xa3\xea\x1ch\xecS',"{'xmin': -103.316106, 'ymin': 20.640291, 'xmax': -103.316106, 'ymax': 20.640291}",dining and drinking > restaurant > mexican restaurant > taco restaurant,1
57392f92498e1acc91e83cd7,Taquería La Negrita,20.754086,-105.25388,,,,,,,,MX,2016-05-16,2021-08-15,,,,,,,,['4bf58dd8d48988d151941735'],['Dining and Drinking > Restaurant > Mexican Restaurant > Taco Restaurant'],b'\x00\x00\x00\x00\x01\xc0ZP?\x91\xe6F\xf1@4\xc1\x0b\xc7\xb4_\x18',"{'xmin': -105.25388, 'ymin': 20.754086, 'xmax': -105.25388, 'ymax': 20.754086}",dining and drinking > restaurant > mexican restaurant > taco restaurant,1
4efe809b775bec6b42d6e500,Micheladas y Tacos el Rodeo,21.878451200012584,-102.30408714967459,Andador Arturo J. Pani #126,Aguascalientes,AGS,20000,,,,MX,2011-12-31,2020-11-22,,,,,,,TaqueriaelRodeo,['4bf58dd8d48988d151941735'],['Dining and Drinking > Restaurant > Mexican Restaurant > Taco Restaurant'],b'\x00\x00\x00\x00\x01\xc0Y\x93v)\xf2\xbf\x1e@5\xe0\xe2-\x87/\x9e',"{'xmin': -102.30408714967459, 'ymin': 21.878451200012584, 'xmax': -102.30408714967459, 'ymax': 21.878451200012584}",dining and drinking > restaurant > mexican restaurant > taco restaurant,1
5151dba8e4b0746a2ed549f7,Tacos Tere,21.118188,-101.655309,,,,,,,,MX,2013-03-26,2021-08-11,,,,,,,,['4bf58dd8d48988d151941735'],['Dining and Drinking > Restaurant > Mexican Restaurant > Taco Restaurant'],b'\x00\x00\x00\x00\x01\xc0Yi\xf0\x95(\xf1\x91@5\x1eA\x91\x9a\xc7\x97',"{'xmin': -101.655309, 'ymin': 21.118188, 'xmax': -101.655309, 'ymax': 21.118188}",dining and drinking > restaurant > mexican restaurant > taco restaurant,1
c2f96dda3ea0408287c9a6d9,Comidas Carmelita,21.129271,-101.68573,Violeta 145,León,Guanajuato,37320,,,,MX,2013-04-12,2023-12-08,,,,,,,,['4bf58dd8d48988d151941735'],['Dining and Drinking > Restaurant > Mexican Restaurant > Taco Restaurant'],b'\x00\x00\x00\x00\x01\xc0Yk\xe3\x00\x14\xf8\xb6@5!\x17\xe7}R;',"{'xmin': -101.68573, 'ymin': 21.129271, 'xmax': -101.68573, 'ymax': 21.129271}",dining and drinking > restaurant > mexican restaurant > taco restaurant,1
4d14e633401db60cfe20dca4,Tacos San Juan,21.118733000853634,-101.67188349959409,,,,,,,,MX,2010-12-24,2021-08-11,,,,,,,,['4bf58dd8d48988d151941735'],['Dining and Drinking > Restaurant > Mexican Restaurant > Taco Restaurant'],b'\x00\x00\x00\x00\x01\xc0Yk\x00#\xa6^\xa2@5\x1eeI3\x9fO',"{'xmin': -101.67188349959409, 'ymin': 21.118733000853634, 'xmax': -101.67188349959409, 'ymax': 21.118733000853634}",dining and drinking > restaurant > mexican restaurant > taco restaurant,1
5226990f11d2317157ad10a3,Tacos El Kiosko,20.71204873243177,-103.34605230293467,,Guadalajara,,,,,,MX,2013-09-04,2021-08-15,,,,,,,,['4bf58dd8d48988d151941735'],['Dining and Drinking > Restaurant > Mexican Restaurant > Taco Restaurant'],b'\x00\x00\x00\x00\x01\xc0Y\xd6%\xb8\x8e\xf3\xd5@4\xb6H\xd3b\xf3\xe5',"{'xmin': -103.34605230293467, 'ymin': 20.71204873243177, 'xmax': -103.34605230293467, 'ymax': 20.71204873243177}",dining and drinking > restaurant > mexican restaurant > taco restaurant,1
4e6b966f18381ea1be68f7cb,Carnitas El Cochi,20.656159,-103.421574,,Zapopan,Jalisco,,,,,MX,2011-09-10,2020-11-24,,,,,,,,['4bf58dd8d48988d151941735'],['Dining and Drinking > Restaurant > Mexican Restaurant > Taco Restaurant'],b'\x00\x00\x00\x00\x01\xc0Y\xda\xfb\x11\x83\xb6\x03@4\xa7\xfa\tE\xf9\xdf',"{'xmin': -103.421574, 'ymin': 20.656159, 'xmax': -103.421574, 'ymax': 20.656159}",dining and drinking > restaurant > mexican restaurant > taco restaurant,1
54979c9c498e349305e3deb5,Tacos de papa San Alfonso,20.638596,-103.294746,Guadalupe Victoria,Tlaquepaque,Jalisco,45520,,,,MX,2014-12-22,2020-11-25,,,,,,,,['4bf58dd8d48988d151941735'],['Dining and Drinking > Restaurant > Mexican Restaurant > Taco Restaurant'],b'\x00\x00\x00\x00\x01\xc0Y\xd2\xdd\x1eS\xa8\x1e@4\xa3{\x07\x07[>',"{'xmin': -103.294746, 'ymin': 20.638596, 'xmax': -103.294746, 'ymax': 20.638596}",dining and drinking > restaurant > mexican restaurant > taco restaurant,1
56ba2b0238fad031f723f50a,Tacos De Bistek,21.86537215730212,-102.69155072462878,,,,,,,,MX,2016-02-09,2020-11-23,,,,,,,,['4bf58dd8d48988d151941735'],['Dining and Drinking > Restaurant > Mexican Restaurant > Taco Restaurant'],b'\x00\x00\x00\x00\x01\xc0Y\xacB]\xf8s\x91@5\xdd\x89\x07\x9a{H',"{'xmin': -102.69155072462878, 'ymin': 21.86537215730212, 'xmax': -102.69155072462878, 'ymax': 21.86537215730212}",dining and drinking > restaurant > mexican restaurant > taco restaurant,1
51262b81e4b066d72bb29e79,Tacos Tuxpeños Tecnologico,19.260831,-103.72305,,,,,,,,MX,2013-02-21,2020-11-25,,,,,,,,['4bf58dd8d48988d151941735'],['Dining and Drinking > Restaurant > Mexican Restaurant > Taco Restaurant'],b'\x00\x00\x00\x00\x01\xc0Y\xeeFs\x81\xd7\xdc@3B\xc5\xd2\x06\xc8q',"{'xmin': -103.72305, 'ymin': 19.260831, 'xmax': -103.72305, 'ymax': 19.260831}",dining and drinking > restaurant > mexican restaurant > taco restaurant,1
55a9d260498ee308cd5ff663,Taqueria Los Güeros,21.019274937125054,-101.86170242551053,,,,,,,,MX,2015-07-18,2021-08-15,,,,,,,,['4bf58dd8d48988d151941735'],['Dining and Drinking > Restaurant > Mexican Restaurant > Taco Restaurant'],b'\x00\x00\x00\x00\x01\xc0Yw&!\xee\x1c\xe7@5\x04\xef3\xc8\x95\xa6',"{'xmin': -101.86170242551053, 'ymin': 21.019274937125054, 'xmax': -101.86170242551053, 'ymax': 21.019274937125054}",dining and drinking > restaurant > mexican restaurant > taco restaurant,1
5c1e51b851950e002cebf252,Tacos De Cabeza Don Jose,21.847887,-102.30832,General Luis moya,Aguascalientes,Aguascalientes,20287,,,,MX,2018-12-22,2020-11-30,,,,,,,,['4bf58dd8d48988d151941735'],['Dining and Drinking > Restaurant > Mexican Restaurant > Taco Restaurant'],"b'\x00\x00\x00\x00\x01\xc0Y\x93\xbb\x83\xcf,\xf9@5\xd9\x0f\x1fW\xb4\x1c'","{'xmin': -102.30832, 'ymin': 21.847887, 'xmax': -102.30832, 'ymax': 21.847887}",dining and drinking > restaurant > mexican restaurant > taco restaurant,1
514f79bfe4b0f713baab995a,Tacos Los Zarape,20.644525967233594,-103.29129658093221,,,,,,,,MX,2013-03-24,2021-08-16,,,,,,,,['4bf58dd8d48988d151941735'],['Dining and Drinking > Restaurant > Mexican Restaurant > Taco Restaurant'],"b'\x00\x00\x00\x00\x01\xc0Y\xd2\xa4\x9aj""\x97@4\xa4\xff\xa7^\xb0\xe9'","{'xmin': -103.29129658093221, 'ymin': 20.644525967233594, 'xmax': -103.29129658093221, 'ymax': 20.644525967233594}",dining and drinking > restaurant > mexican restaurant > taco restaurant,1
5355da1e498ed13f484f5b8d,Tacos Tano,20.660732780117666,-103.31591584172115,Fray Antonio De Segovia,,,,,,,MX,2014-04-22,2021-08-17,,,,,,,,['4bf58dd8d48988d151941735'],['Dining and Drinking > Restaurant > Mexican Restaurant > Taco Restaurant'],b'\x00\x00\x00\x00\x01\xc0Y\xd47\xf7\x14\x1e\xc3@4\xa9%\xc8\x92\x00#',"{'xmin': -103.31591584172115, 'ymin': 20.660732780117666, 'xmax': -103.31591584172115, 'ymax': 20.660732780117666}",dining and drinking > restaurant > mexican restaurant > taco restaurant,1
589abe4ace593d19dfd5fede,la charola mixe,20.526593,-100.80337,,,,,,,,MX,2017-02-08,2021-08-13,,,,,,,,['4bf58dd8d48988d151941735'],['Dining and Drinking > Restaurant > Mexican Restaurant > Taco Restaurant'],b'\x00\x00\x00\x00\x01\xc0Y3jj\x01%\x9a@4\x86\xce\xcc\x81Mr',"{'xmin': -100.80337, 'ymin': 20.526593, 'xmax': -100.80337, 'ymax': 20.526593}",dining and drinking > restaurant > mexican restaurant > taco restaurant,1
4e511e4f52b1e893ad71f626,Tacos Jorge del Sol,20.652240984863916,-103.43307301602033,Copernico,Zapopan,Jalisco,,,,,MX,2011-08-21,2020-11-22,,,,,,,,['4bf58dd8d48988d151941735'],['Dining and Drinking > Restaurant > Mexican Restaurant > Taco Restaurant'],b'\x00\x00\x00\x00\x01\xc0Y\xdb\xb7w\xe2%\x98@4\xa6\xf9C\xe3\x19\xf2',"{'xmin': -103.43307301602033, 'ymin': 20.652240984863916, 'xmax': -103.43307301602033, 'ymax': 20.652240984863916}",dining and drinking > restaurant > mexican restaurant > taco restaurant,1
4fe5eb2ae4b0756d12a88064,torteria el jefe,22.16901206970215,-101.01116943359375,Av Tezontle,,,,,,,MX,2012-06-23,2021-08-11,,,,,,,,['4bf58dd8d48988d151941735'],['Dining and Drinking > Restaurant > Mexican Restaurant > Taco Restaurant'],b'\x00\x00\x00\x00\x01\xc0Y@\xb7\x00\x00\x00\x00@6+D`\x00\x00\x00',"{'xmin': -101.01116943359375, 'ymin': 22.16901206970215, 'xmax': -101.01116943359375, 'ymax': 22.16901206970215}",dining and drinking > restaurant > mexican restaurant > taco restaurant,1
5580c835498e023fb82e83db,"Tacos ""DUA""",21.837743759155273,-102.29361724853516,,,,,,,,MX,2015-06-17,2021-08-12,,,,,,,,['4bf58dd8d48988d151941735'],['Dining and Drinking > Restaurant > Mexican Restaurant > Taco Restaurant'],b'\x00\x00\x00\x00\x01\xc0Y\x92\xca\xa0\x00\x00\x00@5\xd6v`\x00\x00\x00',"{'xmin': -102.29361724853516, 'ymin': 21.837743759155273, 'xmax': -102.29361724853516, 'ymax': 21.837743759155273}",dining and drinking > restaurant > mexican restaurant > taco restaurant,1
5186be62498e85aeb7b49448,Tacos De Birria De Res Con Frijoles Y Tortilla Recien Hecha Y Baratos,20.677789,-103.434219,,,,,,,,MX,2013-05-05,2021-08-12,,,,,,,,['4bf58dd8d48988d151941735'],['Dining and Drinking > Restaurant > Mexican Restaurant > Taco Restaurant'],b'\x00\x00\x00\x00\x01\xc0Y\xdb\xca>}\x13Q@4\xad\x83\x94t\x96\xab',"{'xmin': -103.434219, 'ymin': 20.677789, 'xmax': -103.434219, 'ymax': 20.677789}",dining and drinking > restaurant > mexican restaurant > taco restaurant,1
4e5662347d8b60849c4e3aa2,Loncheria Gloria,20.68602310219407,-103.34239177160657,,Guadalajara,Jalisco,,,,,MX,2011-08-25,2023-12-19,,33 3614 0304,,,,,,['4bf58dd8d48988d1c1941735' '4bf58dd8d48988d151941735'],"['Dining and Drinking > Restaurant > Mexican Restaurant'
 'Dining and Drinking > Restaurant > Mexican Restaurant > Taco Restaurant']",b'\x00\x00\x00\x00\x01\xc0Y\xd5\xe9\xbf-^\x10@4\xaf\x9f5\xc49X',"{'xmin': -103.34239177160657, 'ymin': 20.68602310219407, 'xmax': -103.34239177160657, 'ymax': 20.68602310219407}","dining and drinking > restaurant > mexican restaurant, dining and drinking > restaurant > mexican restaurant > taco restaurant",1
58f185bc65211f5a7e76f120,Taqueria El Pariente,20.799852,-103.487076,Avenida Juan Manuel Ruvalcaba 7,Tesistán,Jalisco,45100,,,,MX,2017-04-15,2020-11-23,,,,,,,,['4bf58dd8d48988d151941735'],['Dining and Drinking > Restaurant > Mexican Restaurant > Taco Restaurant'],"b'\x00\x00\x00\x00\x01\xc0Y\xdf,@\xd0\xaa\xa8@4\xcc\xc3\x19\xc5\xa3\xe4'","{'xmin': -103.487076, 'ymin': 20.799852, 'xmax': -103.487076, 'ymax': 20.799852}",dining and drinking > restaurant > mexican restaurant > taco restaurant,1
50668724e4b03c3d3a6672d7,El Pastorcito,20.947450962256323,-101.43198240665934,,,,,,,,MX,2012-09-29,2021-08-16,,,,,,,,['4bf58dd8d48988d151941735'],['Dining and Drinking > Restaurant > Mexican Restaurant > Taco Restaurant'],"b""\x00\x00\x00\x00\x01\xc0Y[\xa5\x99\x89C'@4\xf2\x8c%qtc""","{'xmin': -101.43198240665934, 'ymin': 20.947450962256323, 'xmax': -101.43198240665934, 'ymax': 20.947450962256323}",dining and drinking > restaurant > mexican restaurant > taco restaurant,1
5aadffc989b06a64eb02451c,Tacos El Gordo,20.73056,-105.28336,,Mezcales,Nayarit,,,,,MX,2018-03-18,2023-12-20,,322 170 5741,,,,,,['4bf58dd8d48988d151941735'],['Dining and Drinking > Restaurant > Mexican Restaurant > Taco Restaurant'],"b'\x00\x00\x00\x00\x01\xc0ZR""\x91\xfb?\xa7@4\xbb\x05\xfa\xeb\xc4\t'","{'xmin': -105.28336, 'ymin': 20.73056, 'xmax': -105.28336, 'ymax': 20.73056}",dining and drinking > restaurant > mexican restaurant > taco restaurant,1
4f2bf38de4b0dd6b778b3d3e,Tacos Mar Y Tierra,21.135128319181494,-101.67702473100464,Blvd Miguel Hidalgo 208,Leon,Guanajuato,,,,,MX,2012-02-03,2020-11-21,,,,,,,,['4bf58dd8d48988d151941735'],['Dining and Drinking > Restaurant > Mexican Restaurant > Taco Restaurant'],"b'\x00\x00\x00\x00\x01\xc0YkT_\x89\x8f\xe1@5""\x97\xc4\xff\xa5\xe1'","{'xmin': -101.67702473100464, 'ymin': 21.135128319181494, 'xmax': -101.67702473100464, 'ymax': 21.135128319181494}",dining and drinking > restaurant > mexican restaurant > taco restaurant,1
5a73939525ecca5ea848eea2,El Huaso Charro,21.945109,-102.297869,,Aguascalientes,AGS,20311,,,,MX,2018-02-01,2020-11-23,,,,,,,,['4bf58dd8d48988d151941735'],['Dining and Drinking > Restaurant > Mexican Restaurant > Taco Restaurant'],"b""\x00\x00\x00\x00\x01\xc0Y\x93\x10I#_\x81@5\xf1\xf2\xa9\xd6'\xbf""","{'xmin': -102.297869, 'ymin': 21.945109, 'xmax': -102.297869, 'ymax': 21.945109}",dining and drinking > restaurant > mexican restaurant > taco restaurant,1
5016f07ce4b097af8ba4246b,Barbacoa Picapiedra,20.69302068685834,-103.44985883786916,,,,,,,,MX,2012-07-30,2021-08-17,,,,,,,,['4bf58dd8d48988d151941735'],['Dining and Drinking > Restaurant > Mexican Restaurant > Taco Restaurant'],b'\x00\x00\x00\x00\x01\xc0Y\xdc\xca|\xb9\x1d\xbc@4\xb1i\xcd\xc1\x82\x0e',"{'xmin': -103.44985883786916, 'ymin': 20.69302068685834, 'xmax': -103.44985883786916, 'ymax': 20.69302068685834}",dining and drinking > restaurant > mexican restaurant > taco restaurant,1
4e00cd2b52b1ac66aac830a2,Rincon Hidalguense,20.733324633197807,-105.28556813463265,Av. Tepic #204 Norte Mezcales,San Vicente,NAY,,,,,MX,2011-06-21,2020-11-23,,522965763,,,,,,['4bf58dd8d48988d151941735'],['Dining and Drinking > Restaurant > Mexican Restaurant > Taco Restaurant'],b'\x00\x00\x00\x00\x01\xc0ZRF\xbf\x91\xc1\xba@4\xbb\xbb)\xc4\xef\x8f',"{'xmin': -105.28556813463265, 'ymin': 20.733324633197807, 'xmax': -105.28556813463265, 'ymax': 20.733324633197807}",dining and drinking > restaurant > mexican restaurant > taco restaurant,1
66f1011992690064de53687e,Tacos El Aeropuerto,20.75099,-103.37989,,Zapopan,Jalisco,45187,,,,MX,2024-09-23,2024-09-23,,,,,,,,['4bf58dd8d48988d151941735'],['Dining and Drinking > Restaurant > Mexican Restaurant > Taco Restaurant'],b'\x00\x00\x00\x00\x01\xc0Y\xd8P\x1e%\x84\xf5@4\xc0@\xe1q\x9f\x80',"{'xmin': -103.37989, 'ymin': 20.75099, 'xmax': -103.37989, 'ymax': 20.75099}",dining and drinking > restaurant > mexican restaurant > taco restaurant,1
535c401c11d2c8ebb4c0b43b,Tortas y tacos El güero y su cazo de fritangas,20.68186710474426,-103.32728948369541,pablo valdez 1008,"Guadalajara, JAL",jalisco,44360,,,,MX,2014-04-26,2021-08-16,,,,,,,,['4bf58dd8d48988d151941735'],['Dining and Drinking > Restaurant > Mexican Restaurant > Taco Restaurant'],b'\x00\x00\x00\x00\x01\xc0Y\xd4\xf2O\x972\xfa@4\xae\x8e\xd7\xb3\x18E',"{'xmin': -103.32728948369541, 'ymin': 20.68186710474426, 'xmax': -103.32728948369541, 'ymax': 20.68186710474426}",dining and drinking > restaurant > mexican restaurant > taco restaurant,1
56ae4ed2498e71625c9cf315,Carnitas Simitrio,20.359268,-102.00322,Av Padre Hidalgo 306,Santa Ana Pacueco,Guanajuato,,,,,MX,2016-01-31,2020-11-22,,,,,,,,['4bf58dd8d48988d151941735'],['Dining and Drinking > Restaurant > Mexican Restaurant > Taco Restaurant'],b'\x00\x00\x00\x00\x01\xc0Y\x804\xc1\xa8\xac\\@4[\xf8\xfc\xd6\x7f\xd4',"{'xmin': -102.00322, 'ymin': 20.359268, 'xmax': -102.00322, 'ymax': 20.359268}",dining and drinking > restaurant > mexican restaurant > taco restaurant,1
52901fd611d29c24ef1df4e3,"Tacos ""El Galán""",21.119199577093262,-101.66333016693531,,,,,,,,MX,2013-11-23,2021-08-15,,,,,,,,['4bf58dd8d48988d151941735'],['Dining and Drinking > Restaurant > Mexican Restaurant > Taco Restaurant'],b'\x00\x00\x00\x00\x01\xc0Yjt\x00_[\xfe@5\x1e\x83\xdd\rP\x06',"{'xmin': -101.66333016693531, 'ymin': 21.119199577093262, 'xmax': -101.66333016693531, 'ymax': 21.119199577093262}",dining and drinking > restaurant > mexican restaurant > taco restaurant,1
5e5218128f54b1000878cb7d,Tacos Sahuayo,20.646121,-105.214148,Av Fidel Velazquez,Puerto Vallarta,JAL,48318,,,,MX,2020-02-23,2020-11-24,,,,,,,,['4bf58dd8d48988d151941735'],['Dining and Drinking > Restaurant > Mexican Restaurant > Taco Restaurant'],b'\x00\x00\x00\x00\x01\xc0ZM\xb4\x99\xd0 >@4\xa5h/\x94BB',"{'xmin': -105.214148, 'ymin': 20.646121, 'xmax': -105.214148, 'ymax': 20.646121}",dining and drinking > restaurant > mexican restaurant > taco restaurant,1
4db7a6a6fa8c377d83ad9b94,Las Ranas,22.17095265432505,-101.00375175476074,Prolongación Muñoz,San Luis Potosí,San Luis Potosí,78140,,,,MX,2011-04-27,2020-11-25,2014-04-28,,,,,,,['4bf58dd8d48988d151941735' '4bf58dd8d48988d153941735'],"['Dining and Drinking > Restaurant > Mexican Restaurant > Taco Restaurant'
 'Dining and Drinking > Restaurant > Mexican Restaurant > Burrito Restaurant']",b'\x00\x00\x00\x00\x01\xc0Y@=x\x00\x00\x00@6+\xc3\x8d\x9b}\x90',"{'xmin': -101.00375175476074, 'ymin': 22.17095265432505, 'xmax': -101.00375175476074, 'ymax': 22.17095265432505}","dining and drinking > restaurant > mexican restaurant > taco restaurant, dining and drinking > restaurant > mexican restaurant > burrito restaurant",1
4fef2f8ee4b094d300c4be7e,Tacos Doña Berta,19.23685012400794,-103.71269741905483,Aniceto Castellanos,Colima,,,,,,MX,2012-06-30,2020-11-23,,,,,,,,['4bf58dd8d48988d151941735'],['Dining and Drinking > Restaurant > Mexican Restaurant > Taco Restaurant'],b'\x00\x00\x00\x00\x01\xc0Y\xed\x9c\xd5\xa2\xb2/@3<\xa25\xb0\xaa\xeb',"{'xmin': -103.71269741905483, 'ymin': 19.23685012400794, 'xmax': -103.71269741905483, 'ymax': 19.23685012400794}",dining and drinking > restaurant > mexican restaurant > taco restaurant,1
50719e95e4b0ec75e6aaa5ff,"Tacos Barbacoa ""Nuevo Leon""",20.697033,-103.3579,,,,,,,,MX,2012-10-07,2021-08-13,,,,,,,,['4bf58dd8d48988d151941735'],['Dining and Drinking > Restaurant > Mexican Restaurant > Taco Restaurant'],b'\x00\x00\x00\x00\x01\xc0Y\xd6\xe7\xd5f\xcfB@4\xb2p\xc13;\x97',"{'xmin': -103.3579, 'ymin': 20.697033, 'xmax': -103.3579, 'ymax': 20.697033}",dining and drinking > restaurant > mexican restaurant > taco restaurant,1
5bc01475efa82a002ccf8844,Tacos Del Country,21.478043,-104.86151,,Tepic,Nayarit,63175,,,,MX,2018-10-12,2020-11-24,,,,,,,,['4bf58dd8d48988d151941735'],['Dining and Drinking > Restaurant > Mexican Restaurant > Taco Restaurant'],"b'\x00\x00\x00\x00\x01\xc0Z7""\xfa\xd6\xcbS@5za\x06\xab\x14\xec'","{'xmin': -104.86151, 'ymin': 21.478043, 'xmax': -104.86151, 'ymax': 21.478043}",dining and drinking > restaurant > mexican restaurant > taco restaurant,1
57f1bb39498e48e3c554b066,Taqueria La Cuchilla,20.650177,-103.31056,,Guadalajara,Jalisco,,,,,MX,2016-10-03,2021-08-14,,,,,,,,['4bf58dd8d48988d151941735'],['Dining and Drinking > Restaurant > Mexican Restaurant > Taco Restaurant'],b'\x00\x00\x00\x00\x01\xc0Y\xd3\xe07\x0c\xdc\x87@4\xa6q\xff\xf7\x9c\x84',"{'xmin': -103.31056, 'ymin': 20.650177, 'xmax': -103.31056, 'ymax': 20.650177}",dining and drinking > restaurant > mexican restaurant > taco restaurant,1
50ff49cee4b09a0c1eaadba1,Tacos de con El Guero,20.637583922268014,-103.32167866001913,Río Juárez,Guadalajara,Jalisco,44890,,,,MX,2013-01-23,2021-08-11,,,,,,,,['4bf58dd8d48988d151941735'],['Dining and Drinking > Restaurant > Mexican Restaurant > Taco Restaurant'],b'\x00\x00\x00\x00\x01\xc0Y\xd4\x96b\x17&\x9c@4\xa38\xb3.\x98\xb6',"{'xmin': -103.32167866001913, 'ymin': 20.637583922268014, 'xmax': -103.32167866001913, 'ymax': 20.637583922268014}",dining and drinking > restaurant > mexican restaurant > taco restaurant,1
4e1c7089b0fb543b8ff3cf70,Carnitas Don Gil,20.604788,-105.236213,Aquiles Serdan,Puerto Vallarta,Jalisco,,,,,MX,2011-07-12,2020-11-24,,,,,,,,['4bf58dd8d48988d151941735'],['Dining and Drinking > Restaurant > Mexican Restaurant > Taco Restaurant'],b'\x00\x00\x00\x00\x01\xc0ZO\x1e\x1d!x\xf7@4\x9a\xd3b\xe9\x03d',"{'xmin': -105.236213, 'ymin': 20.604788, 'xmax': -105.236213, 'ymax': 20.604788}",dining and drinking > restaurant > mexican restaurant > taco restaurant,1
4ff99acce4b036acfbda3383,Taquería La Vaquita,19.22817261869849,-104.69783077585922,,,,,,,,MX,2012-07-08,2021-08-23,,,,,,,,['4bf58dd8d48988d151941735'],['Dining and Drinking > Restaurant > Mexican Restaurant > Taco Restaurant'],"b""\x00\x00\x00\x00\x01\xc0Z,\xa9Bj\x1dJ@3:i\x85O'\x17""","{'xmin': -104.69783077585922, 'ymin': 19.22817261869849, 'xmax': -104.69783077585922, 'ymax': 19.22817261869849}",dining and drinking > restaurant > mexican restaurant > taco restaurant,1
4c3e54fa0e0d0f47b474157f,Tacos Don Luis,21.11613442205429,-101.69802974142269,Mariano Escobedo #1908,León de Los Aldama,Gt,,,,,MX,2010-07-15,2023-12-20,,477 245 0024,,,,,,['4bf58dd8d48988d151941735'],['Dining and Drinking > Restaurant > Mexican Restaurant > Taco Restaurant'],b'\x00\x00\x00\x00\x01\xc0Yl\xac\x84\xef\xc2\xee@5\x1d\xba\xfcH\xa9\xbd',"{'xmin': -101.69802974142269, 'ymin': 21.11613442205429, 'xmax': -101.69802974142269, 'ymax': 21.11613442205429}",dining and drinking > restaurant > mexican restaurant > taco restaurant,1
5685e34f498e809a70f08416,Tacos de barbacoa,16.833756,-99.800379,,,,,,,,MX,2016-01-01,2021-08-13,,,,,,,,['4bf58dd8d48988d151941735'],['Dining and Drinking > Restaurant > Mexican Restaurant > Taco Restaurant'],b'\x00\x00\x00\x00\x01\xc0X\xf39h\xd7Y\xef@0\xd5q\x08\x80\xd8\x02',"{'xmin': -99.800379, 'ymin': 16.833756, 'xmax': -99.800379, 'ymax': 16.833756}",dining and drinking > restaurant > mexican restaurant > taco restaurant,1
4ffc4f50e4b09736bd171460,Tacos de los juzgados,19.20335,-96.15359,,,,,,,,MX,2012-07-10,2021-08-13,,,,,,,,['4bf58dd8d48988d151941735'],['Dining and Drinking > Restaurant > Mexican Restaurant > Taco Restaurant'],b'\x00\x00\x00\x00\x01\xc0X\t\xd4k&\xbf\x87@34\x0e\xbe\xdf\xa4@',"{'xmin': -96.15359, 'ymin': 19.20335, 'xmax': -96.15359, 'ymax': 19.20335}",dining and drinking > restaurant > mexican restaurant > taco restaurant,1
507db1d6e4b0e12119065f24,Doña Mony,19.24736480476346,-99.61986653156224,,,,,,,,MX,2012-10-16,2020-11-22,,,,,,,,['4bf58dd8d48988d151941735'],['Dining and Drinking > Restaurant > Mexican Restaurant > Taco Restaurant'],b'\x00\x00\x00\x00\x01\xc0X\xe7\xab\xe4\xac<w@3?SL\xc2\xa3\xf7',"{'xmin': -99.61986653156224, 'ymin': 19.24736480476346, 'xmax': -99.61986653156224, 'ymax': 19.24736480476346}",dining and drinking > restaurant > mexican restaurant > taco restaurant,1
5ca1020766f3cd002cd10b5a,Don Carnelio,19.335049,-99.19875,Eje 10 Sur 273,Ciudad de México,Ciudad de México,01090,,,,MX,2019-03-31,2023-04-04,,55 7095 1536,http://www.doncarnelio.com,,,,,['4bf58dd8d48988d151941735'],['Dining and Drinking > Restaurant > Mexican Restaurant > Taco Restaurant'],b'\x00\x00\x00\x00\x01\xc0X\xcc\xb8Q\xeb\x85\x1f@3U\xc5\xc5q\x8e\xb9',"{'xmin': -99.19875, 'ymin': 19.335049, 'xmax': -99.19875, 'ymax': 19.335049}",dining and drinking > restaurant > mexican restaurant > taco restaurant,1
5158e634e4b0702acdf3a29e,Tacos Quico,20.430804,-103.310325,,,,,,,,MX,2013-04-01,2021-08-15,,,,,,,,['4bf58dd8d48988d151941735'],['Dining and Drinking > Restaurant > Mexican Restaurant > Taco Restaurant'],b'\x00\x00\x00\x00\x01\xc0Y\xd3\xdc]c\x88f@4nI+\xc2\xfci',"{'xmin': -103.310325, 'ymin': 20.430804, 'xmax': -103.310325, 'ymax': 20.430804}",dining and drinking > restaurant > mexican restaurant > taco restaurant,1
51cf0860498e6282199e9ffb,Tacos Jorge,18.76719,-95.76201,Atrás Del Mercado 20 De Noviembre,Alvarado,Veracruz,,,,,MX,2013-06-29,2020-11-25,,,,,,,,['4bf58dd8d48988d151941735'],['Dining and Drinking > Restaurant > Mexican Restaurant > Taco Restaurant'],b'\x00\x00\x00\x00\x01\xc0W\xf0\xc4\xc5\x97Nf@2\xc4f\x90W\xd1x',"{'xmin': -95.76201, 'ymin': 18.76719, 'xmax': -95.76201, 'ymax': 18.76719}",dining and drinking > restaurant > mexican restaurant > taco restaurant,1
51f9d19c498ea2cbb9f8f896,"Taqueria ""Grimaldo""",20.359791070478455,-102.77910092851896,,,,,,,,MX,2013-08-01,2021-08-17,,,,,,,,['4bf58dd8d48988d151941735'],['Dining and Drinking > Restaurant > Mexican Restaurant > Taco Restaurant'],b'\x00\x00\x00\x00\x01\xc0Y\xb1\xdc\xca$\x11k@4\\\x1bD\x81\x19\t',"{'xmin': -102.77910092851896, 'ymin': 20.359791070478455, 'xmax': -102.77910092851896, 'ymax': 20.359791070478455}",dining and drinking > restaurant > mexican restaurant > taco restaurant,1
577dc5c3498e6b2d728862d8,tacos don Rodo,19.699231,-101.160333,,,,,,,,MX,2016-07-07,2021-08-14,,,,,,,,['4bf58dd8d48988d151941735'],['Dining and Drinking > Restaurant > Mexican Restaurant > Taco Restaurant'],b'\x00\x00\x00\x00\x01\xc0YJB\xe5W\xde\r@3\xb3\x00\xcd\x85Yq',"{'xmin': -101.160333, 'ymin': 19.699231, 'xmax': -101.160333, 'ymax': 19.699231}",dining and drinking > restaurant > mexican restaurant > taco restaurant,1
51813abd498e921eda7ca765,"Tacos ""Mane""",19.71363008466341,-101.18759408447019,,,,,,,,MX,2013-05-01,2021-08-11,,,,,,,,['4bf58dd8d48988d151941735'],['Dining and Drinking > Restaurant > Mexican Restaurant > Taco Restaurant'],b'\x00\x00\x00\x00\x01\xc0YL\x01\x8a\x9en>@3\xb6\xb0v\x13\x121',"{'xmin': -101.18759408447019, 'ymin': 19.71363008466341, 'xmax': -101.18759408447019, 'ymax': 19.71363008466341}",dining and drinking > restaurant > mexican restaurant > taco restaurant,1
4eb37788f5b94bd85af81e3b,Tacos Sonora,19.703352,-103.473138,,Ciudad Guzmán,Jalisco,,,,,MX,2011-11-04,2020-11-30,,,,,,,,['4bf58dd8d48988d151941735'],['Dining and Drinking > Restaurant > Mexican Restaurant > Taco Restaurant'],b'\x00\x00\x00\x00\x01\xc0Y\xdeG\xe4\x9b\x1f\xac@3\xb4\x0e\xe0m\x93\x81',"{'xmin': -103.473138, 'ymin': 19.703352, 'xmax': -103.473138, 'ymax': 19.703352}",dining and drinking > restaurant > mexican restaurant > taco restaurant,1
4f5c5680e4b0d8f7b6df7ba8,El Fregon,19.30938,-99.082839,,,,,,,,MX,2012-03-11,2021-08-13,,,,,,,,['4bf58dd8d48988d151941735'],['Dining and Drinking > Restaurant > Mexican Restaurant > Taco Restaurant'],b'\x00\x00\x00\x00\x01\xc0X\xc5M;\xf2\xf5V@3O3\x87\x16\tW',"{'xmin': -99.082839, 'ymin': 19.30938, 'xmax': -99.082839, 'ymax': 19.30938}",dining and drinking > restaurant > mexican restaurant > taco restaurant,1
550dbeed498eb9b173ba3aa1,Tacos El Chilango MAY,19.175414630547206,-96.12435248164631,Bolívar,Veracruz,Veracruz,,,,,MX,2015-03-21,2020-11-24,,,,,,,,['4bf58dd8d48988d151941735'],['Dining and Drinking > Restaurant > Mexican Restaurant > Taco Restaurant'],"b'\x00\x00\x00\x00\x01\xc0X\x07\xf5d\x1cv;@3,\xe7\xf9%p\xaf'","{'xmin': -96.12435248164631, 'ymin': 19.175414630547206, 'xmax': -96.12435248164631, 'ymax': 19.175414630547206}",dining and drinking > restaurant > mexican restaurant > taco restaurant,1
4ed835fc29c2b91225ca43a6,Los Desvelados,19.26469100493741,-99.57668903083218,Av Tecnologico,Metepec,Edo Mex,,,,,MX,2011-12-02,2020-11-25,,,,,,,,['4bf58dd8d48988d151941735'],['Dining and Drinking > Restaurant > Mexican Restaurant > Taco Restaurant'],b'\x00\x00\x00\x00\x01\xc0X\xe4\xe8y\x1b\xd8\xb7@3C\xc2\xca)\xc0f',"{'xmin': -99.57668903083218, 'ymin': 19.26469100493741, 'xmax': -99.57668903083218, 'ymax': 19.26469100493741}",dining and drinking > restaurant > mexican restaurant > taco restaurant,1
5054a8a1e4b0e7a977881f54,Chivo a la penca,19.728443053559296,-101.19820379135972,Av Torreon Nuevo 1500,Morelia,,,,,,MX,2012-09-15,2020-11-24,,,,,,,,['4bf58dd8d48988d151941735'],['Dining and Drinking > Restaurant > Mexican Restaurant > Taco Restaurant'],b'\x00\x00\x00\x00\x01\xc0YL\xaf^\xf4uS@3\xba{>t\t\x1a',"{'xmin': -101.19820379135972, 'ymin': 19.728443053559296, 'xmax': -101.19820379135972, 'ymax': 19.728443053559296}",dining and drinking > restaurant > mexican restaurant > taco restaurant,1
595abbdf4420d86b18371ee8,Tacos Roy,15.860604,-97.065183,,Puerto Escondido,OAX,71983,,,,MX,2017-07-03,2020-11-23,,,,,,,,['4bf58dd8d48988d151941735'],['Dining and Drinking > Restaurant > Mexican Restaurant > Taco Restaurant'],b'\x00\x00\x00\x00\x01\xc0XD+\xf5QPU@/\xb8\xa1\x16e\x9d\x13',"{'xmin': -97.065183, 'ymin': 15.860604, 'xmax': -97.065183, 'ymax': 15.860604}",dining and drinking > restaurant > mexican restaurant > taco restaurant,1
557e3744498e16ce19950a6a,Taquería Enriquez,18.803552660715766,-97.1815700314974,,,,,,,,MX,2015-06-15,2021-08-16,,,,,,,,['4bf58dd8d48988d151941735'],['Dining and Drinking > Restaurant > Mexican Restaurant > Taco Restaurant'],b'\x00\x00\x00\x00\x01\xc0XK\x9e\xd7\xe8\xcd\xc3@2\xcd\xb5\xa0\x8ecT',"{'xmin': -97.1815700314974, 'ymin': 18.803552660715766, 'xmax': -97.1815700314974, 'ymax': 18.803552660715766}",dining and drinking > restaurant > mexican restaurant > taco restaurant,1
51bd1f31498e7e946cb393c3,Taquería Los Angeles,19.993548509363233,-102.26326122717431,San Isidro 8,Zamora Michoacan,Michoacán de Ocampo,59640,,,,MX,2013-06-16,2020-11-26,,351 105 5621,,,224116374368116.0,,,['4bf58dd8d48988d151941735'],['Dining and Drinking > Restaurant > Mexican Restaurant > Taco Restaurant'],b'\x00\x00\x00\x00\x01\xc0Y\x90\xd9E\x9eA/@3\xfeY1\xf2\xb4c',"{'xmin': -102.26326122717431, 'ymin': 19.993548509363233, 'xmax': -102.26326122717431, 'ymax': 19.993548509363233}",dining and drinking > restaurant > mexican restaurant > taco restaurant,1
555aad9d498e2f2bca398de2,Los Pachecos,19.31896537475046,-99.08812949494143,Técnicos Y Manuales,Lomas Estrella,Distrito Federal,09890,,,,MX,2015-05-19,2020-11-21,,,,,,,,['4bf58dd8d48988d151941735'],['Dining and Drinking > Restaurant > Mexican Restaurant > Taco Restaurant'],b'\x00\x00\x00\x00\x01\xc0X\xc5\xa3\xe9\xe4\xa5\x88@3Q\xa7\xb6\xfd\x1c\x0f',"{'xmin': -99.08812949494143, 'ymin': 19.31896537475046, 'xmax': -99.08812949494143, 'ymax': 19.31896537475046}",dining and drinking > restaurant > mexican restaurant > taco restaurant,1
4bbfee6bf8219c7400f7b010,Tacos Don Esteban,19.286714916930666,-99.63792606496283,,,,,,,,MX,2010-04-10,2021-08-12,,,,,,,,['4bf58dd8d48988d151941735'],['Dining and Drinking > Restaurant > Mexican Restaurant > Taco Restaurant'],b'\x00\x00\x00\x00\x01\xc0X\xe8\xd3\xc7\xd8\x92\x01@3If&\x17~\x19',"{'xmin': -99.63792606496283, 'ymin': 19.286714916930666, 'xmax': -99.63792606496283, 'ymax': 19.286714916930666}",dining and drinking > restaurant > mexican restaurant > taco restaurant,1
4fca87c5e4b09ca09fc61d8a,La Oveja Negra,19.205418,-96.183945,,,,,,,,MX,2012-06-02,2021-08-11,,,,,,,,['4bf58dd8d48988d151941735'],['Dining and Drinking > Restaurant > Mexican Restaurant > Taco Restaurant'],b'\x00\x00\x00\x00\x01\xc0X\x0b\xc5\xc1?\xd0\xd0@34\x96F(\x02~',"{'xmin': -96.183945, 'ymin': 19.205418, 'xmax': -96.183945, 'ymax': 19.205418}",dining and drinking > restaurant > mexican restaurant > taco restaurant,1
554e58ce498ee17d5aabb7a5,Tacos del Mames,19.295899,-99.110218,Sauzales,D.F,D.F,,,,,MX,2015-05-09,2020-11-23,,,,,,,,['4bf58dd8d48988d151941735'],['Dining and Drinking > Restaurant > Mexican Restaurant > Taco Restaurant'],b'\x00\x00\x00\x00\x01\xc0X\xc7\r\xcf\xcc[\x8e@3K\xc0\to\xebJ',"{'xmin': -99.110218, 'ymin': 19.295899, 'xmax': -99.110218, 'ymax': 19.295899}",dining and drinking > restaurant > mexican restaurant > taco restaurant,1
4ee0d788e300d68c190da11f,Tacos Tec,19.667827,-103.485085,,,Jalisco,,,,,MX,2011-12-08,2020-11-30,,,,,,,,['4bf58dd8d48988d151941735'],['Dining and Drinking > Restaurant > Mexican Restaurant > Taco Restaurant'],b'\x00\x00\x00\x00\x01\xc0Y\xdf\x0b\xa1\xf4\xb1\xee@3\xaa\xf6\xb5\xd4b\xc3',"{'xmin': -103.485085, 'ymin': 19.667827, 'xmax': -103.485085, 'ymax': 19.667827}",dining and drinking > restaurant > mexican restaurant > taco restaurant,1
52fa3ddf498ecd8c55df5328,"Tacos ""Neto""",16.251135,-92.129245,,,,,,,,MX,2014-02-11,2021-08-13,,,,,,,,['4bf58dd8d48988d151941735'],['Dining and Drinking > Restaurant > Mexican Restaurant > Taco Restaurant'],b'\x00\x00\x00\x00\x01\xc0W\x08E\x8c\xd2\n\xfa@0@Jb#\xe1\x87',"{'xmin': -92.129245, 'ymin': 16.251135, 'xmax': -92.129245, 'ymax': 16.251135}",dining and drinking > restaurant > mexican restaurant > taco restaurant,1
50a85c1ae4b042e20117b0cf,Tacos Chuche,19.42440259765258,-102.06043925047622,,,,,,,,MX,2012-11-18,2021-08-13,,,,,,,,['4bf58dd8d48988d151941735'],['Dining and Drinking > Restaurant > Mexican Restaurant > Taco Restaurant'],b'\x00\x00\x00\x00\x01\xc0Y\x83\xde<\x97\x0c+@3l\xa5\xa6\rAZ',"{'xmin': -102.06043925047622, 'ymin': 19.42440259765258, 'xmax': -102.06043925047622, 'ymax': 19.42440259765258}",dining and drinking > restaurant > mexican restaurant > taco restaurant,1
4fd4ceace4b0191b9c8380b3,tianguis santa lucia,17.062313744017455,-96.70480229037662,,,,,,,,MX,2012-06-10,2021-08-13,,,,,,,,['4bf58dd8d48988d151941735'],['Dining and Drinking > Restaurant > Mexican Restaurant > Taco Restaurant'],b'\x00\x00\x00\x00\x01\xc0X-\x1b{\x10\xd4\x10@1\x0f\xf3\xcb$\xa5s',"{'xmin': -96.70480229037662, 'ymin': 17.062313744017455, 'xmax': -96.70480229037662, 'ymax': 17.062313744017455}",dining and drinking > restaurant > mexican restaurant > taco restaurant,1
53e44714498ecbb68ce117e8,"Tacos ""El Vecino""",19.154035187095612,-96.12237022184699,,,,,,,,MX,2014-08-08,2020-11-25,,,,,,,,['4bf58dd8d48988d151941735'],['Dining and Drinking > Restaurant > Mexican Restaurant > Taco Restaurant'],"b""\x00\x00\x00\x00\x01\xc0X\x07\xd4\xe9\xe95\x93@3'n\xd9\x9b\x02G""","{'xmin': -96.12237022184699, 'ymin': 19.154035187095612, 'xmax': -96.12237022184699, 'ymax': 19.154035187095612}",dining and drinking > restaurant > mexican restaurant > taco restaurant,1
529a062611d21080b9d18530,tacos Rigo,19.910172449949744,-101.99915046473657,,,,,,,,MX,2013-11-30,2021-08-15,,,,,,,,['4bf58dd8d48988d151941735'],['Dining and Drinking > Restaurant > Mexican Restaurant > Taco Restaurant'],b'\x00\x00\x00\x00\x01\xc0Y\x7f\xf2\x14\xcat\xea@3\xe9\x01\x0f\xcaA\x1d',"{'xmin': -101.99915046473657, 'ymin': 19.910172449949744, 'xmax': -101.99915046473657, 'ymax': 19.910172449949744}",dining and drinking > restaurant > mexican restaurant > taco restaurant,1
4fa6aee5e4b098f42c1e8d09,"Barbacoa de chivo ""El Chivito""",16.773404999395858,-99.76999532715388,Blvd. De las Naciones,Acapulco,Guerrero,39932,,,,MX,2012-05-06,2020-11-30,,,,,,,,['4bf58dd8d48988d151941735'],['Dining and Drinking > Restaurant > Mexican Restaurant > Taco Restaurant'],b'\x00\x00\x00\x00\x01\xc0X\xf1G\x9a{\x0c\xb8@0\xc5\xfd\xde\xba\xf7\xd6',"{'xmin': -99.76999532715388, 'ymin': 16.773404999395858, 'xmax': -99.76999532715388, 'ymax': 16.773404999395858}",dining and drinking > restaurant > mexican restaurant > taco restaurant,1
53a4e7b2498e199f48624220,El lago de las ranas,19.32936668395996,-99.1615219116211,,,,,,,,MX,2013-02-24,2021-12-14,,,,,,,,['4bf58dd8d48988d151941735'],['Dining and Drinking > Restaurant > Mexican Restaurant > Taco Restaurant'],b'\x00\x00\x00\x00\x01\xc0X\xcaV`\x00\x00\x00@3TQ`\x00\x00\x00',"{'xmin': -99.1615219116211, 'ymin': 19.32936668395996, 'xmax': -99.1615219116211, 'ymax': 19.32936668395996}",dining and drinking > restaurant > mexican restaurant > taco restaurant,1
54ba7a45498e132e241f25cf,"Rica Pancita ""Mago""",18.936039818059598,-99.22993692312463,,,,,,,,MX,2015-01-17,2021-08-11,,,,,,,,['4bf58dd8d48988d151941735'],['Dining and Drinking > Restaurant > Mexican Restaurant > Taco Restaurant'],b'\x00\x00\x00\x00\x01\xc0X\xce\xb7I[=\xa4@2\xef\xa0N6Q\xdc',"{'xmin': -99.22993692312463, 'ymin': 18.936039818059598, 'xmax': -99.22993692312463, 'ymax': 18.936039818059598}",dining and drinking > restaurant > mexican restaurant > taco restaurant,1
589268f9cf11d448aabf478e,Tacos Paco,15.872709,-97.076356,,Puerto Escondido,Oaxaca,,,,,MX,2017-02-01,2020-11-30,,,,,,,,['4bf58dd8d48988d1ce941735' '4bf58dd8d48988d151941735'],"['Dining and Drinking > Restaurant > Seafood Restaurant'
 'Dining and Drinking > Restaurant > Mexican Restaurant > Taco Restaurant']",b'\x00\x00\x00\x00\x01\xc0XD\xe3\x04F\xb6\x9e@/\xbe\xd3\xb6\xcb\xd9\x88',"{'xmin': -97.076356, 'ymin': 15.872709, 'xmax': -97.076356, 'ymax': 15.872709}","dining and drinking > restaurant > seafood restaurant, dining and drinking > restaurant > mexican restaurant > taco restaurant",1
5362f930498e3f1cdbcfbd0b,Chilito Frito,18.951687952833613,-99.22884883228167,,,,,,,,MX,2014-05-02,2023-12-21,,777 101 8012,,chilito_frito@hotmail.com,,,,['4bf58dd8d48988d151941735'],['Dining and Drinking > Restaurant > Mexican Restaurant > Taco Restaurant'],b'\x00\x00\x00\x00\x01\xc0X\xce\xa5u\x92\x98*@2\xf3\xa1\xd2Yj\xe5',"{'xmin': -99.22884883228167, 'ymin': 18.951687952833613, 'xmax': -99.22884883228167, 'ymax': 18.951687952833613}",dining and drinking > restaurant > mexican restaurant > taco restaurant,1
54da7e3b498e613514d4f1ec,El rincon del pastor,19.29969,-99.104093,,,,,,,,MX,2015-02-10,2021-08-14,,,,,,,,['4bf58dd8d48988d151941735'],['Dining and Drinking > Restaurant > Mexican Restaurant > Taco Restaurant'],b'\x00\x00\x00\x00\x01\xc0X\xc6\xa9u\xaf\xaf\x86@3L\xb8{\xdc\xf00',"{'xmin': -99.104093, 'ymin': 19.29969, 'xmax': -99.104093, 'ymax': 19.29969}",dining and drinking > restaurant > mexican restaurant > taco restaurant,1
577f0c7dcd10a9dbdeb254be,"Antojitos Mexicanos ""Tere""",15.323909,-92.657182,,,,,,,,MX,2016-07-08,2021-08-11,,,,,,,,['4bf58dd8d48988d151941735'],['Dining and Drinking > Restaurant > Mexican Restaurant > Taco Restaurant'],b'\x00\x00\x00\x00\x01\xc0W*\x0fE\x17aF@.\xa5\xd7f\x83\xc2\x98',"{'xmin': -92.657182, 'ymin': 15.323909, 'xmax': -92.657182, 'ymax': 15.323909}",dining and drinking > restaurant > mexican restaurant > taco restaurant,1
4e0d2fd01f6e9964ea1715eb,Paco Moreno Taquería,19.988113147724366,-102.2890046607344,Dr. Verduzco Sur 110,Zamora de Hidalgo,Michoacán de Ocampo,,,,,MX,2011-07-01,2020-11-23,,,,,,,,['4bf58dd8d48988d151941735'],['Dining and Drinking > Restaurant > Mexican Restaurant > Taco Restaurant'],b'\x00\x00\x00\x00\x01\xc0Y\x92\x7f\rg\x8f\xbc@3\xfc\xf4\xfb\xb69I',"{'xmin': -102.2890046607344, 'ymin': 19.988113147724366, 'xmax': -102.2890046607344, 'ymax': 19.988113147724366}",dining and drinking > restaurant > mexican restaurant > taco restaurant,1
4f2f5f9d108137783b5fb3b6,Taquería El Fogoncito I,17.54756225437577,-98.58103036880493,Morelos 110,Tlapa de Comonfort,Guerrero,41304,,,,MX,2012-02-06,2020-11-22,,,,,,,,['4bf58dd8d48988d151941735'],['Dining and Drinking > Restaurant > Mexican Restaurant > Taco Restaurant'],b'\x00\x00\x00\x00\x01\xc0X\xa5/\x9a\x00\x00\x00@1\x8c-\n7\x11f',"{'xmin': -98.58103036880493, 'ymin': 17.54756225437577, 'xmax': -98.58103036880493, 'ymax': 17.54756225437577}",dining and drinking > restaurant > mexican restaurant > taco restaurant,1
4e868e2730f89b2f2c56d9a4,Tacos Don Pepe,19.28208182194745,-99.17407706425762,,Tlalpan,Distrito Federal,,,,,MX,2011-10-01,2020-11-23,,,,,,,,['4bf58dd8d48988d1c1941735' '4bf58dd8d48988d151941735'],"['Dining and Drinking > Restaurant > Mexican Restaurant'
 'Dining and Drinking > Restaurant > Mexican Restaurant > Taco Restaurant']",b'\x00\x00\x00\x00\x01\xc0X\xcb$\x14 ~\x17@3H6\x83\xa8\x0fv',"{'xmin': -99.17407706425762, 'ymin': 19.28208182194745, 'xmax': -99.17407706425762, 'ymax': 19.28208182194745}","dining and drinking > restaurant > mexican restaurant, dining and drinking > restaurant > mexican restaurant > taco restaurant",1
50554153e4b0978a0fdb2dc7,Taquería Acuario's,19.154055093958785,-96.1252634110067,Av. Lázaro Cárdenas,Veracruz,Veracruz,94295,,,,MX,2012-09-16,2020-11-23,,,,,,,,['4bf58dd8d48988d151941735' '4bf58dd8d48988d1df931735'],"['Dining and Drinking > Restaurant > Mexican Restaurant > Taco Restaurant'
 'Dining and Drinking > Restaurant > BBQ Joint']","b""\x00\x00\x00\x00\x01\xc0X\x08\x04P\xd3j0@3'p'\x96U\xcf""","{'xmin': -96.1252634110067, 'ymin': 19.154055093958785, 'xmax': -96.1252634110067, 'ymax': 19.154055093958785}","dining and drinking > restaurant > mexican restaurant > taco restaurant, dining and drinking > restaurant > bbq joint",1
5ab46159ff03065597868d21,Taqueria Enríquez,19.08796,-102.3567,,Apatzingán de la Constitución,Michoacán,60600,,,,MX,2018-03-23,2020-11-25,,,,,,,,['4bf58dd8d48988d151941735'],['Dining and Drinking > Restaurant > Mexican Restaurant > Taco Restaurant'],"b'\x00\x00\x00\x00\x01\xc0Y\x96\xd4,<\x9e\xed@3\x16\x84\x8b\xeb[-'","{'xmin': -102.3567, 'ymin': 19.08796, 'xmax': -102.3567, 'ymax': 19.08796}",dining and drinking > restaurant > mexican restaurant > taco restaurant,1
50ecd887e4b044474d4cc386,Tacos El Toño,19.256253,-99.13116,,,,,,,,MX,2013-01-09,2021-08-13,,,,,,,,['4bf58dd8d48988d151941735'],['Dining and Drinking > Restaurant > Mexican Restaurant > Taco Restaurant'],b'\x00\x00\x00\x00\x01\xc0X\xc8d\xec\xe9\xa2\xc6@3A\x99\xcb\xee\x80|',"{'xmin': -99.13116, 'ymin': 19.256253, 'xmax': -99.13116, 'ymax': 19.256253}",dining and drinking > restaurant > mexican restaurant > taco restaurant,1
5730d278498eb6298668c949,"Flautas, Quesadillas Y Tacos",19.306911,-99.13122,Calzada Del Hueso,Coyoacán,CD Mex,,,,,MX,2016-05-09,2020-11-25,,,,,,,,['4bf58dd8d48988d151941735'],['Dining and Drinking > Restaurant > Mexican Restaurant > Taco Restaurant'],b'\x00\x00\x00\x00\x01\xc0X\xc8e\xe8\x92%1@3N\x91\xb8#\xc8\\',"{'xmin': -99.13122, 'ymin': 19.306911, 'xmax': -99.13122, 'ymax': 19.306911}",dining and drinking > restaurant > mexican restaurant > taco restaurant,1
5cb7a89a947c05002c3ecebf,Taqueria y Tocineria Oscarin,16.957551,-96.47828,,Tlacolula,OAX,,,,,MX,2019-04-17,2020-11-24,,,,,,,,['4bf58dd8d48988d151941735' '4bf58dd8d48988d1c1941735'],"['Dining and Drinking > Restaurant > Mexican Restaurant > Taco Restaurant'
 'Dining and Drinking > Restaurant > Mexican Restaurant']","b'\x00\x00\x00\x00\x01\xc0X\x1e\x9c#\xb7\x95-@0\xf5""\x0f\xf5@\x89'","{'xmin': -96.47828, 'ymin': 16.957551, 'xmax': -96.47828, 'ymax': 16.957551}","dining and drinking > restaurant > mexican restaurant > taco restaurant, dining and drinking > restaurant > mexican restaurant",1
50670d70e4b02bd343e84c4f,"Barbacoa ""El Compadre""",19.310669,-99.125774,Tianguis Calz. De las Bombas,,,,,,,MX,2012-09-29,2021-08-17,,,,,,,,['4bf58dd8d48988d151941735'],['Dining and Drinking > Restaurant > Mexican Restaurant > Taco Restaurant'],b'\x00\x00\x00\x00\x01\xc0X\xc8\x0c\xaed+\xfa@3O\x88\x00\xea\xe1\x8b',"{'xmin': -99.125774, 'ymin': 19.310669, 'xmax': -99.125774, 'ymax': 19.310669}",dining and drinking > restaurant > mexican restaurant > taco restaurant,1
52f7b6cd498e78f8c2b4e1ee,la birrieria del borrego,19.184207,-96.130026,,,,,,,,MX,2014-02-09,2021-08-13,,,,,,,,['4bf58dd8d48988d151941735'],['Dining and Drinking > Restaurant > Mexican Restaurant > Taco Restaurant'],b'\x00\x00\x00\x00\x01\xc0X\x08RX\x92hM@3/(0\xa0\xb1\xbc',"{'xmin': -96.130026, 'ymin': 19.184207, 'xmax': -96.130026, 'ymax': 19.184207}",dining and drinking > restaurant > mexican restaurant > taco restaurant,1
4b5a6cc0f964a5205bc428e3,Taqueria Los Hidalguenses,19.26778016140536,-99.63838013948289,Jose Maria Pino Suarez,Toluca,Mexico,,,,,MX,2010-01-23,2020-11-22,,,,,,,,['4bf58dd8d48988d151941735'],['Dining and Drinking > Restaurant > Mexican Restaurant > Taco Restaurant'],b'\x00\x00\x00\x00\x01\xc0X\xe8\xdb8__\xad@3D\x8d=\x9b\xc0\xed',"{'xmin': -99.63838013948289, 'ymin': 19.26778016140536, 'xmax': -99.63838013948289, 'ymax': 19.26778016140536}",dining and drinking > restaurant > mexican restaurant > taco restaurant,1
4de1b28dc65b7a3e2109d233,Taqueria Martinez,19.292686578260994,-99.139162397626,las torres,,,,,,,MX,2011-05-29,2021-08-13,,,,,,,,['4bf58dd8d48988d151941735'],['Dining and Drinking > Restaurant > Mexican Restaurant > Taco Restaurant'],b'\x00\x00\x00\x00\x01\xc0X\xc8\xe8\tf\xa8\xbe@3J\xed\x81\xf1\x9b\xef',"{'xmin': -99.139162397626, 'ymin': 19.292686578260994, 'xmax': -99.139162397626, 'ymax': 19.292686578260994}",dining and drinking > restaurant > mexican restaurant > taco restaurant,1
5699cff838fa42c9c9b840c3,Restaurante Kavdys (antes Soco),19.100672,-99.58645,Blvd Narsico Bassols Sur,Tenango del Valle,Estado de México,52300,,,,MX,2016-01-16,2021-04-17,,722 108 2457,,,,,,['4bf58dd8d48988d151941735'],['Dining and Drinking > Restaurant > Mexican Restaurant > Taco Restaurant'],b'\x00\x00\x00\x00\x01\xc0X\xe5\x88e\x94\xafO@3\x19\xc5\xa3\xe3\x9fw',"{'xmin': -99.58645, 'ymin': 19.100672, 'xmax': -99.58645, 'ymax': 19.100672}",dining and drinking > restaurant > mexican restaurant > taco restaurant,1
50857179e4b0ee1f10c8165d,Ricas Carnitas,20.285193749090677,-102.32925517060718,,,,,,,,MX,2012-10-22,2021-08-11,,,,,,,,['4bf58dd8d48988d151941735'],['Dining and Drinking > Restaurant > Mexican Restaurant > Taco Restaurant'],b'\x00\x00\x00\x00\x01\xc0Y\x95\x12\x84Gr\xfe@4I\x02u!^;',"{'xmin': -102.32925517060718, 'ymin': 20.285193749090677, 'xmax': -102.32925517060718, 'ymax': 20.285193749090677}",dining and drinking > restaurant > mexican restaurant > taco restaurant,1
562726f7498e87d331bb5be7,"Taquería ""El Torito""",17.54827308654785,-98.57435607910156,,,,,,,,MX,2015-10-21,2021-08-14,,,,,,,,['4bf58dd8d48988d151941735'],['Dining and Drinking > Restaurant > Mexican Restaurant > Taco Restaurant'],b'\x00\x00\x00\x00\x01\xc0X\xa4\xc2@\x00\x00\x00@1\x8c[\xa0\x00\x00\x00',"{'xmin': -98.57435607910156, 'ymin': 17.54827308654785, 'xmax': -98.57435607910156, 'ymax': 17.54827308654785}",dining and drinking > restaurant > mexican restaurant > taco restaurant,1
63b10827519afa201dcd81e0,Taqueria Alducin,18.987455,-97.447742,Ciudad Serdán,Ciudad Serdán,PUE,75520,,,,MX,2023-01-01,2023-01-01,,,,,,,,['4bf58dd8d48988d151941735'],['Dining and Drinking > Restaurant > Mexican Restaurant > Taco Restaurant'],b'\x00\x00\x00\x00\x01\xc0X\\\xa7\xce\x0f\xc2\xec@2\xfc\xc9\xd9\xd3E\x8d',"{'xmin': -97.447742, 'ymin': 18.987455, 'xmax': -97.447742, 'ymax': 18.987455}",dining and drinking > restaurant > mexican restaurant > taco restaurant,1
4c4fa7c08edf0f47cf54f2ad,Los Taurinos,19.305214970154452,-99.16094799605763,Av. del Iman mz 5 lt 3 col. pedregal de la zorra,México,D.f.,04660,,,,MX,2010-07-28,2020-11-23,2017-03-16,,http://lostaurinos.com.mx,,,,,['4bf58dd8d48988d151941735' '4bf58dd8d48988d1c1941735'],"['Dining and Drinking > Restaurant > Mexican Restaurant > Taco Restaurant'
 'Dining and Drinking > Restaurant > Mexican Restaurant']","b'\x00\x00\x00\x00\x01\xc0X\xcaL\xf8\xd2\xdb\'@3N""\x91{\x10 '","{'xmin': -99.16094799605763, 'ymin': 19.305214970154452, 'xmax': -99.16094799605763, 'ymax': 19.305214970154452}","dining and drinking > restaurant > mexican restaurant > taco restaurant, dining and drinking > restaurant > mexican restaurant",1
4d116f773e33b60cb26536af,Tacos Peque,19.332530397501618,-99.1185888318213,Calle de seris 50,Coyoacán,DF,04480,,,,MX,2010-12-22,2020-11-23,,,,,,,,['4bf58dd8d48988d151941735'],['Dining and Drinking > Restaurant > Mexican Restaurant > Taco Restaurant'],b'\x00\x00\x00\x00\x01\xc0X\xc7\x96\xf5\x9c\x95\xf9@3U \xb6N2\x01',"{'xmin': -99.1185888318213, 'ymin': 19.332530397501618, 'xmax': -99.1185888318213, 'ymax': 19.332530397501618}",dining and drinking > restaurant > mexican restaurant > taco restaurant,1
50248e70e4b0f83c63debad8,Mr Taco (los De Adobada),19.193350354010786,-100.13134872973329,,,,,,,,MX,2012-08-10,2021-08-17,,,,,,,,['4bf58dd8d48988d151941735'],['Dining and Drinking > Restaurant > Mexican Restaurant > Taco Restaurant'],b'\x00\x00\x00\x00\x01\xc0Y\x08h\x04\x80\xa4\xd7@31\x7fh\xa7%w',"{'xmin': -100.13134872973329, 'ymin': 19.193350354010786, 'xmax': -100.13134872973329, 'ymax': 19.193350354010786}",dining and drinking > restaurant > mexican restaurant > taco restaurant,1
4fc26f60e4b0c1dd0a40580a,Taquearía Fabian,19.251207428584195,-99.60611305212149,,,,,,,,MX,2012-05-27,2021-08-17,,,,,,,,['4bf58dd8d48988d151941735'],['Dining and Drinking > Restaurant > Mexican Restaurant > Taco Restaurant'],"b'\x00\x00\x00\x00\x01\xc0X\xe6\xca\x8ef""\x98@3@O!JH\x08'","{'xmin': -99.60611305212149, 'ymin': 19.251207428584195, 'xmax': -99.60611305212149, 'ymax': 19.251207428584195}",dining and drinking > restaurant > mexican restaurant > taco restaurant,1
4f7bbd88e4b0a2f68ffad1d8,La pajarita,17.540911564846652,-99.50528570873155,,,,,,,,MX,2012-04-04,2021-08-10,,,,,,,,['4bf58dd8d48988d151941735'],['Dining and Drinking > Restaurant > Mexican Restaurant > Taco Restaurant'],b'\x00\x00\x00\x00\x01\xc0X\xe0V\x99\xde\x88\xd8@1\x8ay.)\x0bh',"{'xmin': -99.50528570873155, 'ymin': 17.540911564846652, 'xmax': -99.50528570873155, 'ymax': 17.540911564846652}",dining and drinking > restaurant > mexican restaurant > taco restaurant,1
52af30b111d25bc343e9a962,Antojitos “El Padrino”,19.263315,-99.09895,,,,,,,,MX,2013-12-16,2021-08-14,,,,,,,,['4bf58dd8d48988d151941735'],['Dining and Drinking > Restaurant > Mexican Restaurant > Taco Restaurant'],b'\x00\x00\x00\x00\x01\xc0X\xc6U2a|\x1c@3Ch\x9c\xa1\x8b\xd6',"{'xmin': -99.09895, 'ymin': 19.263315, 'xmax': -99.09895, 'ymax': 19.263315}",dining and drinking > restaurant > mexican restaurant > taco restaurant,1
5b993408646e38002b613495,Tacos Y Gorditas Ofelia,19.300647,-99.146127,,Ciudad de México,CDMX,14370,,,,MX,2018-09-12,2020-11-23,,,,,,,,['4bf58dd8d48988d151941735'],['Dining and Drinking > Restaurant > Mexican Restaurant > Taco Restaurant'],b'\x00\x00\x00\x00\x01\xc0X\xc9Z%\x0f\x84\x02@3L\xf73\xa8\xa3\xf9',"{'xmin': -99.146127, 'ymin': 19.300647, 'xmax': -99.146127, 'ymax': 19.300647}",dining and drinking > restaurant > mexican restaurant > taco restaurant,1
4ff9b87fe4b058e1662a547b,"Barbacoa ""El Oso Juarez""",18.90586960595068,-99.19978890406179,,,,,,,,MX,2012-07-08,2021-08-16,,,,,,,,['4bf58dd8d48988d151941735'],['Dining and Drinking > Restaurant > Mexican Restaurant > Taco Restaurant'],b'\x00\x00\x00\x00\x01\xc0X\xcc\xc9WfC$@2\xe7\xe7\x12\x0b\xff\xa3',"{'xmin': -99.19978890406179, 'ymin': 18.90586960595068, 'xmax': -99.19978890406179, 'ymax': 18.90586960595068}",dining and drinking > restaurant > mexican restaurant > taco restaurant,1
52125cbf11d2c8329e6438dd,Antojitos La Tia,19.178436767793425,-96.13204404846655,,,,,,,,MX,2013-08-19,2021-08-17,,,,,,,,['4bf58dd8d48988d151941735'],['Dining and Drinking > Restaurant > Mexican Restaurant > Taco Restaurant'],b'\x00\x00\x00\x00\x01\xc0X\x08sh\xe1r\xe6@3-\xae\x082\x13\xa3',"{'xmin': -96.13204404846655, 'ymin': 19.178436767793425, 'xmax': -96.13204404846655, 'ymax': 19.178436767793425}",dining and drinking > restaurant > mexican restaurant > taco restaurant,1
4f29f4d1e4b09f4f36f4c477,"Tacos ""El Gudsss""",18.935973326300747,-99.2405966443281,Álvaro Obregón esq. Venustiano Carranza,Cuernavaca,Morelos,62190,,,,MX,2012-02-02,2020-11-21,,777 279 6415,,,,,,['4bf58dd8d48988d151941735'],['Dining and Drinking > Restaurant > Mexican Restaurant > Taco Restaurant'],b'\x00\x00\x00\x00\x01\xc0X\xcfe\xefw\xba\xa8@2\xef\x9b\xf2\xaac\xda',"{'xmin': -99.2405966443281, 'ymin': 18.935973326300747, 'xmax': -99.2405966443281, 'ymax': 18.935973326300747}",dining and drinking > restaurant > mexican restaurant > taco restaurant,1
515ef45ae4b0fd9ece109847,Tacos De Canasta,18.352504,-99.554411,,,,,,,,MX,2013-04-05,2021-08-11,,,,,,,,['4bf58dd8d48988d151941735'],['Dining and Drinking > Restaurant > Mexican Restaurant > Taco Restaurant'],b'\x00\x00\x00\x00\x01\xc0X\xe3{xFb\xbb@2Z=\xb3\xbf\xb5\x8d',"{'xmin': -99.554411, 'ymin': 18.352504, 'xmax': -99.554411, 'ymax': 18.352504}",dining and drinking > restaurant > mexican restaurant > taco restaurant,1
