fsq_place_id,name,latitude,longitude,address,locality,region,postcode,admin_region,post_town,po_box,country,date_created,date_refreshed,date_closed,tel,website,email,facebook_id,instagram,twitter,fsq_category_ids,fsq_category_labels,geom,bbox,labels_str,taco_restaurant
513e27d2e4b0f8b10e83ced5,"Tacos de birria ""Chavita""",32.51260082980557,-116.88670056594269,20 de Noviembre,Tijuana,B.C.,,,,,MX,2013-03-11,2020-11-25,,,,,,,,['4bf58dd8d48988d151941735'],['Dining and Drinking > Restaurant > Mexican Restaurant > Taco Restaurant'],b'\x00\x00\x00\x00\x01\xc0]8\xbf\xb3\xbb\x04c@@A\x9c\xe7k\xf5m',"{'xmin': -116.88670056594269, 'ymin': 32.51260082980557, 'xmax': -116.88670056594269, 'ymax': 32.51260082980557}",dining and drinking > restaurant > mexican restaurant > taco restaurant,1
51868a82498e5a490fc93b8b,Birria La Auténtica,32.530397,-116.946154,Esteban Baca Calderón 17210,Tijuana,Baja California,,,,,MX,2013-05-05,2020-11-30,,664 270 4167,,,,,,['4bf58dd8d48988d151941735'],['Dining and Drinking > Restaurant > Mexican Restaurant > Taco Restaurant'],b'\x00\x00\x00\x00\x01\xc0]<\x8d\xc9\x81\xbe\xb2@@C\xe4\x0c\x84r\xc1',"{'xmin': -116.946154, 'ymin': 32.530397, 'xmax': -116.946154, 'ymax': 32.530397}",dining and drinking > restaurant > mexican restaurant > taco restaurant,1
545855de498e4830a33f4156,Tacos El Chino,32.530153805789524,-116.95733329655481,Calz. del Tecnológico,Tijuana,,,,,,MX,2014-11-04,2023-12-19,,686 155 4419,,,,,,['4bf58dd8d48988d151941735'],['Dining and Drinking > Restaurant > Mexican Restaurant > Taco Restaurant'],b'\x00\x00\x00\x00\x01\xc0]=D\xf2\xe0\x04\xc9@@C\xdc\x14t\xdb\xa4',"{'xmin': -116.95733329655481, 'ymin': 32.530153805789524, 'xmax': -116.95733329655481, 'ymax': 32.530153805789524}",dining and drinking > restaurant > mexican restaurant > taco restaurant,1
9401e7eae099409e1c16115b,Tortillas de Harina Sabrocitas,32.616517,-115.479446,Boulevard Anahuac 1830,Mexicali,Baja California,21330,,,,MX,2010-11-04,2023-12-06,,686 558 3640,,,,,,['4bf58dd8d48988d151941735' '63be6904847c3692a84b9bf0'],"['Dining and Drinking > Restaurant > Mexican Restaurant > Taco Restaurant'
 'Retail > Food and Beverage Retail > Meat and Seafood Store']",b'\x00\x00\x00\x00\x01\xc0\\\xde\xaf>F\x8c\xac@@N\xea\x07p6\xca',"{'xmin': -115.479446, 'ymin': 32.616517, 'xmax': -115.479446, 'ymax': 32.616517}","dining and drinking > restaurant > mexican restaurant > taco restaurant, retail > food and beverage retail > meat and seafood store",1
51ac2c87498e75eebad38902,Asadero San Pedro,32.609104,-115.391603,Blvd. San Pedro,,,,,,,MX,2013-06-03,2023-12-20,,686 562 6464,,,,,,['4bf58dd8d48988d151941735'],['Dining and Drinking > Restaurant > Mexican Restaurant > Taco Restaurant'],b'\x00\x00\x00\x00\x01\xc0\\\xd9\x10\x06\x07\x80\xfe@@M\xf7\x1e\xaf\xeep',"{'xmin': -115.391603, 'ymin': 32.609104, 'xmax': -115.391603, 'ymax': 32.609104}",dining and drinking > restaurant > mexican restaurant > taco restaurant,1
638118bec7113a66800ba490,Birria Yadira,32.442978,-117.03479,Blvd. Santa Fe S/N,Portico de San Antonio,Baja California,22664,,,,MX,2022-11-25,2022-11-25,,,,,,,,['4bf58dd8d48988d151941735'],['Dining and Drinking > Restaurant > Mexican Restaurant > Taco Restaurant'],b'\x00\x00\x00\x00\x01\xc0]B9\xff\xd6\x0e\x95@@8\xb3\x80\xcblz',"{'xmin': -117.03479, 'ymin': 32.442978, 'xmax': -117.03479, 'ymax': 32.442978}",dining and drinking > restaurant > mexican restaurant > taco restaurant,1
5061d581e4b0de95caf17871,Asadero La Brasa,32.524302,-116.059455,,,,,,,,MX,2012-09-25,2020-11-23,,,,,,,,['4bf58dd8d48988d151941735'],['Dining and Drinking > Restaurant > Mexican Restaurant > Taco Restaurant'],b'\x00\x00\x00\x00\x01\xc0]\x03\xce\x1cX%[@@C\x1cS\xf3\x9d\x1b',"{'xmin': -116.059455, 'ymin': 32.524302, 'xmax': -116.059455, 'ymax': 32.524302}",dining and drinking > restaurant > mexican restaurant > taco restaurant,1
50e7bb7fe4b0e26346ddc0a5,Tacos del chaparrito,32.54459081984163,-116.92409855233863,,,,,,,,MX,2013-01-05,2021-08-15,,,,,,,,['4bf58dd8d48988d151941735'],['Dining and Drinking > Restaurant > Mexican Restaurant > Taco Restaurant'],b'\x00\x00\x00\x00\x01\xc0];$nA$\xd3@@E\xb5&\xe8u\xf8',"{'xmin': -116.92409855233863, 'ymin': 32.54459081984163, 'xmax': -116.92409855233863, 'ymax': 32.54459081984163}",dining and drinking > restaurant > mexican restaurant > taco restaurant,1
5ad4faf0a0215b2a9f05fb3c,Birriería La 9,32.60246,-115.37508,,Mexicali,Baja California,,,,,MX,2018-04-16,2020-11-25,,,,,,,,['4bf58dd8d48988d151941735'],['Dining and Drinking > Restaurant > Mexican Restaurant > Taco Restaurant'],b'\x00\x00\x00\x00\x01\xc0\\\xd8\x01O\x8bX\x8e@@M\x1dh\xc6\x92\xf7',"{'xmin': -115.37508, 'ymin': 32.60246, 'xmax': -115.37508, 'ymax': 32.60246}",dining and drinking > restaurant > mexican restaurant > taco restaurant,1
5be1daa2646e38002c765caf,Taco Happy,31.868195,-116.623976,,Ensenada,BC,22800,,,,MX,2018-11-06,2020-11-24,,,,,,,,['4bf58dd8d48988d151941735'],['Dining and Drinking > Restaurant > Mexican Restaurant > Taco Restaurant'],"b""\x00\x00\x00\x00\x01\xc0]'\xef9\x08_J@?\xdeB\x07\x0b\x8c\xfc""","{'xmin': -116.623976, 'ymin': 31.868195, 'xmax': -116.623976, 'ymax': 31.868195}",dining and drinking > restaurant > mexican restaurant > taco restaurant,1
4cfef5ac4f56b60c5b579a37,Taqueria Hipodromo,32.50583762748749,-116.99911111237142,Avenida Hipodromo,Tijuana,Baja California,,,,,MX,2010-12-08,2023-12-19,,664 686 5275,,,,,,['4bf58dd8d48988d151941735'],['Dining and Drinking > Restaurant > Mexican Restaurant > Taco Restaurant'],b'\x00\x00\x00\x00\x01\xc0]?\xf1o\xbc-&@@@\xbfI\x91\x92\x8f',"{'xmin': -116.99911111237142, 'ymin': 32.50583762748749, 'xmax': -116.99911111237142, 'ymax': 32.50583762748749}",dining and drinking > restaurant > mexican restaurant > taco restaurant,1
4d8fcd23788c548126e357fd,Tacos Los Chavalos,31.836383491290604,-116.60639754370956,,Ensenada,Baja California,,,,,MX,2011-03-27,2020-11-23,,,,,,,,['4bf58dd8d48988d151941735'],['Dining and Drinking > Restaurant > Mexican Restaurant > Taco Restaurant'],b'\x00\x00\x00\x00\x01\xc0]&\xcf7\xa4\xa6\xde@?\xd6\x1d:~\x01\xe8',"{'xmin': -116.60639754370956, 'ymin': 31.836383491290604, 'xmax': -116.60639754370956, 'ymax': 31.836383491290604}",dining and drinking > restaurant > mexican restaurant > taco restaurant,1
4f66ceb5e4b06b308a7105a5,Tacos el Choco,32.473931,-116.954929,,,,,,,,MX,2012-03-19,2021-08-15,,,,,,,,['4bf58dd8d48988d151941735'],['Dining and Drinking > Restaurant > Mexican Restaurant > Taco Restaurant'],b'\x00\x00\x00\x00\x01\xc0]=\x1d\x8e\x86@!@@<\xa9\xc5`\xc7\xc1',"{'xmin': -116.954929, 'ymin': 32.473931, 'xmax': -116.954929, 'ymax': 32.473931}",dining and drinking > restaurant > mexican restaurant > taco restaurant,1
583654f38ee5606e0ce292e0,el guizzadito,32.467532,-117.005091,,,,,,,,MX,2016-11-24,2021-08-13,,,,,,,,['4bf58dd8d48988d151941735'],['Dining and Drinking > Restaurant > Mexican Restaurant > Taco Restaurant'],b'\x00\x00\x00\x00\x01\xc0]@Si3\xa0@@@;\xd8\x16\xac\xea\xaf',"{'xmin': -117.005091, 'ymin': 32.467532, 'xmax': -117.005091, 'ymax': 32.467532}",dining and drinking > restaurant > mexican restaurant > taco restaurant,1
4e24970b628469a574353579,Tacos El Bucanero,31.858598766199705,-116.61450259670922,Av. López Mateos,Ensenada,Baja California,,,,,MX,2011-07-18,2020-11-24,,,,,,,,['4bf58dd8d48988d151941735'],['Dining and Drinking > Restaurant > Mexican Restaurant > Taco Restaurant'],"b""\x00\x00\x00\x00\x01\xc0]'T\x02\xb3\x0b\x15@?\xdb\xcd \xf56\xb4""","{'xmin': -116.61450259670922, 'ymin': 31.858598766199705, 'xmax': -116.61450259670922, 'ymax': 31.858598766199705}",dining and drinking > restaurant > mexican restaurant > taco restaurant,1
54a04c89498ee641a5649ee5,Gorditas Martha,21.85536997754873,-102.26833586575418,,,,,,,,MX,2014-12-28,2021-08-14,,,,,,,,['4bf58dd8d48988d151941735'],['Dining and Drinking > Restaurant > Mexican Restaurant > Taco Restaurant'],"b'\x00\x00\x00\x00\x01\xc0Y\x91,j1\xf0\x84@5\xda\xf9\x86\xdf\x8dS'","{'xmin': -102.26833586575418, 'ymin': 21.85536997754873, 'xmax': -102.26833586575418, 'ymax': 21.85536997754873}",dining and drinking > restaurant > mexican restaurant > taco restaurant,1
5148bfede4b0d925fe6057a1,Tacos De Barbacoa El Güero,21.885658,-102.293485,Plaza Obregón,,,,,,,MX,2013-03-19,2021-08-12,,,,,,,,['4bf58dd8d48988d151941735'],['Dining and Drinking > Restaurant > Mexican Restaurant > Taco Restaurant'],b'\x00\x00\x00\x00\x01\xc0Y\x92\xc8uO7v@5\xe2\xba{\x91p\xd6',"{'xmin': -102.293485, 'ymin': 21.885658, 'xmax': -102.293485, 'ymax': 21.885658}",dining and drinking > restaurant > mexican restaurant > taco restaurant,1
51ce70a0498e99bf464f61f0,Tacos Arandas De Memo,21.895859692942825,-102.2996494969123,Libertad Y Gamez Orozco,Aguascalientes,Aguascalientes,,,,,MX,2013-06-29,2020-11-25,,,,,,,,['4bf58dd8d48988d151941735'],['Dining and Drinking > Restaurant > Mexican Restaurant > Taco Restaurant'],b'\x00\x00\x00\x00\x01\xc0Y\x93-u\x15`\x13@5\xe5W\x0f\x92\xfey',"{'xmin': -102.2996494969123, 'ymin': 21.895859692942825, 'xmax': -102.2996494969123, 'ymax': 21.895859692942825}",dining and drinking > restaurant > mexican restaurant > taco restaurant,1
512a381fe4b0466f586d97cc,"Tacos ""La Momiza""",20.65183260934198,-103.43303350927386,,,,,,,,MX,2013-02-24,2021-08-17,,,,,,,,['4bf58dd8d48988d151941735'],['Dining and Drinking > Restaurant > Mexican Restaurant > Taco Restaurant'],b'\x00\x00\x00\x00\x01\xc0Y\xdb\xb6\xd2.\x19\xd0@4\xa6\xde\x80{\x97\x14',"{'xmin': -103.43303350927386, 'ymin': 20.65183260934198, 'xmax': -103.43303350927386, 'ymax': 20.65183260934198}",dining and drinking > restaurant > mexican restaurant > taco restaurant,1
5e266196daee0b0008057dd0,Tacos De Asada La Presumida,20.715516,-103.343596,,Guadalajara,JAL,44230,,,,MX,2020-01-21,2021-08-14,,,,,,,,['4bf58dd8d48988d151941735'],['Dining and Drinking > Restaurant > Mexican Restaurant > Taco Restaurant'],"b'\x00\x00\x00\x00\x01\xc0Y\xd5\xfdz\x13\xc2U@4\xb7,\x0e{\xc3\xc6'","{'xmin': -103.343596, 'ymin': 20.715516, 'xmax': -103.343596, 'ymax': 20.715516}",dining and drinking > restaurant > mexican restaurant > taco restaurant,1
4e21d28745dd950bb0292a0c,Las tortas calientes de Jardines,21.11177,-101.63487,Paseo de Jerez,León,,,,,,MX,2011-07-16,2020-11-20,,,,,,,,['4bf58dd8d48988d151941735'],['Dining and Drinking > Restaurant > Mexican Restaurant > Taco Restaurant'],b'\x00\x00\x00\x00\x01\xc0Yh\xa1\xb5\xc7\xcd\x8a@5\x1c\x9c\xf5n\xac\x86',"{'xmin': -101.63487, 'ymin': 21.11177, 'xmax': -101.63487, 'ymax': 21.11177}",dining and drinking > restaurant > mexican restaurant > taco restaurant,1
5a52d27a628c834eca8da115,Los Mixes,21.86614,-102.28502,Av. de la Convención,Aguascalientes,Aguascalientes,20278,,,,MX,2018-01-08,2020-11-23,,,,,,,,['4bf58dd8d48988d151941735'],['Dining and Drinking > Restaurant > Mexican Restaurant > Taco Restaurant'],b'\x00\x00\x00\x00\x01\xc0Y\x92=\xc4\x86\xad.@5\xdd\xbbY\xdd\xc1\xe8',"{'xmin': -102.28502, 'ymin': 21.86614, 'xmax': -102.28502, 'ymax': 21.86614}",dining and drinking > restaurant > mexican restaurant > taco restaurant,1
4fd80a43e4b01476c53884b8,Taqueria Gay,20.715379,-105.207237,,,,,,,,MX,2012-06-13,2021-08-16,,,,,,,,['4bf58dd8d48988d151941735'],['Dining and Drinking > Restaurant > Mexican Restaurant > Taco Restaurant'],b'\x00\x00\x00\x00\x01\xc0ZMC^\xfaa[@4\xb7#\x14\x01>\xc4',"{'xmin': -105.207237, 'ymin': 20.715379, 'xmax': -105.207237, 'ymax': 20.715379}",dining and drinking > restaurant > mexican restaurant > taco restaurant,1
569868d2498efbeb26140072,"Taquería Pariente, el original",20.738096624574357,-103.44890489993321,,Zapopan,Jalisco,,,,,MX,2016-01-15,2020-11-25,,,,,,,,['4bf58dd8d48988d151941735'],['Dining and Drinking > Restaurant > Mexican Restaurant > Taco Restaurant'],b'\x00\x00\x00\x00\x01\xc0Y\xdc\xba\xdb\x9e\x0e\x8c@4\xbc\xf3\xe6\x7f\xd5\xb9',"{'xmin': -103.44890489993321, 'ymin': 20.738096624574357, 'xmax': -103.44890489993321, 'ymax': 20.738096624574357}",dining and drinking > restaurant > mexican restaurant > taco restaurant,1
4f26bf91e4b0fd183a1a1b0b,Tacos Pablito's,20.2885,-101.637,Calle #10,,,,,,,MX,2012-01-30,2020-11-22,,,,,,,,['4bf58dd8d48988d151941735'],['Dining and Drinking > Restaurant > Mexican Restaurant > Taco Restaurant'],"b'\x00\x00\x00\x00\x01\xc0Yh\xc4\x9b\xa5\xe3T@4I\xdb""\xd0\xe5`'","{'xmin': -101.637, 'ymin': 20.2885, 'xmax': -101.637, 'ymax': 20.2885}",dining and drinking > restaurant > mexican restaurant > taco restaurant,1
58a3c21351666a278da0f565,Tacos Melín,20.658142,-103.377852,Zapote esq. Eucalipto,Guadalajara,Jalisco,44900,,,,MX,2017-02-15,2021-08-13,,,,,,,,['4bf58dd8d48988d151941735'],['Dining and Drinking > Restaurant > Mexican Restaurant > Taco Restaurant'],"b""\x00\x00\x00\x00\x01\xc0Y\xd8.\xba'\xae\x9b@4\xa8{\xfe~\x1f\xc1""","{'xmin': -103.377852, 'ymin': 20.658142, 'xmax': -103.377852, 'ymax': 20.658142}",dining and drinking > restaurant > mexican restaurant > taco restaurant,1
65a30f1681d5c82f2c5d9227,El Texano,20.883155,-100.713524,Camino A Alcocer,San Miguel de Allende,Gto.,37886,,,,MX,2024-01-13,2024-01-13,,,,,,,,"['4bf58dd8d48988d1ce941735' '4bf58dd8d48988d1c1941735'
 '4bf58dd8d48988d151941735']","['Dining and Drinking > Restaurant > Seafood Restaurant'
 'Dining and Drinking > Restaurant > Mexican Restaurant'
 'Dining and Drinking > Restaurant > Mexican Restaurant > Taco Restaurant']",b'\x00\x00\x00\x00\x01\xc0Y-\xaa`\x91:P@4\xe2\x16r2L\x83',"{'xmin': -100.713524, 'ymin': 20.883155, 'xmax': -100.713524, 'ymax': 20.883155}","dining and drinking > restaurant > seafood restaurant, dining and drinking > restaurant > mexican restaurant, dining and drinking > restaurant > mexican restaurant > taco restaurant",1
5499a3a0498ed7b6f7f4b0e3,Tacos Don Dany,20.623368519880614,-103.39493209676414,Jaime Torres Bodet,Tlaquepaque,Jalisco,45608,,,,MX,2014-12-23,2020-11-24,,,,,,,,['4bf58dd8d48988d151941735'],['Dining and Drinking > Restaurant > Mexican Restaurant > Taco Restaurant'],b'\x00\x00\x00\x00\x01\xc0Y\xd9F\x91E\xef\x88@4\x9f\x95\x14N>@',"{'xmin': -103.39493209676414, 'ymin': 20.623368519880614, 'xmax': -103.39493209676414, 'ymax': 20.623368519880614}",dining and drinking > restaurant > mexican restaurant > taco restaurant,1
6382702dec0ebb5c51c11ea6,Asadero Los Plebes,20.755085,-103.40061,Av. Valdepeñas,Zapopan,Jalisco,45130,,,,MX,2022-11-26,2022-11-26,,,,,,,,['4bf58dd8d48988d151941735'],['Dining and Drinking > Restaurant > Mexican Restaurant > Taco Restaurant'],b'\x00\x00\x00\x00\x01\xc0Y\xd9\xa3\x98 \x1c\xd6@4\xc1M@$\xb3>',"{'xmin': -103.40061, 'ymin': 20.755085, 'xmax': -103.40061, 'ymax': 20.755085}",dining and drinking > restaurant > mexican restaurant > taco restaurant,1
4e70e7fcd4c03fcb658ae5db,Candoras Coapinole,20.655077942430243,-105.19859603659593,,Puerto Vallarta,Jalisco,,,,,MX,2011-09-14,2020-11-24,,,,,,,,['4bf58dd8d48988d151941735'],['Dining and Drinking > Restaurant > Mexican Restaurant > Taco Restaurant'],b'\x00\x00\x00\x00\x01\xc0ZL\xb5\xcc&\x92\xdd@4\xa7\xb30#\x11\xa1',"{'xmin': -105.19859603659593, 'ymin': 20.655077942430243, 'xmax': -105.19859603659593, 'ymax': 20.655077942430243}",dining and drinking > restaurant > mexican restaurant > taco restaurant,1
4e46a17d62e148603b74a1bf,Tavo,22.152809988426135,-100.89383086507428,carr. a Río Verde,Soledad de Graciano Sánchez,San Luis Potosí,,,,,MX,2011-08-13,2020-11-23,,,,,,,,['4bf58dd8d48988d1cb941735' '4bf58dd8d48988d151941735'],"['Dining and Drinking > Food Truck'
 'Dining and Drinking > Restaurant > Mexican Restaurant > Taco Restaurant']","b""\x00\x00\x00\x00\x01\xc0Y94\x86_i\x90@6'\x1e\x8e.\xca\xda""","{'xmin': -100.89383086507428, 'ymin': 22.152809988426135, 'xmax': -100.89383086507428, 'ymax': 22.152809988426135}","dining and drinking > food truck, dining and drinking > restaurant > mexican restaurant > taco restaurant",1
575236ef498e07a4d21160e4,Los Meños,20.75791,-103.40007,,,,,,,,MX,2016-06-04,2021-08-12,,,,,,,,['4bf58dd8d48988d151941735'],['Dining and Drinking > Restaurant > Mexican Restaurant > Taco Restaurant'],b'\x00\x00\x00\x00\x01\xc0Y\xd9\x9a\xbf3\x87\x16@4\xc2\x06c\xc7O\xb5',"{'xmin': -103.40007, 'ymin': 20.75791, 'xmax': -103.40007, 'ymax': 20.75791}",dining and drinking > restaurant > mexican restaurant > taco restaurant,1
625b7c310eac2d1f5759e671,Los 3 García Tacos,21.855414,-102.282611,,Aguascalientes,AGS,20276,,,,MX,2022-04-17,2022-04-17,,,,,,,,"['4bf58dd8d48988d151941735' '4bf58dd8d48988d1cb941735'
 '56aa371be4b08b9a8d57350b']","['Dining and Drinking > Restaurant > Mexican Restaurant > Taco Restaurant'
 'Dining and Drinking > Food Truck' 'Dining and Drinking > Food Stand']",b'\x00\x00\x00\x00\x01\xc0Y\x92\x16Lr\x9fZ@5\xda\xfcir\x8aa',"{'xmin': -102.282611, 'ymin': 21.855414, 'xmax': -102.282611, 'ymax': 21.855414}","dining and drinking > restaurant > mexican restaurant > taco restaurant, dining and drinking > food truck, dining and drinking > food stand",1
5354050b498e943253caa7b2,"Carnitas,  El Mota",20.896827166920794,-100.75046125157218,,,,,,,,MX,2014-04-20,2021-08-13,,,,,,,,['4bf58dd8d48988d151941735'],['Dining and Drinking > Restaurant > Mexican Restaurant > Taco Restaurant'],b'\x00\x00\x00\x00\x01\xc0Y0\x07\x8e\xa1\x1a\xbc@4\xe5\x96w\x18\x16\xd2',"{'xmin': -100.75046125157218, 'ymin': 20.896827166920794, 'xmax': -100.75046125157218, 'ymax': 20.896827166920794}",dining and drinking > restaurant > mexican restaurant > taco restaurant,1
507ae68ae4b0468864fe13ce,Tortas Ahogadas Jalisco,19.684851343038336,-101.17368201281315,andador jose palomares quiroz 205,,,58290,,,,MX,2012-10-14,2023-12-20,,443 323 8303,,,,,,['4bf58dd8d48988d151941735'],['Dining and Drinking > Restaurant > Mexican Restaurant > Taco Restaurant'],b'\x00\x00\x00\x00\x01\xc0YK\x1d\x9b);\xe6@3\xafRj\xe8\xf8\xa9',"{'xmin': -101.17368201281315, 'ymin': 19.684851343038336, 'xmax': -101.17368201281315, 'ymax': 19.684851343038336}",dining and drinking > restaurant > mexican restaurant > taco restaurant,1
547f7fb0498e26c9dee0523a,Los de pescado,19.676309162389167,-101.18799545876963,,,,,,,,MX,2014-12-03,2021-08-16,,,,,,,,['4bf58dd8d48988d151941735'],['Dining and Drinking > Restaurant > Mexican Restaurant > Taco Restaurant'],"b'\x00\x00\x00\x00\x01\xc0YL\x08\x1e\x1a\xcd\x93@3\xad""\x98\xe6rV'","{'xmin': -101.18799545876963, 'ymin': 19.676309162389167, 'xmax': -101.18799545876963, 'ymax': 19.676309162389167}",dining and drinking > restaurant > mexican restaurant > taco restaurant,1
4ce16df898ab6a31b3a862e1,La carta,22.144824652866976,-101.03860706090927,Sierra Iyali,San Luis Potosi,San Luis Potosi,,,,,MX,2010-11-15,2020-11-24,,,,,,,,['4bf58dd8d48988d1cb941735' '4bf58dd8d48988d151941735'],"['Dining and Drinking > Food Truck'
 'Dining and Drinking > Restaurant > Mexican Restaurant > Taco Restaurant']",b'\x00\x00\x00\x00\x01\xc0YBx\x89\xc0\x00\x00@6%\x13:{\xb7\xdd',"{'xmin': -101.03860706090927, 'ymin': 22.144824652866976, 'xmax': -101.03860706090927, 'ymax': 22.144824652866976}","dining and drinking > food truck, dining and drinking > restaurant > mexican restaurant > taco restaurant",1
62b879ef78ec150dd90a9db5,Tacos de la Torre,20.674778,-103.322045,,Guadalajara,JAL,44360,,,,MX,2022-06-26,2022-06-26,,,,,,,,['4bf58dd8d48988d151941735'],['Dining and Drinking > Restaurant > Mexican Restaurant > Taco Restaurant'],b'\x00\x00\x00\x00\x01\xc0Y\xd4\x9cb\xa1\xb5\xc8@4\xac\xbe@B\x0fo',"{'xmin': -103.322045, 'ymin': 20.674778, 'xmax': -103.322045, 'ymax': 20.674778}",dining and drinking > restaurant > mexican restaurant > taco restaurant,1
5fca9b6d022e563893b42488,Tacos Toribios,20.602138,-105.234742,Calle Constitución,Puerto Vallarta,JAL,48380,,,,MX,2020-12-04,2020-12-04,,,,,,,,['4bf58dd8d48988d151941735'],['Dining and Drinking > Restaurant > Mexican Restaurant > Taco Restaurant'],b'\x00\x00\x00\x00\x01\xc0ZO\x06\x03O?\xd9@4\x9a%\xb7I\xad\xc9',"{'xmin': -105.234742, 'ymin': 20.602138, 'xmax': -105.234742, 'ymax': 20.602138}",dining and drinking > restaurant > mexican restaurant > taco restaurant,1
62e1549f670cee72cc54fe7c,Puercotitlan,21.876152,-102.281395,Av. Héroe de Nacozari Sur 714 A,Aguascalientes,Aguascalientes,20250,,,,MX,2022-07-27,2022-07-27,,,,,,,,['4bf58dd8d48988d151941735'],['Dining and Drinking > Restaurant > Mexican Restaurant > Taco Restaurant'],"b'\x00\x00\x00\x00\x01\xc0Y\x92\x02`,\x90\x82@5\xe0K\x7fZS3'","{'xmin': -102.281395, 'ymin': 21.876152, 'xmax': -102.281395, 'ymax': 21.876152}",dining and drinking > restaurant > mexican restaurant > taco restaurant,1
54e9fb8c498e0ec7e7fdde3a,Tacos de Barbacoa El Torito,20.730788,-103.42207,,,,,,,,MX,2015-02-22,2021-08-16,,,,,,,,['4bf58dd8d48988d151941735'],['Dining and Drinking > Restaurant > Mexican Restaurant > Taco Restaurant'],b'\x00\x00\x00\x00\x01\xc0Y\xdb\x031\xe3\xa7\xdb@4\xbb\x14\xec O+',"{'xmin': -103.42207, 'ymin': 20.730788, 'xmax': -103.42207, 'ymax': 20.730788}",dining and drinking > restaurant > mexican restaurant > taco restaurant,1
55e9c0a9498ed750635e80c6,Tacos Y Quesadillas Ely,21.12598296498614,-101.6505931791954,Jardines De Oriente,Leon Gto,,,,,,MX,2015-09-04,2020-11-22,,,,,,,,['4bf58dd8d48988d151941735'],['Dining and Drinking > Restaurant > Mexican Restaurant > Taco Restaurant'],b'\x00\x00\x00\x00\x01\xc0Yi\xa3Q\x92\xe9F@5 @kjw\xf5',"{'xmin': -101.6505931791954, 'ymin': 21.12598296498614, 'xmax': -101.6505931791954, 'ymax': 21.12598296498614}",dining and drinking > restaurant > mexican restaurant > taco restaurant,1
52a5368311d2da85424af86c,Los Famosos Tacos Al Pastor,20.646403,-103.406543,,,,,,,,MX,2013-12-09,2021-08-17,,,,,,,,['4bf58dd8d48988d151941735'],['Dining and Drinking > Restaurant > Mexican Restaurant > Taco Restaurant'],b'\x00\x00\x00\x00\x01\xc0Y\xda\x04\xcc\xeeZ\xbc@4\xa5z\xaa\xc1\tJ',"{'xmin': -103.406543, 'ymin': 20.646403, 'xmax': -103.406543, 'ymax': 20.646403}",dining and drinking > restaurant > mexican restaurant > taco restaurant,1
58605a5cb6e67d6eddd395dd,tacos la campeona,20.718963,-100.761304,,,,,,,,MX,2016-12-25,2021-08-12,,,,,,,,['4bf58dd8d48988d151941735'],['Dining and Drinking > Restaurant > Mexican Restaurant > Taco Restaurant'],b'\x00\x00\x00\x00\x01\xc0Y0\xb94i\x94\x18@4\xb8\r\xf5\x8c\x08\xb7',"{'xmin': -100.761304, 'ymin': 20.718963, 'xmax': -100.761304, 'ymax': 20.718963}",dining and drinking > restaurant > mexican restaurant > taco restaurant,1
4ff71237e4b0b3e698eca572,Tacos de guisado WHAT,21.869061872776317,-102.30262927830094,República De Costa Rica,Aguascalientes,aguascalientes,,,,,MX,2012-07-06,2020-11-25,,,,,,,,['4bf58dd8d48988d151941735'],['Dining and Drinking > Restaurant > Mexican Restaurant > Taco Restaurant'],b'\x00\x00\x00\x00\x01\xc0Y\x93^G1GV@5\xdez\xd6\xc1\xc6Y',"{'xmin': -102.30262927830094, 'ymin': 21.869061872776317, 'xmax': -102.30262927830094, 'ymax': 21.869061872776317}",dining and drinking > restaurant > mexican restaurant > taco restaurant,1
50835b56e4b0d2d6643676bb,"Tacos ""Don Porfis""",20.73626523468137,-103.35227899113772,,,,,,,,MX,2012-10-21,2021-08-17,,,,,,,,['4bf58dd8d48988d151941735' '4bf58dd8d48988d1c1941735'],"['Dining and Drinking > Restaurant > Mexican Restaurant > Taco Restaurant'
 'Dining and Drinking > Restaurant > Mexican Restaurant']",b'\x00\x00\x00\x00\x01\xc0Y\xd6\x8b\xbd.\x80H@4\xbc{\xe0\xe0#d',"{'xmin': -103.35227899113772, 'ymin': 20.73626523468137, 'xmax': -103.35227899113772, 'ymax': 20.73626523468137}","dining and drinking > restaurant > mexican restaurant > taco restaurant, dining and drinking > restaurant > mexican restaurant",1
3041a0a007d5423d1558578b,Menuderia Ecuador,20.649653,-103.370619,Ecuador 2121,Guadalajara,Jalisco,44920,,,,MX,2013-05-03,2024-10-12,,33 3810 1025,,,,,,['4bf58dd8d48988d151941735'],['Dining and Drinking > Restaurant > Mexican Restaurant > Taco Restaurant'],b'\x00\x00\x00\x00\x01\xc0Y\xd7\xb88\xc1\x11\xae@4\xa6O\xa8\xb4\xbf\x90',"{'xmin': -103.370619, 'ymin': 20.649653, 'xmax': -103.370619, 'ymax': 20.649653}",dining and drinking > restaurant > mexican restaurant > taco restaurant,1
5145335ee4b031527f81824f,"Tacos Guicho ""La bajada""",20.711236,-102.342303,,,,,,,,MX,2013-03-17,2021-08-12,,,,,,,,['4bf58dd8d48988d151941735'],['Dining and Drinking > Restaurant > Mexican Restaurant > Taco Restaurant'],b'\x00\x00\x00\x00\x01\xc0Y\x95\xe8J\xd7\x94\xa7@4\xb6\x13\x8f\xff\xbc\xe4',"{'xmin': -102.342303, 'ymin': 20.711236, 'xmax': -102.342303, 'ymax': 20.711236}",dining and drinking > restaurant > mexican restaurant > taco restaurant,1
4fe9e956e4b0c4fd685154a2,Las hermanas,20.625644389023897,-105.22288898900803,,,,,,,,MX,2012-06-26,2021-08-10,,,,,,,,['4bf58dd8d48988d151941735'],['Dining and Drinking > Restaurant > Mexican Restaurant > Taco Restaurant'],b'\x00\x00\x00\x00\x01\xc0ZNC\xd0-\x9bd@4\xa0*;\r\xc8\x96',"{'xmin': -105.22288898900803, 'ymin': 20.625644389023897, 'xmax': -105.22288898900803, 'ymax': 20.625644389023897}",dining and drinking > restaurant > mexican restaurant > taco restaurant,1
4f81f381e4b01e69d8681200,Tacos el grillo,31.320682494910507,-113.53708736531735,Ruiz cortinez,Puerto peñasco,Sonora,,,,,MX,2012-04-08,2020-11-25,,,,,,,,['4bf58dd8d48988d151941735'],['Dining and Drinking > Restaurant > Mexican Restaurant > Taco Restaurant'],b'\x00\x00\x00\x00\x01\xc0\\b_\xa3\xafH\x80@?R\x18?|\nR',"{'xmin': -113.53708736531735, 'ymin': 31.320682494910507, 'xmax': -113.53708736531735, 'ymax': 31.320682494910507}",dining and drinking > restaurant > mexican restaurant > taco restaurant,1
53ab142f498ed3da546c2d5e,El Divino Taco,21.92901309407876,-102.29853987693787,Av Independencia 2004b,Aguascalientes,Aguascalientes,20120,,,,MX,2014-06-25,2020-11-30,,449 175 4470,,,1434432276833866.0,,eldivinotaco,['4bf58dd8d48988d151941735'],['Dining and Drinking > Restaurant > Mexican Restaurant > Taco Restaurant'],b'\x00\x00\x00\x00\x01\xc0Y\x93\x1bG\x00\x00\x00@5\xed\xd3\xcdX\x9f\xc1',"{'xmin': -102.29853987693787, 'ymin': 21.92901309407876, 'xmax': -102.29853987693787, 'ymax': 21.92901309407876}",dining and drinking > restaurant > mexican restaurant > taco restaurant,1
4e8e6b986c255231f54a5232,"Tacos ""Los Machetes""",20.666608869056237,-103.38849015857517,Niños Héroes,Guadalajara,Jalisco,MX,,,,MX,2011-10-07,2021-08-13,,,,,,,,['4bf58dd8d48988d151941735'],['Dining and Drinking > Restaurant > Mexican Restaurant > Taco Restaurant'],b'\x00\x00\x00\x00\x01\xc0Y\xd8\xdd\x05\xd3y|@4\xaa\xa6\xe0\xfb\xd1\xf1',"{'xmin': -103.38849015857517, 'ymin': 20.666608869056237, 'xmax': -103.38849015857517, 'ymax': 20.666608869056237}",dining and drinking > restaurant > mexican restaurant > taco restaurant,1
515a972de4b0a96425a71924,Taquería angeles,20.627577676555067,-105.22288898900803,,,,,,,,MX,2013-04-02,2021-08-11,,,,,,,,['4bf58dd8d48988d151941735'],['Dining and Drinking > Restaurant > Mexican Restaurant > Taco Restaurant'],b'\x00\x00\x00\x00\x01\xc0ZNC\xd0-\x9bd@4\xa0\xa8\xee<\x80\xf1',"{'xmin': -105.22288898900803, 'ymin': 20.627577676555067, 'xmax': -105.22288898900803, 'ymax': 20.627577676555067}",dining and drinking > restaurant > mexican restaurant > taco restaurant,1
53cbcde8498eeaab3e6b8c23,El Ranchero Tacos de Barbacoa,20.56762655799844,-103.44272862226121,Camino Real a Colima,Tlajomulco de Zúñiga,Jalisco,,,,,MX,2014-07-20,2021-12-22,,,,,,,,['4bf58dd8d48988d151941735'],['Dining and Drinking > Restaurant > Mexican Restaurant > Taco Restaurant'],b'\x00\x00\x00\x00\x01\xc0Y\xdcU\xaang]@4\x91O\xf9^\xf1\xc1',"{'xmin': -103.44272862226121, 'ymin': 20.56762655799844, 'xmax': -103.44272862226121, 'ymax': 20.56762655799844}",dining and drinking > restaurant > mexican restaurant > taco restaurant,1
5764e03a38faa6615ff0f456,Tacos doña Lupe,20.606281,-105.22711,,,,,,,,MX,2016-06-18,2021-08-12,,,,,,,,['4bf58dd8d48988d151941735'],['Dining and Drinking > Restaurant > Mexican Restaurant > Taco Restaurant'],b'\x00\x00\x00\x00\x01\xc0ZN\x88\xf8a\xa6\r@4\x9b5;K/\xa9',"{'xmin': -105.22711, 'ymin': 20.606281, 'xmax': -105.22711, 'ymax': 20.606281}",dining and drinking > restaurant > mexican restaurant > taco restaurant,1
4f7d1ab4e4b051994af34ec7,Chilangos taco,20.537992563642483,-104.04383032873922,,,,,,,,MX,2012-04-05,2021-08-16,,,,,,,,['4bf58dd8d48988d151941735'],['Dining and Drinking > Restaurant > Mexican Restaurant > Taco Restaurant'],b'\x00\x00\x00\x00\x01\xc0Z\x02\xce\x1d\xb9 \x81@4\x89\xb9\xe1rU\xee',"{'xmin': -104.04383032873922, 'ymin': 20.537992563642483, 'xmax': -104.04383032873922, 'ymax': 20.537992563642483}",dining and drinking > restaurant > mexican restaurant > taco restaurant,1
5cf5c1c00e3239002bb60662,Tacos De Asada Estilo Sinaloa,20.642658,-103.399061,,Guadalajara,JAL,45060,,,,MX,2019-06-04,2021-08-14,,,,,,,,['4bf58dd8d48988d151941735'],['Dining and Drinking > Restaurant > Mexican Restaurant > Taco Restaurant'],b'\x00\x00\x00\x00\x01\xc0Y\xd9\x8a7&\x06\xfb@4\xa4\x85<\x14\x83E',"{'xmin': -103.399061, 'ymin': 20.642658, 'xmax': -103.399061, 'ymax': 20.642658}",dining and drinking > restaurant > mexican restaurant > taco restaurant,1
52c8a77b498e6e508ef2487f,Tacos La Güera,20.497843258069754,-100.81162734610295,,,,,,,,MX,2014-01-05,2021-08-13,,461 616 4791,,,,,,['4bf58dd8d48988d151941735'],['Dining and Drinking > Restaurant > Mexican Restaurant > Taco Restaurant'],b'\x00\x00\x00\x00\x01\xc0Y3\xf1\xb3\xd3\x03K@4\x7fr\xa7\xdf\xf1\x95',"{'xmin': -100.81162734610295, 'ymin': 20.497843258069754, 'xmax': -100.81162734610295, 'ymax': 20.497843258069754}",dining and drinking > restaurant > mexican restaurant > taco restaurant,1
5696f60b498e5f49ae29ef60,"Taqueria ""Los Güeros De Arandas""",21.08618,-101.64673,,,,,,,,MX,2016-01-14,2021-08-11,,,,,,,,['4bf58dd8d48988d151941735'],['Dining and Drinking > Restaurant > Mexican Restaurant > Taco Restaurant'],b'\x00\x00\x00\x00\x01\xc0Yid\x069\xd5\xe5@5\x16\x0f\xe4y\x91\xbc',"{'xmin': -101.64673, 'ymin': 21.08618, 'xmax': -101.64673, 'ymax': 21.08618}",dining and drinking > restaurant > mexican restaurant > taco restaurant,1
526c0b7011d26983c1744d0c,Taqueria ''Ayy Carbón'',20.706150612369328,-102.35212875213924,General Arteaga #135,Arandas,Jalisco,47180,,,,MX,2013-10-26,2021-11-23,,,,,,,,['4bf58dd8d48988d151941735'],['Dining and Drinking > Restaurant > Mexican Restaurant > Taco Restaurant'],b'\x00\x00\x00\x00\x01\xc0Y\x96\x89G\x08\x9a\xd6@4\xb4\xc6IZ-8',"{'xmin': -102.35212875213924, 'ymin': 20.706150612369328, 'xmax': -102.35212875213924, 'ymax': 20.706150612369328}",dining and drinking > restaurant > mexican restaurant > taco restaurant,1
4f0a6505e4b0596c90b0ed50,Tacos El Comemas,31.324079,-113.53438,Benito Juárez,Puerto Peñasco,Sonora,,,,,MX,2012-01-09,2020-11-22,,,,,,,,['4bf58dd8d48988d151941735'],['Dining and Drinking > Restaurant > Mexican Restaurant > Taco Restaurant'],b'\x00\x00\x00\x00\x01\xc0\\b3H+\xe8\xbc@?R\xf6\xd7bR\x05',"{'xmin': -113.53438, 'ymin': 31.324079, 'xmax': -113.53438, 'ymax': 31.324079}",dining and drinking > restaurant > mexican restaurant > taco restaurant,1
5723b2ae498ea2e8cdc7a50a,Gorditas Las Sabrosas De Zacatecas,21.145269612578524,-101.69047650862461,,,,,,,,MX,2016-04-29,2021-08-13,,,,,,,,['4bf58dd8d48988d151941735'],['Dining and Drinking > Restaurant > Mexican Restaurant > Taco Restaurant'],b'\x00\x00\x00\x00\x01\xc0Yl0\xc4a\xcc\xbc@5%0c\xab \x9a',"{'xmin': -101.69047650862461, 'ymin': 21.145269612578524, 'xmax': -101.69047650862461, 'ymax': 21.145269612578524}",dining and drinking > restaurant > mexican restaurant > taco restaurant,1
6715294fabedb25c0f94e56e,Los Molcajetes Gdl,20.744183,-103.419231,Santa Mónica 750,Zapopan,Jal.,45138,,,,MX,2024-10-20,2024-10-20,,,,,,,,['4bf58dd8d48988d151941735'],['Dining and Drinking > Restaurant > Mexican Restaurant > Taco Restaurant'],b'\x00\x00\x00\x00\x01\xc0Y\xda\xd4\xaeB\x9e\n@4\xbe\x82\xc6\xef=:',"{'xmin': -103.419231, 'ymin': 20.744183, 'xmax': -103.419231, 'ymax': 20.744183}",dining and drinking > restaurant > mexican restaurant > taco restaurant,1
5635b177498e78cfb7086ae4,Tacos El Taconsito,20.647477446473086,-101.3381947148317,,,,,,,,MX,2015-11-01,2021-08-15,,,,,,,,['4bf58dd8d48988d151941735'],['Dining and Drinking > Restaurant > Mexican Restaurant > Taco Restaurant'],b'\x00\x00\x00\x00\x01\xc0YU\xa4\xfbq\xf8v@4\xa5\xc1\x14\xf9\x7f\xdf',"{'xmin': -101.3381947148317, 'ymin': 20.647477446473086, 'xmax': -101.3381947148317, 'ymax': 20.647477446473086}",dining and drinking > restaurant > mexican restaurant > taco restaurant,1
57f00f89498e1dd089599305,Taco Fest Morelia,19.685316,-101.181129,,,,,,,,MX,2016-10-01,2021-08-16,,,,,,,,['4bf58dd8d48988d151941735'],['Dining and Drinking > Restaurant > Mexican Restaurant > Taco Restaurant'],b'\x00\x00\x00\x00\x01\xc0YK\x97\x9e\x16\xd6\xdc@3\xafp\xde\x8fl\xf0',"{'xmin': -101.181129, 'ymin': 19.685316, 'xmax': -101.181129, 'ymax': 19.685316}",dining and drinking > restaurant > mexican restaurant > taco restaurant,1
500ac352e4b067574e66f157,Tacos De Guisados,19.263588926708493,-103.7506764834428,Pablo Silva García 276,Villa De Álvarez,Colima,,,,,MX,2012-07-21,2020-11-23,,,,,,,,['4bf58dd8d48988d151941735'],['Dining and Drinking > Restaurant > Mexican Restaurant > Taco Restaurant'],b'\x00\x00\x00\x00\x01\xc0Y\xf0\x0b\x15`\x90\xd7@3Cz\x90[\xcc\xfc',"{'xmin': -103.7506764834428, 'ymin': 19.263588926708493, 'xmax': -103.7506764834428, 'ymax': 19.263588926708493}",dining and drinking > restaurant > mexican restaurant > taco restaurant,1
4cc65378806246887c85412f,Taquería del obrero,20.692104074156447,-103.31173768068138,Juan Pablo II 1551,Guadalajara,Jalisco,44350,,,,MX,2010-10-26,2021-08-12,,,,,,,,['4bf58dd8d48988d151941735'],['Dining and Drinking > Restaurant > Mexican Restaurant > Taco Restaurant'],b'\x00\x00\x00\x00\x01\xc0Y\xd3\xf3\x82\x99\xddF@4\xb1-\xbb\x8b\xee(',"{'xmin': -103.31173768068138, 'ymin': 20.692104074156447, 'xmax': -103.31173768068138, 'ymax': 20.692104074156447}",dining and drinking > restaurant > mexican restaurant > taco restaurant,1
524cbba511d2e3497fa8ab6b,Tripitas Doradas Los Nietos,20.740465228800293,-103.35104378144396,,,,,,,,MX,2013-10-03,2021-08-17,,,,,,,,['4bf58dd8d48988d151941735'],['Dining and Drinking > Restaurant > Mexican Restaurant > Taco Restaurant'],b'\x00\x00\x00\x00\x01\xc0Y\xd6w\x80V1\x06@4\xbd\x8f!\x15\x85\xbd',"{'xmin': -103.35104378144396, 'ymin': 20.740465228800293, 'xmax': -103.35104378144396, 'ymax': 20.740465228800293}",dining and drinking > restaurant > mexican restaurant > taco restaurant,1
5768a116cd10ba621c26ebf3,"Asadas ""Sheriff 888""",20.65530639331152,-103.30037066059532,Calle Medrano,San Rafael,Jalisco,44810,,,,MX,2016-06-21,2021-08-17,,,,,,,,['4bf58dd8d48988d151941735'],['Dining and Drinking > Restaurant > Mexican Restaurant > Taco Restaurant'],b'\x00\x00\x00\x00\x01\xc0Y\xd39E\xdc\xfb\xd4@4\xa7\xc2(\xe8!\xf8',"{'xmin': -103.30037066059532, 'ymin': 20.65530639331152, 'xmax': -103.30037066059532, 'ymax': 20.65530639331152}",dining and drinking > restaurant > mexican restaurant > taco restaurant,1
5029bad9e4b079114a36fb8c,Santa anita tacos Chuy,20.57633,-103.44671,,,,,,,,MX,2012-08-14,2020-11-23,,,,,,,,['4bf58dd8d48988d151941735'],['Dining and Drinking > Restaurant > Mexican Restaurant > Taco Restaurant'],b'\x00\x00\x00\x00\x01\xc0Y\xdc\x96\xe5\x8a2\xf4@4\x93\x8a\\\xe5\xb4$',"{'xmin': -103.44671, 'ymin': 20.57633, 'xmax': -103.44671, 'ymax': 20.57633}",dining and drinking > restaurant > mexican restaurant > taco restaurant,1
565d17c8498e4548ef6180de,"Taqueria ""El cuñadito""",20.878112,-103.830935,,,,,,,,MX,2015-12-01,2021-08-13,,,,,,,,['4bf58dd8d48988d151941735'],['Dining and Drinking > Restaurant > Mexican Restaurant > Taco Restaurant'],b'\x00\x00\x00\x00\x01\xc0Y\xf5.\t\xfe\x86\x83@4\xe0\xcb\xf2\xb29\xa4',"{'xmin': -103.830935, 'ymin': 20.878112, 'xmax': -103.830935, 'ymax': 20.878112}",dining and drinking > restaurant > mexican restaurant > taco restaurant,1
526c7bb211d24647bbf80b87,"Cuchilladas y Huaraches ""La Peque""",21.019617080688477,-101.25836181640625,,,,,,,,MX,2013-10-27,2021-08-14,,,,,,,,['4bf58dd8d48988d151941735'],['Dining and Drinking > Restaurant > Mexican Restaurant > Taco Restaurant'],b'\x00\x00\x00\x00\x01\xc0YP\x89\x00\x00\x00\x00@5\x05\x05\xa0\x00\x00\x00',"{'xmin': -101.25836181640625, 'ymin': 21.019617080688477, 'xmax': -101.25836181640625, 'ymax': 21.019617080688477}",dining and drinking > restaurant > mexican restaurant > taco restaurant,1
5367c6ae498e9da41327c5c6,"Tacos, tortas y Quesadillas ""Don Richard""",21.144421986404527,-101.6837504020166,,,,,,,,MX,2014-05-05,2021-08-12,,,,,,,,['4bf58dd8d48988d151941735'],['Dining and Drinking > Restaurant > Mexican Restaurant > Taco Restaurant'],b'\x00\x00\x00\x00\x01\xc0Yk\xc2\x91\x0b\xd2q@5$\xf8\xd6\xdcnI',"{'xmin': -101.6837504020166, 'ymin': 21.144421986404527, 'xmax': -101.6837504020166, 'ymax': 21.144421986404527}",dining and drinking > restaurant > mexican restaurant > taco restaurant,1
57cda4a7498ea577ca0d117a,Taqueria Viva Mexico,31.304227,-113.551916,,Puerto Penasco,SON,,,,,MX,2016-09-05,2023-12-21,,638 383 8937,,,,,,['4bf58dd8d48988d151941735'],['Dining and Drinking > Restaurant > Mexican Restaurant > Taco Restaurant'],b'\x00\x00\x00\x00\x01\xc0\\cR\x97|\x88\xe8@?M\xe1\xd2\x17\x8fi',"{'xmin': -113.551916, 'ymin': 31.304227, 'xmax': -113.551916, 'ymax': 31.304227}",dining and drinking > restaurant > mexican restaurant > taco restaurant,1
53ddd14a498e62f1e9adf26c,Tacos Arandas,22.149431285473636,-100.98438471274105,,,,,,,,MX,2014-08-03,2021-08-10,,,,,,,,['4bf58dd8d48988d151941735'],['Dining and Drinking > Restaurant > Mexican Restaurant > Taco Restaurant'],b'\x00\x00\x00\x00\x01\xc0Y?\x00(\xbc\xf9\xee@6&A \xf4\x1b\xc7',"{'xmin': -100.98438471274105, 'ymin': 22.149431285473636, 'xmax': -100.98438471274105, 'ymax': 22.149431285473636}",dining and drinking > restaurant > mexican restaurant > taco restaurant,1
5427343a498e4036e2dee595,El Curandero Tortas Ahogadas,20.70364952457226,-101.34057115283872,,,,,,,,MX,2014-09-27,2021-08-15,,,,,,,,['4bf58dd8d48988d151941735'],['Dining and Drinking > Restaurant > Mexican Restaurant > Taco Restaurant'],"b'\x00\x00\x00\x00\x01\xc0YU\xcb\xea\xf2\xd9\xd0@4\xb4""`\x0f\xe2A'","{'xmin': -101.34057115283872, 'ymin': 20.70364952457226, 'xmax': -101.34057115283872, 'ymax': 20.70364952457226}",dining and drinking > restaurant > mexican restaurant > taco restaurant,1
50ee3330e4b08462bd8a7d80,Tacos De Luisito,20.652318455755402,-103.3224405672593,Fray Luis De León,Guadalajara,,,,,,MX,2013-01-10,2021-08-16,,,,,,,,['4bf58dd8d48988d151941735'],['Dining and Drinking > Restaurant > Mexican Restaurant > Taco Restaurant'],b'\x00\x00\x00\x00\x01\xc0Y\xd4\xa2\xdd\xc2\xd2\x13@4\xa6\xfeW\xa2\x0b\xf3',"{'xmin': -103.3224405672593, 'ymin': 20.652318455755402, 'xmax': -103.3224405672593, 'ymax': 20.652318455755402}",dining and drinking > restaurant > mexican restaurant > taco restaurant,1
4d914579d7b1236a2ae82d38,El Artista Del Taco,22.152153174981002,-101.0129006291639,Nereo Rodriguez Barragan 1380 (Plaza del Valle),San Luis Potosí,San Luis Potosí,,,,,MX,2011-03-29,2020-11-25,,444 813 6255,,,,,,['4bf58dd8d48988d151941735'],['Dining and Drinking > Restaurant > Mexican Restaurant > Taco Restaurant'],b'\x00\x00\x00\x00\x01\xc0Y@\xd3])\x16\xd5@6&\xf3\x82\xae\x86\xa6',"{'xmin': -101.0129006291639, 'ymin': 22.152153174981002, 'xmax': -101.0129006291639, 'ymax': 22.152153174981002}",dining and drinking > restaurant > mexican restaurant > taco restaurant,1
5d3a65280c4d300008109f8b,El Molacho,19.288789,-103.748613,Av La Villita,Villa de Álvarez,COL,28989,,,,MX,2019-07-26,2020-11-24,,,,,,,,['4bf58dd8d48988d151941735'],['Dining and Drinking > Restaurant > Mexican Restaurant > Taco Restaurant'],b'\x00\x00\x00\x00\x01\xc0Y\xef\xe9F\x80\x17\x12@3I\xee\x13nq\xce',"{'xmin': -103.748613, 'ymin': 19.288789, 'xmax': -103.748613, 'ymax': 19.288789}",dining and drinking > restaurant > mexican restaurant > taco restaurant,1
4dec4e90fa76cc1b8b15819a,La Fragua,22.14860637779268,-101.01351132850115,Venustiano Carranza 2335-2345,San Luis Potosí,San Luis Potosí,78220,,,,MX,2011-06-06,2023-09-12,,,,,,,,['4bf58dd8d48988d151941735'],['Dining and Drinking > Restaurant > Mexican Restaurant > Taco Restaurant'],b'\x00\x00\x00\x00\x01\xc0Y@\xdd^\x9e\x82n@6&\x0b\x11L\x98\xba',"{'xmin': -101.01351132850115, 'ymin': 22.14860637779268, 'xmax': -101.01351132850115, 'ymax': 22.14860637779268}",dining and drinking > restaurant > mexican restaurant > taco restaurant,1
5b135f87d1a402002df7d6b3,Tacos El Gallo,20.64777,-101.38153,Valle Verde,Irapuato,Guanajuato,36829,,,,MX,2018-06-03,2020-11-23,,,,,,,,['4bf58dd8d48988d151941735'],['Dining and Drinking > Restaurant > Mexican Restaurant > Taco Restaurant'],b'\x00\x00\x00\x00\x01\xc0YXj\xfc\xce\x1cX@4\xa5\xd4A5Tv',"{'xmin': -101.38153, 'ymin': 20.64777, 'xmax': -101.38153, 'ymax': 20.64777}",dining and drinking > restaurant > mexican restaurant > taco restaurant,1
4f6e5f06e4b0dca2e14f4ed0,El Sabor de mi Tierra,20.64639871473612,-103.40662879229009,Av. Mariano Otero,Zapopan,Jalisco,,,,,MX,2012-03-24,2020-11-24,,,,,,,,['4bf58dd8d48988d151941735' '4bf58dd8d48988d1c1941735'],"['Dining and Drinking > Restaurant > Mexican Restaurant > Taco Restaurant'
 'Dining and Drinking > Restaurant > Mexican Restaurant']",b'\x00\x00\x00\x00\x01\xc0Y\xda\x064\xc5\x1f\xde@4\xa5zb\xdb\xf7\xd3',"{'xmin': -103.40662879229009, 'ymin': 20.64639871473612, 'xmax': -103.40662879229009, 'ymax': 20.64639871473612}","dining and drinking > restaurant > mexican restaurant > taco restaurant, dining and drinking > restaurant > mexican restaurant",1
4b6ddf0df964a52070972ce3,Las Fabulosas Papas,20.67957803941069,-103.38118198167732,Av. México 2540,Guadalajara,JAL,,,,,MX,2010-02-06,2024-02-27,2021-03-16,33 1201 0090,http://laspapas.com.mx/,,199191436785925.0,,laspapasoficial,['4bf58dd8d48988d1c1941735' '4bf58dd8d48988d151941735'],"['Dining and Drinking > Restaurant > Mexican Restaurant'
 'Dining and Drinking > Restaurant > Mexican Restaurant > Taco Restaurant']",b'\x00\x00\x00\x00\x01\xc0Y\xd8eI\x1cH:@4\xad\xf8\xd3\x8eYE',"{'xmin': -103.38118198167732, 'ymin': 20.67957803941069, 'xmax': -103.38118198167732, 'ymax': 20.67957803941069}","dining and drinking > restaurant > mexican restaurant, dining and drinking > restaurant > mexican restaurant > taco restaurant",1
547a008c498ee690ade5379b,Tacos de Birria los Güeros,20.74547830936222,-103.39645155177818,,,,,,,,MX,2014-11-29,2021-08-15,,,,,,,,['4bf58dd8d48988d151941735'],['Dining and Drinking > Restaurant > Mexican Restaurant > Taco Restaurant'],b'\x00\x00\x00\x00\x01\xc0Y\xd9_vTU}@4\xbe\xd7\xaa\x9e\x96\x8e',"{'xmin': -103.39645155177818, 'ymin': 20.74547830936222, 'xmax': -103.39645155177818, 'ymax': 20.74547830936222}",dining and drinking > restaurant > mexican restaurant > taco restaurant,1
56d1d928cd10a993848e6a01,Tacos Venancio,20.639081120225615,-103.31073404042968,,,,,,,,MX,2016-02-27,2021-08-15,,,,,,,,['4bf58dd8d48988d151941735'],['Dining and Drinking > Restaurant > Mexican Restaurant > Taco Restaurant'],b'\x00\x00\x00\x00\x01\xc0Y\xd3\xe3\x11\x07Y\x90@4\xa3\x9a\xd1\xfe\xdc-',"{'xmin': -103.31073404042968, 'ymin': 20.639081120225615, 'xmax': -103.31073404042968, 'ymax': 20.639081120225615}",dining and drinking > restaurant > mexican restaurant > taco restaurant,1
4cdb6f006ad1a0934a4dec56,La Humadera,20.671039198900047,-103.40994640006902,Niño Obrero 502,Zapopa,Jalisco,45040,,,,MX,2010-11-11,2021-08-13,,33 3121 0620,,,213334992086606.0,,,['4bf58dd8d48988d151941735' '4bf58dd8d48988d16c941735'],"['Dining and Drinking > Restaurant > Mexican Restaurant > Taco Restaurant'
 'Dining and Drinking > Restaurant > Burger Joint']",b'\x00\x00\x00\x00\x01\xc0Y\xda<\x8f\xd3Z3@4\xab\xc99\x95\x9c\x18',"{'xmin': -103.40994640006902, 'ymin': 20.671039198900047, 'xmax': -103.40994640006902, 'ymax': 20.671039198900047}","dining and drinking > restaurant > mexican restaurant > taco restaurant, dining and drinking > restaurant > burger joint",1
4e1e579d14959804e9e187b5,Tacos La Flama,20.53697124795928,-100.8038500598182,,Celaya,Guanajuato,,,,,MX,2011-07-14,2020-11-23,,,,,,,,['4bf58dd8d48988d151941735'],['Dining and Drinking > Restaurant > Mexican Restaurant > Taco Restaurant'],b'\x00\x00\x00\x00\x01\xc0Y3rG\x85s\xa3@4\x89v\xf2\x9c\xe0\x9e',"{'xmin': -100.8038500598182, 'ymin': 20.53697124795928, 'xmax': -100.8038500598182, 'ymax': 20.53697124795928}",dining and drinking > restaurant > mexican restaurant > taco restaurant,1
4ec9b99be5fa232a77d6cd41,"Tacos De Asada ""eber""",20.625619535028076,-103.35459715680136,"Pedro García Conde 591, 5 de Mayo, Guadalajara, JAL",Guadalajara,Jalisco,,,,,MX,2011-11-21,2021-08-16,,,,,,,,['4bf58dd8d48988d151941735'],['Dining and Drinking > Restaurant > Mexican Restaurant > Taco Restaurant'],b'\x00\x00\x00\x00\x01\xc0Y\xd6\xb1\xb8E\xed\xda@4\xa0(\x9a\x12\xaf/',"{'xmin': -103.35459715680136, 'ymin': 20.625619535028076, 'xmax': -103.35459715680136, 'ymax': 20.625619535028076}",dining and drinking > restaurant > mexican restaurant > taco restaurant,1
4fb9a530e4b0eabae5bdefa1,tacos la güera,20.87851572828576,-104.51976611767964,,,,,,,,MX,2012-05-21,2020-11-22,,,,,,,,['4bf58dd8d48988d151941735'],['Dining and Drinking > Restaurant > Mexican Restaurant > Taco Restaurant'],"b'\x00\x00\x00\x00\x01\xc0Z!C\xd9\x1b@0@4\xe0\xe6h""\x02K'","{'xmin': -104.51976611767964, 'ymin': 20.87851572828576, 'xmax': -104.51976611767964, 'ymax': 20.87851572828576}",dining and drinking > restaurant > mexican restaurant > taco restaurant,1
4db4f6774b226b343d97be40,Taquería Lucas,20.90343830389012,-100.74793337210957,5 de mayo,San Miguel de Allende,Guanajuato,,,,,MX,2011-04-25,2020-11-25,,,,,,,,['4bf58dd8d48988d151941735'],['Dining and Drinking > Restaurant > Mexican Restaurant > Taco Restaurant'],b'\x00\x00\x00\x00\x01\xc0Y/\xde#\xef3\x0c@4\xe7G\xbb\x91)j',"{'xmin': -100.74793337210957, 'ymin': 20.90343830389012, 'xmax': -100.74793337210957, 'ymax': 20.90343830389012}",dining and drinking > restaurant > mexican restaurant > taco restaurant,1
528054d411d26b82c1bf981c,Taqueria El Cazador,20.229631423950195,-103.57148742675781,JOSE ANTONIO TORRES SIN NUMERO,Zacoalco De Torres,Jalisco,45750,,,,MX,2013-11-11,2020-11-23,,,,,,,,['4bf58dd8d48988d151941735'],['Dining and Drinking > Restaurant > Mexican Restaurant > Taco Restaurant'],b'\x00\x00\x00\x00\x01\xc0Y\xe4\x93@\x00\x00\x00@4:\xc9 \x00\x00\x00',"{'xmin': -103.57148742675781, 'ymin': 20.229631423950195, 'xmax': -103.57148742675781, 'ymax': 20.229631423950195}",dining and drinking > restaurant > mexican restaurant > taco restaurant,1
51982925498e8d15df2ec0c9,Tacos El Penas,21.42245101928711,-102.5740737915039,La Rosa 137,,,02770,,,,MX,2013-05-19,2021-08-12,,,,,,,,['4bf58dd8d48988d151941735'],['Dining and Drinking > Restaurant > Mexican Restaurant > Taco Restaurant'],b'\x00\x00\x00\x00\x01\xc0Y\xa4\xbd\xa0\x00\x00\x00@5l%\xc0\x00\x00\x00',"{'xmin': -102.5740737915039, 'ymin': 21.42245101928711, 'xmax': -102.5740737915039, 'ymax': 21.42245101928711}",dining and drinking > restaurant > mexican restaurant > taco restaurant,1
55b8ee0a498edb41f8b94240,tacos cinco estrellas,20.964656,-101.279999,,,,,,,,MX,2015-07-29,2021-08-16,,,,,,,,['4bf58dd8d48988d151941735'],['Dining and Drinking > Restaurant > Mexican Restaurant > Taco Restaurant'],b'\x00\x00\x00\x00\x01\xc0YQ\xeb\x80\xec\xfaj@4\xf6\xf3\xb2\x13\xe3\xe3',"{'xmin': -101.279999, 'ymin': 20.964656, 'xmax': -101.279999, 'ymax': 20.964656}",dining and drinking > restaurant > mexican restaurant > taco restaurant,1
51d4cf05498ea62519cef89f,Taqueria Rosita,20.629185,-103.374556,,,,,,,,MX,2013-07-04,2021-08-11,,,,,,,,['4bf58dd8d48988d151941735'],['Dining and Drinking > Restaurant > Mexican Restaurant > Taco Restaurant'],"b'\x00\x00\x00\x00\x01\xc0Y\xd7\xf8\xb9\xba\xa1Q@4\xa1\x12D\xa6"">'","{'xmin': -103.374556, 'ymin': 20.629185, 'xmax': -103.374556, 'ymax': 20.629185}",dining and drinking > restaurant > mexican restaurant > taco restaurant,1
4ef8a0cb9911b01ddc7c1204,Asadero El Cachanilla,20.70677890822269,-103.35119287900211,,,,,,,,MX,2011-12-26,2021-08-15,,,,,,,,['4bf58dd8d48988d151941735'],['Dining and Drinking > Restaurant > Mexican Restaurant > Taco Restaurant'],b'\x00\x00\x00\x00\x01\xc0Y\xd6y\xf1\xb2y\xbd@4\xb4\xefvhQ\xad',"{'xmin': -103.35119287900211, 'ymin': 20.70677890822269, 'xmax': -103.35119287900211, 'ymax': 20.70677890822269}",dining and drinking > restaurant > mexican restaurant > taco restaurant,1
56f8536dcd106d63a2c3dbcd,Antojitos,20.883895640525235,-103.83839630634974,Sixto Gordon,Tequila,,,,,,MX,2016-03-27,2020-11-30,,,,,,,,['4bf58dd8d48988d151941735'],['Dining and Drinking > Restaurant > Mexican Restaurant > Taco Restaurant'],"b'\x00\x00\x00\x00\x01\xc0Y\xf5\xa8H\xfb6\xff@4\xe2F\xfc\x15""\x03'","{'xmin': -103.83839630634974, 'ymin': 20.883895640525235, 'xmax': -103.83839630634974, 'ymax': 20.883895640525235}",dining and drinking > restaurant > mexican restaurant > taco restaurant,1
4ef4b83c30f87cc5181ade91,Taqueria Los Angeles,20.515001388668104,-100.80772647777647,Antonio Plaza,,,,,,,MX,2011-12-23,2021-08-17,,,,,,,,['4bf58dd8d48988d151941735'],['Dining and Drinking > Restaurant > Mexican Restaurant > Taco Restaurant'],b'\x00\x00\x00\x00\x01\xc0Y3\xb1\xcae\x8ar@4\x83\xd7!\x89\xb9^',"{'xmin': -100.80772647777647, 'ymin': 20.515001388668104, 'xmax': -100.80772647777647, 'ymax': 20.515001388668104}",dining and drinking > restaurant > mexican restaurant > taco restaurant,1
58e6fcec6c682b4c048bb945,tacos la curva,20.90928,-100.759445,Avenida neoclasica,San Miguel de allende,Guanajuato,37800,,,,MX,2017-04-07,2020-11-23,,,,,,,,['4bf58dd8d48988d151941735'],['Dining and Drinking > Restaurant > Mexican Restaurant > Taco Restaurant'],b'\x00\x00\x00\x00\x01\xc0Y0\x9a\xbf3\x87\x16@4\xe8\xc6\x92\xf6\xe8)',"{'xmin': -100.759445, 'ymin': 20.90928, 'xmax': -100.759445, 'ymax': 20.90928}",dining and drinking > restaurant > mexican restaurant > taco restaurant,1
56e78793498ea9c72260a714,Master Taco,20.57293006962396,-103.36405074674056,,,,,,,,MX,2016-03-15,2021-08-13,,,,,,,,['4bf58dd8d48988d151941735'],['Dining and Drinking > Restaurant > Mexican Restaurant > Taco Restaurant'],b'\x00\x00\x00\x00\x01\xc0Y\xd7L\x9b\x80\xd5r@4\x92\xab\x8b\x87\xee\x0f',"{'xmin': -103.36405074674056, 'ymin': 20.57293006962396, 'xmax': -103.36405074674056, 'ymax': 20.57293006962396}",dining and drinking > restaurant > mexican restaurant > taco restaurant,1
4cb14088b4b0a35db8ba50ce,"Tacos ""El Ches""",20.745992995505667,-103.39839641896887,,,,,,,,MX,2010-10-10,2021-08-10,,,,,,,,['4bf58dd8d48988d151941735'],['Dining and Drinking > Restaurant > Mexican Restaurant > Taco Restaurant'],b'\x00\x00\x00\x00\x01\xc0Y\xd9\x7fS\xb1\x94&@4\xbe\xf9e\x9e\xbd\xee',"{'xmin': -103.39839641896887, 'ymin': 20.745992995505667, 'xmax': -103.39839641896887, 'ymax': 20.745992995505667}",dining and drinking > restaurant > mexican restaurant > taco restaurant,1
4f8300f1e4b08807813844ae,Pepe,20.64158911098421,-103.3552683610771,,Guadalajara,Jalisco,,,,,MX,2012-04-09,2021-08-15,,,,,,,,['4bf58dd8d48988d151941735'],['Dining and Drinking > Restaurant > Mexican Restaurant > Taco Restaurant'],b'\x00\x00\x00\x00\x01\xc0Y\xd6\xbc\xb7\x82\x08L@4\xa4?/\x19%\x9b',"{'xmin': -103.3552683610771, 'ymin': 20.64158911098421, 'xmax': -103.3552683610771, 'ymax': 20.64158911098421}",dining and drinking > restaurant > mexican restaurant > taco restaurant,1
4fa2d8b1e4b0857bbdbcf8e6,Tortilleria Los Androides,20.662059746537558,-103.3546648411055,,Guadalajara,,,,,,MX,2012-05-03,2023-12-21,,33 3618 9777,,,,,,['4bf58dd8d48988d151941735'],['Dining and Drinking > Restaurant > Mexican Restaurant > Taco Restaurant'],b'\x00\x00\x00\x00\x01\xc0Y\xd6\xb2\xd4)e\xb5@4\xa9|\xbf_`z',"{'xmin': -103.3546648411055, 'ymin': 20.662059746537558, 'xmax': -103.3546648411055, 'ymax': 20.662059746537558}",dining and drinking > restaurant > mexican restaurant > taco restaurant,1
57241992498ef3f9d9b7a214,Taquería El Charro,20.622174299793343,-103.25498816669275,Paseo Loma Sur,Tonala,jalisco,45402,,,,MX,2016-04-30,2020-11-24,,,,,,,,['4bf58dd8d48988d151941735'],['Dining and Drinking > Restaurant > Mexican Restaurant > Taco Restaurant'],"b'\x00\x00\x00\x00\x01\xc0Y\xd0Q\xb9\xe33\xfe@4\x9fF\xd0\x9e\x06,'","{'xmin': -103.25498816669275, 'ymin': 20.622174299793343, 'xmax': -103.25498816669275, 'ymax': 20.622174299793343}",dining and drinking > restaurant > mexican restaurant > taco restaurant,1
5251a26b11d257e5dc94c487,Tacos la caprichosa,20.65439619782151,-103.29482909840694,,,,,,,,MX,2013-10-06,2021-08-14,,,,,,,,['4bf58dd8d48988d151941735'],['Dining and Drinking > Restaurant > Mexican Restaurant > Taco Restaurant'],"b""\x00\x00\x00\x00\x01\xc0Y\xd2\xdez\xdd\xe4I@4\xa7\x86\x82\\E'""","{'xmin': -103.29482909840694, 'ymin': 20.65439619782151, 'xmax': -103.29482909840694, 'ymax': 20.65439619782151}",dining and drinking > restaurant > mexican restaurant > taco restaurant,1
5e3f5f2a69e20000080ef52d,Tacos Paco,20.621912650793735,-103.23916916209328,,Tonalá,JAL,45400,,,,MX,2020-02-09,2020-11-30,,,,,,,,['4bf58dd8d48988d1cb941735' '4bf58dd8d48988d151941735'],"['Dining and Drinking > Food Truck'
 'Dining and Drinking > Restaurant > Mexican Restaurant > Taco Restaurant']","b'\x00\x00\x00\x00\x01\xc0Y\xcfN\x8c,Y\xc0@4\x9f5\xaa\xe0 \xb5'","{'xmin': -103.23916916209328, 'ymin': 20.621912650793735, 'xmax': -103.23916916209328, 'ymax': 20.621912650793735}","dining and drinking > food truck, dining and drinking > restaurant > mexican restaurant > taco restaurant",1
538549fb498e1eeb964c1041,Tacos Chespi,20.626256580319552,-103.29669518954867,,,,,,,,MX,2014-05-28,2021-08-11,,,,,,,,['4bf58dd8d48988d151941735'],['Dining and Drinking > Restaurant > Mexican Restaurant > Taco Restaurant'],b'\x00\x00\x00\x00\x01\xc0Y\xd2\xfd\r\xd1\xff~@4\xa0RY\xeb`\x95',"{'xmin': -103.29669518954867, 'ymin': 20.626256580319552, 'xmax': -103.29669518954867, 'ymax': 20.626256580319552}",dining and drinking > restaurant > mexican restaurant > taco restaurant,1
54ffb2b1498e7939c16b74b9,El Palomo,20.68678855895996,-105.22447204589844,24 De Febrero.,Bobadilla,Jalisco,48390,,,,MX,2015-03-11,2021-08-11,,,,,,,,['4bf58dd8d48988d151941735'],['Dining and Drinking > Restaurant > Mexican Restaurant > Taco Restaurant'],b'\x00\x00\x00\x00\x01\xc0ZN]\xc0\x00\x00\x00@4\xaf\xd1`\x00\x00\x00',"{'xmin': -105.22447204589844, 'ymin': 20.68678855895996, 'xmax': -105.22447204589844, 'ymax': 20.68678855895996}",dining and drinking > restaurant > mexican restaurant > taco restaurant,1
51da012d498efc2f402d1493,Taquería El Pastorcito,20.964160723076667,-101.42267843283537,Blvd Emiliano Zapata 154,Silao,Guanajuato,,,,,MX,2013-07-08,2020-11-25,,,,,,,,['4bf58dd8d48988d151941735'],['Dining and Drinking > Restaurant > Mexican Restaurant > Taco Restaurant'],b'\x00\x00\x00\x00\x01\xc0Y[\r)\xd7p(@4\xf6\xd3<\xb5\xb3\xb6',"{'xmin': -101.42267843283537, 'ymin': 20.964160723076667, 'xmax': -101.42267843283537, 'ymax': 20.964160723076667}",dining and drinking > restaurant > mexican restaurant > taco restaurant,1
5599e910498e7530ffd44cb3,Tacos Miguelón,20.689547678181594,-103.44687854548279,,,,,,,,MX,2015-07-06,2021-08-15,,,,,,,,['4bf58dd8d48988d151941735'],['Dining and Drinking > Restaurant > Mexican Restaurant > Taco Restaurant'],b'\x00\x00\x00\x00\x01\xc0Y\xdc\x99\xa8x\x88}@4\xb0\x862V\xd2\x9b',"{'xmin': -103.44687854548279, 'ymin': 20.689547678181594, 'xmax': -103.44687854548279, 'ymax': 20.689547678181594}",dining and drinking > restaurant > mexican restaurant > taco restaurant,1
53289b9f498e8f9d224e8005,Birria,27.967733,-114.032909,,,,,,,,MX,2014-03-18,2021-08-16,,,,,,,,['4bf58dd8d48988d151941735'],['Dining and Drinking > Restaurant > Mexican Restaurant > Taco Restaurant'],b'\x00\x00\x00\x00\x01\xc0\\\x82\x1b.Y\xaf\x9f@;\xf7\xbdY\x92B\x8d',"{'xmin': -114.032909, 'ymin': 27.967733, 'xmax': -114.032909, 'ymax': 27.967733}",dining and drinking > restaurant > mexican restaurant > taco restaurant,1
5cd8bd8446e1b6002c1fec6d,Tacos Fox,20.869578,-105.439022,,Sayulita,NAY,63728,,,,MX,2019-05-13,2020-11-23,,,,,,,,['4bf58dd8d48988d151941735' '4bf58dd8d48988d1c1941735'],"['Dining and Drinking > Restaurant > Mexican Restaurant > Taco Restaurant'
 'Dining and Drinking > Restaurant > Mexican Restaurant']",b'\x00\x00\x00\x00\x01\xc0Z\\\x18\xef\xbb\x0e^@4\xde\x9c\xa9\xefR3',"{'xmin': -105.439022, 'ymin': 20.869578, 'xmax': -105.439022, 'ymax': 20.869578}","dining and drinking > restaurant > mexican restaurant > taco restaurant, dining and drinking > restaurant > mexican restaurant",1
518336bb498e139d93be8364,Taqueria Jorge,21.951028367955498,-102.3424698267318,,,,,,,,MX,2013-05-03,2021-08-17,,,,,,,,['4bf58dd8d48988d151941735'],['Dining and Drinking > Restaurant > Mexican Restaurant > Taco Restaurant'],b'\x00\x00\x00\x00\x01\xc0Y\x95\xeb\x06\x90k\x83@5\xf3v\x98Y\xef\xe7',"{'xmin': -102.3424698267318, 'ymin': 21.951028367955498, 'xmax': -102.3424698267318, 'ymax': 21.951028367955498}",dining and drinking > restaurant > mexican restaurant > taco restaurant,1
6312401353117e07230ef7aa,Tacos Mi-Ch Chorizo,21.127979,-100.84099,Carretera Dolores Hidalgo-san Miguel De Allende,Dolores Hidalgo,Guanajuato,37814,,,,MX,2022-09-02,2022-09-02,,,,,,,,['4bf58dd8d48988d151941735'],['Dining and Drinking > Restaurant > Mexican Restaurant > Taco Restaurant'],b'\x00\x00\x00\x00\x01\xc0Y5\xd2\xc7\xb8\x90\xd6@5 \xc3;S\x93%',"{'xmin': -100.84099, 'ymin': 21.127979, 'xmax': -100.84099, 'ymax': 21.127979}",dining and drinking > restaurant > mexican restaurant > taco restaurant,1
4f405f4be4b08a9e0a66dd2d,Taqueria Don Manuel,20.20457377711002,-103.97117023726442,,Tamazulita,,,,,,MX,2012-02-19,2020-11-22,,,,,,,,['4bf58dd8d48988d151941735'],['Dining and Drinking > Restaurant > Mexican Restaurant > Taco Restaurant'],"b""\x00\x00\x00\x00\x01\xc0Y\xfe'\xa75\xf9\x8d@44^\xf2rN\x86""","{'xmin': -103.97117023726442, 'ymin': 20.20457377711002, 'xmax': -103.97117023726442, 'ymax': 20.20457377711002}",dining and drinking > restaurant > mexican restaurant > taco restaurant,1
5015c5d3e4b05d9dc907d0f1,Humberto's Fish Tacos,31.324176,-113.535075,,,,,,,,MX,2012-07-29,2021-08-15,,,,,,,,['4bf58dd8d48988d151941735'],['Dining and Drinking > Restaurant > Mexican Restaurant > Taco Restaurant'],b'\x00\x00\x00\x00\x01\xc0\\b>\xab6z\x10@?R\xfd2\xc6%\xea',"{'xmin': -113.535075, 'ymin': 31.324176, 'xmax': -113.535075, 'ymax': 31.324176}",dining and drinking > restaurant > mexican restaurant > taco restaurant,1
1904accd72a940db23078262,Taqueria Sahuayo jardines de san ignacio,20.66596,-103.406962,Sta. Rita N°1363-A,Zapopan,Jalisco,45040,,,,MX,2010-11-04,2023-12-06,,,,,,,,['4bf58dd8d48988d151941735'],['Dining and Drinking > Restaurant > Mexican Restaurant > Taco Restaurant'],b'\x00\x00\x00\x00\x01\xc0Y\xda\x0b\xaaX-\xbe@4\xaa|Z\xc4q\xb4',"{'xmin': -103.406962, 'ymin': 20.66596, 'xmax': -103.406962, 'ymax': 20.66596}",dining and drinking > restaurant > mexican restaurant > taco restaurant,1
52683638498e1c426a4c270b,Tacos arturo,20.63902567301669,-103.36227955529722,,,,,,,,MX,2013-10-23,2021-08-16,,,,,,,,['4bf58dd8d48988d151941735'],['Dining and Drinking > Restaurant > Mexican Restaurant > Taco Restaurant'],b'\x00\x00\x00\x00\x01\xc0Y\xd7/\x96\x96\x80\xb4@4\xa3\x97/\xbe\xe9<',"{'xmin': -103.36227955529722, 'ymin': 20.63902567301669, 'xmax': -103.36227955529722, 'ymax': 20.63902567301669}",dining and drinking > restaurant > mexican restaurant > taco restaurant,1
4d1b550d5acb721e3e790db2,Tacos La Pasadita,20.64697100843375,-103.40653850979274,Av. Mariano Otero,Zapopan,JAL,,,,,MX,2010-12-29,2020-11-24,,,,,,,,['4bf58dd8d48988d151941735'],['Dining and Drinking > Restaurant > Mexican Restaurant > Taco Restaurant'],b'\x00\x00\x00\x00\x01\xc0Y\xda\x04\xba\x19\x07\xf6@4\xa5\x9f\xe4Z\xae\xdf',"{'xmin': -103.40653850979274, 'ymin': 20.64697100843375, 'xmax': -103.40653850979274, 'ymax': 20.64697100843375}",dining and drinking > restaurant > mexican restaurant > taco restaurant,1
5a3c6036b8fd9d6ba99a8df1,UNO taco,21.153651,-101.697313,,León,GTO,37160,,,,MX,2017-12-22,2020-11-25,,,,,,,,['4bf58dd8d48988d151941735'],['Dining and Drinking > Restaurant > Mexican Restaurant > Taco Restaurant'],"b""\x00\x00\x00\x00\x01\xc0Yl\xa0\xc6\xb4\x84\xd7@5'U\xac\x03\xffi""","{'xmin': -101.697313, 'ymin': 21.153651, 'xmax': -101.697313, 'ymax': 21.153651}",dining and drinking > restaurant > mexican restaurant > taco restaurant,1
59b004b7fd9d7303878cf858,Tacos De Barbacoa El Pariente,20.687626,-103.36699,ramos Millán,Guadalajara,Jalisco,44600,,,,MX,2017-09-06,2021-08-12,,,,,,,,['4bf58dd8d48988d151941735'],['Dining and Drinking > Restaurant > Mexican Restaurant > Taco Restaurant'],b'\x00\x00\x00\x00\x01\xc0Y\xd7|\xc3\x9f\xfda@4\xb0\x08A\xed\xe1\x1a',"{'xmin': -103.36699, 'ymin': 20.687626, 'xmax': -103.36699, 'ymax': 20.687626}",dining and drinking > restaurant > mexican restaurant > taco restaurant,1
51ae0dc2498e7f7599edfbda,Taqueria San Jeromimo,19.321581,-103.59697,Calle Cobano 105,Cuauhtemoc,Colima,28500,,,,MX,2013-06-04,2020-11-30,,312 328 1465,,,,,,['4bf58dd8d48988d151941735'],['Dining and Drinking > Restaurant > Mexican Restaurant > Taco Restaurant'],b'\x00\x00\x00\x00\x01\xc0Y\xe64\xc1\xa8\xac\\@3RS!\xe6\x03\xd5',"{'xmin': -103.59697, 'ymin': 19.321581, 'xmax': -103.59697, 'ymax': 19.321581}",dining and drinking > restaurant > mexican restaurant > taco restaurant,1
65e9e675a474b54f7f99703c,El Rey Del Taco,22.147383,-100.936587,,San Luis Potosí,S.L.P.,78390,,,,MX,2024-03-07,2024-03-07,,,,,,,,['4bf58dd8d48988d151941735'],['Dining and Drinking > Restaurant > Mexican Restaurant > Taco Restaurant'],b'\x00\x00\x00\x00\x01\xc0Y;\xf1\n\x99\xb6\xf6@6%\xba\xe4l\xfc\x83',"{'xmin': -100.936587, 'ymin': 22.147383, 'xmax': -100.936587, 'ymax': 22.147383}",dining and drinking > restaurant > mexican restaurant > taco restaurant,1
577001e1498efee007a4a7f6,Carnitas GDL,20.679956,-103.28495,Marruecos#1264,Guadalajara,jalisco,44720,,,,MX,2016-06-26,2021-08-10,,,,,,,,['4bf58dd8d48988d151941735'],['Dining and Drinking > Restaurant > Mexican Restaurant > Taco Restaurant'],b'\x00\x00\x00\x00\x01\xc0Y\xd2<\x9e\xec\xbf\xb1@4\xae\x11\x98\xae\xb8\x0f',"{'xmin': -103.28495, 'ymin': 20.679956, 'xmax': -103.28495, 'ymax': 20.679956}",dining and drinking > restaurant > mexican restaurant > taco restaurant,1
50d6586ee4b019a9d8e3f1d9,Taqueria El Avion,21.911057,-101.386567,Vicente Guerrero,Villa de Arriaga,"SLP, México",,,,,MX,2012-12-23,2020-11-23,,,,,,,,['4bf58dd8d48988d151941735'],['Dining and Drinking > Restaurant > Mexican Restaurant > Taco Restaurant'],b'\x00\x00\x00\x00\x01\xc0YX\xbd\x83\x83\xad\x9f@5\xe9;\x08\x13\xca\xb8',"{'xmin': -101.386567, 'ymin': 21.911057, 'xmax': -101.386567, 'ymax': 21.911057}",dining and drinking > restaurant > mexican restaurant > taco restaurant,1
4bd5d7416798ef3bb013648d,Tacos El Guero,20.620172649251572,-103.42185974121094,Andador Tecon 6049-11,Zapopan,Jalisco,,,,,MX,2010-04-26,2020-11-21,,,,,,,,['4bf58dd8d48988d151941735'],['Dining and Drinking > Restaurant > Mexican Restaurant > Taco Restaurant'],b'\x00\x00\x00\x00\x01\xc0Y\xda\xff\xc0\x00\x00\x00@4\x9e\xc3\xa2~h\xc0',"{'xmin': -103.42185974121094, 'ymin': 20.620172649251572, 'xmax': -103.42185974121094, 'ymax': 20.620172649251572}",dining and drinking > restaurant > mexican restaurant > taco restaurant,1
59fd35215f68b91e73f084b0,Taqueria El Buen Camino,20.707084,-103.345477,,Guadalajara,JAL,44220,,,,MX,2017-11-04,2021-08-10,,,,,,,,['4bf58dd8d48988d151941735'],['Dining and Drinking > Restaurant > Mexican Restaurant > Taco Restaurant'],b'\x00\x00\x00\x00\x01\xc0Y\xd6\x1cK\x90!K@4\xb5\x03t\xff\x86]',"{'xmin': -103.345477, 'ymin': 20.707084, 'xmax': -103.345477, 'ymax': 20.707084}",dining and drinking > restaurant > mexican restaurant > taco restaurant,1
52546b8a11d22854b8a068e9,quesadillas las flacas,19.310531616210938,-99.1219711303711,,,,,,,,MX,2013-10-08,2021-08-14,,,,,,,,['4bf58dd8d48988d151941735'],['Dining and Drinking > Restaurant > Mexican Restaurant > Taco Restaurant'],b'\x00\x00\x00\x00\x01\xc0X\xc7\xce`\x00\x00\x00@3O\x7f\x00\x00\x00\x00',"{'xmin': -99.1219711303711, 'ymin': 19.310531616210938, 'xmax': -99.1219711303711, 'ymax': 19.310531616210938}",dining and drinking > restaurant > mexican restaurant > taco restaurant,1
4d71c6545f0037047b2bd5a0,Los Tarascos,16.858736340988397,-99.91534707845486,Calz. Pie de la Cuesta S/n,Acapulco,Guerrero,39580,,,,MX,2011-03-05,2020-11-24,,744 482 1074,http://www.lostarascos.com.mx,,,,,['4bf58dd8d48988d151941735'],['Dining and Drinking > Restaurant > Mexican Restaurant > Taco Restaurant'],b'\x00\x00\x00\x00\x01\xc0X\xfa\x95\x0b\xe9\x9c\xfa@0\xdb\xd6%\x14n\x8f',"{'xmin': -99.91534707845486, 'ymin': 16.858736340988397, 'xmax': -99.91534707845486, 'ymax': 16.858736340988397}",dining and drinking > restaurant > mexican restaurant > taco restaurant,1
5070e20fe4b0548504261bde,Los Mejores Taquitos del Mundo,19.290969674235317,-99.21737960615738,Acanceh,México DF,México DF,,,,,MX,2012-10-07,2020-11-23,,,,,,,,['4bf58dd8d48988d151941735'],['Dining and Drinking > Restaurant > Mexican Restaurant > Taco Restaurant'],b'\x00\x00\x00\x00\x01\xc0X\xcd\xe9\x8c&\xd0\xda@3J|\xfd\x12\xf7\xed',"{'xmin': -99.21737960615738, 'ymin': 19.290969674235317, 'xmax': -99.21737960615738, 'ymax': 19.290969674235317}",dining and drinking > restaurant > mexican restaurant > taco restaurant,1
5c944460aa6c95002c64ce70,Tacos Leyva,15.861637,-97.069041,,Puerto Escondido,OAX,71983,,,,MX,2019-03-22,2020-11-23,,,,,,,,['4bf58dd8d48988d151941735'],['Dining and Drinking > Restaurant > Mexican Restaurant > Taco Restaurant'],b'\x00\x00\x00\x00\x01\xc0XDk*\xf1ER@/\xb9(| \x0c\x0f',"{'xmin': -97.069041, 'ymin': 15.861637, 'xmax': -97.069041, 'ymax': 15.861637}",dining and drinking > restaurant > mexican restaurant > taco restaurant,1
4f6ed20ce4b0dca2e1b421ed,Taqueria King Kong,19.288590324723124,-99.22823258047339,,,,,,,,MX,2012-03-25,2021-08-13,,,,,,,,['4bf58dd8d48988d151941735'],['Dining and Drinking > Restaurant > Mexican Restaurant > Taco Restaurant'],b'\x00\x00\x00\x00\x01\xc0X\xce\x9b\\\xd3@\xf4@3I\xe1\x0e6\xa0\xba',"{'xmin': -99.22823258047339, 'ymin': 19.288590324723124, 'xmax': -99.22823258047339, 'ymax': 19.288590324723124}",dining and drinking > restaurant > mexican restaurant > taco restaurant,1
510cccbee4b0aaab83cd87ac,Tacos Michoacan,18.465653008808193,-97.38954844659214,,,,,,,,MX,2013-02-02,2021-08-11,,,,,,,,['4bf58dd8d48988d151941735'],['Dining and Drinking > Restaurant > Mexican Restaurant > Taco Restaurant'],b'\x00\x00\x00\x00\x01\xc0XX\xee\\\x9b\x94\x89@2w5\t\x1c\x1d}',"{'xmin': -97.38954844659214, 'ymin': 18.465653008808193, 'xmax': -97.38954844659214, 'ymax': 18.465653008808193}",dining and drinking > restaurant > mexican restaurant > taco restaurant,1
59debb21e97dfb6fcedaa2d3,Tacos de Cabeza La Vasco,19.699612,-101.158221,,Morelia,MICH,58240,,,,MX,2017-10-12,2020-11-20,,,,,,,,['4bf58dd8d48988d151941735'],['Dining and Drinking > Restaurant > Mexican Restaurant > Taco Restaurant'],"b'\x00\x00\x00\x00\x01\xc0YJ J\xf9""\x96@3\xb3\x19\xc5\xa3\xe3\x9f'","{'xmin': -101.158221, 'ymin': 19.699612, 'xmax': -101.158221, 'ymax': 19.699612}",dining and drinking > restaurant > mexican restaurant > taco restaurant,1
50a7e035e4b0534d8d56cf2c,"Taquería ""La Poblanita""",19.702805971825768,-101.18683578925594,Av. Madero Ote.,,,,,,,MX,2012-11-17,2021-08-17,,,,,,,,['4bf58dd8d48988d151941735'],['Dining and Drinking > Restaurant > Mexican Restaurant > Taco Restaurant'],b'\x00\x00\x00\x00\x01\xc0YK\xf5\x1e\x19$\xe7@3\xb3\xeb\x17\x98l\xd8',"{'xmin': -101.18683578925594, 'ymin': 19.702805971825768, 'xmax': -101.18683578925594, 'ymax': 19.702805971825768}",dining and drinking > restaurant > mexican restaurant > taco restaurant,1
4fe6855fe4b0176e697ae8d2,Taqueria El Manguito,16.859587374660773,-99.91573127090828,,,,,,,,MX,2012-06-24,2023-12-21,,744 483 9185,,,,,,['4bf58dd8d48988d151941735'],['Dining and Drinking > Restaurant > Mexican Restaurant > Taco Restaurant'],b'\x00\x00\x00\x00\x01\xc0X\xfa\x9bWU\x1ep@0\xdc\r\xeb\x0e8\xf7',"{'xmin': -99.91573127090828, 'ymin': 16.859587374660773, 'xmax': -99.91573127090828, 'ymax': 16.859587374660773}",dining and drinking > restaurant > mexican restaurant > taco restaurant,1
511bc556e4b0b9ae184e0738,Tacos de Canasta,19.6922374,-101.2151911,Manuel Villalongin,Mexico,,,,,,MX,2013-02-13,2021-08-17,,,,,,,,['4bf58dd8d48988d151941735'],['Dining and Drinking > Restaurant > Mexican Restaurant > Taco Restaurant'],b'\x00\x00\x00\x00\x01\xc0YM\xc5\xb0\xe48\xfa@3\xb16xb\x11m',"{'xmin': -101.2151911, 'ymin': 19.6922374, 'xmax': -101.2151911, 'ymax': 19.6922374}",dining and drinking > restaurant > mexican restaurant > taco restaurant,1
53bb57ed498ed8168775ca19,taquitos el tope,16.254545211791992,-92.14126586914062,,,,,,,,MX,2014-07-08,2021-08-13,,,,,,,,['4bf58dd8d48988d151941735'],['Dining and Drinking > Restaurant > Mexican Restaurant > Taco Restaurant'],b'\x00\x00\x00\x00\x01\xc0W\t\n\x80\x00\x00\x00@0A)\xe0\x00\x00\x00',"{'xmin': -92.14126586914062, 'ymin': 16.254545211791992, 'xmax': -92.14126586914062, 'ymax': 16.254545211791992}",dining and drinking > restaurant > mexican restaurant > taco restaurant,1
54e8f158498e4b31608b0582,Hans Carnitas,19.276851654052734,-99.23530578613281,Kantunil,Tlalpan,DF,14100,,,,MX,2015-02-21,2020-11-21,,,,,,,,['4bf58dd8d48988d151941735'],['Dining and Drinking > Restaurant > Mexican Restaurant > Taco Restaurant'],b'\x00\x00\x00\x00\x01\xc0X\xcf\x0f@\x00\x00\x00@3F\xdf\xc0\x00\x00\x00',"{'xmin': -99.23530578613281, 'ymin': 19.276851654052734, 'xmax': -99.23530578613281, 'ymax': 19.276851654052734}",dining and drinking > restaurant > mexican restaurant > taco restaurant,1
5a078dad0802d42aa2fa75df,Loncheria Chema Los Pericos,19.973055,-102.27625,"tabachin 102, las fuentes",Zamora,Michoacán,59699,,,,MX,2017-11-11,2021-06-28,,,,,,,,['4bf58dd8d48988d151941735' '56aa371be4b08b9a8d57350b'],"['Dining and Drinking > Restaurant > Mexican Restaurant > Taco Restaurant'
 'Dining and Drinking > Food Stand']",b'\x00\x00\x00\x00\x01\xc0Y\x91\xae\x14z\xe1H@3\xf9\x1a!\xea5\x93',"{'xmin': -102.27625, 'ymin': 19.973055, 'xmax': -102.27625, 'ymax': 19.973055}","dining and drinking > restaurant > mexican restaurant > taco restaurant, dining and drinking > food stand",1
583a49c3016217169f5b195f,Tacos de Beto,19.319826,-99.15216,,Ciudad de México,Ciudad de México,,,,,MX,2016-11-27,2020-11-21,,,,,,,,['4bf58dd8d48988d151941735'],['Dining and Drinking > Restaurant > Mexican Restaurant > Taco Restaurant'],b'\x00\x00\x00\x00\x01\xc0X\xc9\xbc\xfdK\xf0\x99@3Q\xe0\x1d\xe2i\x16',"{'xmin': -99.15216, 'ymin': 19.319826, 'xmax': -99.15216, 'ymax': 19.319826}",dining and drinking > restaurant > mexican restaurant > taco restaurant,1
56d870c3cd1054a0b3b121a3,El Rey de los Revolcados,19.278748244406817,-99.67345899935395,Venustiano Carranza #2422,,Toluca,,,,,MX,2016-03-03,2021-08-11,,722 239 8592,,,,,,['4bf58dd8d48988d151941735'],['Dining and Drinking > Restaurant > Mexican Restaurant > Taco Restaurant'],b'\x00\x00\x00\x00\x01\xc0X\xeb\x19\xf3\xc6[\x04@3G\\\x0b\x81\x8bq',"{'xmin': -99.67345899935395, 'ymin': 19.278748244406817, 'xmax': -99.67345899935395, 'ymax': 19.278748244406817}",dining and drinking > restaurant > mexican restaurant > taco restaurant,1
4eda5cc3b8f7fcd040391a46,Libertad y Camacho (Tacos y Consomé,18.93634015449154,-99.24561666142344,,,,,,,,MX,2011-12-03,2021-08-13,,,,,,,,['4bf58dd8d48988d151941735'],['Dining and Drinking > Restaurant > Mexican Restaurant > Taco Restaurant'],b'\x00\x00\x00\x00\x01\xc0X\xcf\xb8.\xf2\n\xa6@2\xef\xb3\xfd\x05y\x06',"{'xmin': -99.24561666142344, 'ymin': 18.93634015449154, 'xmax': -99.24561666142344, 'ymax': 18.93634015449154}",dining and drinking > restaurant > mexican restaurant > taco restaurant,1
4ff8d03ce4b02ca33cea8c31,Taqueria El Pinito II,18.55811014883444,-99.59877544827542,,,,,,,,MX,2012-07-08,2021-08-14,,,,,,,,['4bf58dd8d48988d151941735'],['Dining and Drinking > Restaurant > Mexican Restaurant > Taco Restaurant'],b'\x00\x00\x00\x00\x01\xc0X\xe6RVA\xffg@2\x8e\xe0N\x84\xcfC',"{'xmin': -99.59877544827542, 'ymin': 18.55811014883444, 'xmax': -99.59877544827542, 'ymax': 18.55811014883444}",dining and drinking > restaurant > mexican restaurant > taco restaurant,1
50148d96e4b01be622915412,tacos Don Roger,19.295036187813288,-99.15612596250759,,,,,,,,MX,2012-07-29,2021-08-16,,,,,,,,['4bf58dd8d48988d151941735'],['Dining and Drinking > Restaurant > Mexican Restaurant > Taco Restaurant'],b'\x00\x00\x00\x00\x01\xc0X\xc9\xfd\xf7\xbf\xc1\xb4@3K\x87}\xd9\xcbj',"{'xmin': -99.15612596250759, 'ymin': 19.295036187813288, 'xmax': -99.15612596250759, 'ymax': 19.295036187813288}",dining and drinking > restaurant > mexican restaurant > taco restaurant,1
51526fbae4b0ba9d0add624d,Quesadillas Matamoros,15.139250106166463,-92.47005208562751,,,,,,,,MX,2013-03-27,2021-08-14,,,,,,,,['4bf58dd8d48988d151941735'],['Dining and Drinking > Restaurant > Mexican Restaurant > Taco Restaurant'],b'\x00\x00\x00\x00\x01\xc0W\x1e\x15UW\xcb\xf4@.GK\xca7\xe6#',"{'xmin': -92.47005208562751, 'ymin': 15.139250106166463, 'xmax': -92.47005208562751, 'ymax': 15.139250106166463}",dining and drinking > restaurant > mexican restaurant > taco restaurant,1
56d4ed85498ef67b4a30a9d8,Tacos Lalo's,19.274563691936383,-99.46601095075667,,,,,,,,MX,2016-03-01,2021-08-11,,,,,,,,['4bf58dd8d48988d151941735'],['Dining and Drinking > Restaurant > Mexican Restaurant > Taco Restaurant'],b'\x00\x00\x00\x00\x01\xc0X\xdd\xd3\x1f\x98D\xfa@3FI\xce]\x89)',"{'xmin': -99.46601095075667, 'ymin': 19.274563691936383, 'xmax': -99.46601095075667, 'ymax': 19.274563691936383}",dining and drinking > restaurant > mexican restaurant > taco restaurant,1
507b7b5ce4b0ce42c783b24a,Tacos de la 5,19.300042114039353,-99.17141475277509,,,,,,,,MX,2012-10-15,2021-08-13,,,,,,,,['4bf58dd8d48988d151941735'],['Dining and Drinking > Restaurant > Mexican Restaurant > Taco Restaurant'],b'\x00\x00\x00\x00\x01\xc0X\xca\xf8u\x95N$@3L\xcf\x8f[8\xc3',"{'xmin': -99.17141475277509, 'ymin': 19.300042114039353, 'xmax': -99.17141475277509, 'ymax': 19.300042114039353}",dining and drinking > restaurant > mexican restaurant > taco restaurant,1
4ecd3ae977c8448cd64e8cfe,Tacos Del Chueco,19.158701749782715,-96.1108816218195,,Boca del Río,Veracruz-Llave,,,,,MX,2011-11-23,2020-11-24,,,,,,,,['4bf58dd8d48988d151941735'],['Dining and Drinking > Restaurant > Mexican Restaurant > Taco Restaurant'],"b'\x00\x00\x00\x00\x01\xc0X\x07\x18\xaf:\xdcM@3(\xa0\xad\x89""~'","{'xmin': -96.1108816218195, 'ymin': 19.158701749782715, 'xmax': -96.1108816218195, 'ymax': 19.158701749782715}",dining and drinking > restaurant > mexican restaurant > taco restaurant,1
500233cee4b023056dbd5033,Antojitos de Lore,19.44329071044922,-96.40901184082031,,,,,,,,MX,2012-07-15,2021-08-15,,,,,,,,['4bf58dd8d48988d151941735'],['Dining and Drinking > Restaurant > Mexican Restaurant > Taco Restaurant'],b'\x00\x00\x00\x00\x01\xc0X\x1a-@\x00\x00\x00@3q{\x80\x00\x00\x00',"{'xmin': -96.40901184082031, 'ymin': 19.44329071044922, 'xmax': -96.40901184082031, 'ymax': 19.44329071044922}",dining and drinking > restaurant > mexican restaurant > taco restaurant,1
520fb06311d23ba73098e82e,Carnitas Benny,18.842673,-99.224132,,,,,,,,MX,2013-08-17,2021-08-10,,,,,,,,['4bf58dd8d48988d151941735'],['Dining and Drinking > Restaurant > Mexican Restaurant > Taco Restaurant'],"b'\x00\x00\x00\x00\x01\xc0X\xceX-\xbe\x7f,@2\xd7\xb9j\xf08\xe3'","{'xmin': -99.224132, 'ymin': 18.842673, 'xmax': -99.224132, 'ymax': 18.842673}",dining and drinking > restaurant > mexican restaurant > taco restaurant,1
4de28d29d22d2a4ecdc89f60,El reycito,19.329286698998818,-99.15761947631836,Rey Moctezuma 21,Mexico City,Distrito Federal,04300,,,,MX,2011-05-29,2020-11-22,,,,,,,rey_cito,['4bf58dd8d48988d1c1941735' '4bf58dd8d48988d151941735'],"['Dining and Drinking > Restaurant > Mexican Restaurant'
 'Dining and Drinking > Restaurant > Mexican Restaurant > Taco Restaurant']","b'\x00\x00\x00\x00\x01\xc0X\xca\x16p\x00\x00\x00@3TL""\x135-'","{'xmin': -99.15761947631836, 'ymin': 19.329286698998818, 'xmax': -99.15761947631836, 'ymax': 19.329286698998818}","dining and drinking > restaurant > mexican restaurant, dining and drinking > restaurant > mexican restaurant > taco restaurant",1
518f0a64498efdc64dd98cb6,Taqueria El Jarocho,16.39479998533835,-93.29160954920283,,,,,,,,MX,2013-05-12,2020-11-30,,,,,,,,['4bf58dd8d48988d151941735'],['Dining and Drinking > Restaurant > Mexican Restaurant > Taco Restaurant'],b'\x00\x00\x00\x00\x01\xc0WR\xa9\xbb\x19A\xc2@0e\x11\x9c\xa1}O',"{'xmin': -93.29160954920283, 'ymin': 16.39479998533835, 'xmax': -93.29160954920283, 'ymax': 16.39479998533835}",dining and drinking > restaurant > mexican restaurant > taco restaurant,1
52e9ef6211d2cfbf06851f42,Riquísimos Mixiotes,19.302571103698288,-99.1406495897713,Coyoacan,Mexico D.F,D.F,04850,,,,MX,2014-01-30,2020-11-22,,55 1937 7834,,,,,,['4bf58dd8d48988d151941735'],['Dining and Drinking > Restaurant > Mexican Restaurant > Taco Restaurant'],b'\x00\x00\x00\x00\x01\xc0X\xc9\x00g#\x10\xde@3MuL\xc3\x19I',"{'xmin': -99.1406495897713, 'ymin': 19.302571103698288, 'xmax': -99.1406495897713, 'ymax': 19.302571103698288}",dining and drinking > restaurant > mexican restaurant > taco restaurant,1
4f4a75e0e4b007d390ca1665,Barbacoa,18.95645180672474,-99.23106235006871,,,,,,,,MX,2012-02-26,2021-08-16,,,,,,,,['4bf58dd8d48988d151941735'],['Dining and Drinking > Restaurant > Mexican Restaurant > Taco Restaurant'],b'\x00\x00\x00\x00\x01\xc0X\xce\xc9\xb9\xbd8s@2\xf4\xda\x06\x8e\x157',"{'xmin': -99.23106235006871, 'ymin': 18.95645180672474, 'xmax': -99.23106235006871, 'ymax': 18.95645180672474}",dining and drinking > restaurant > mexican restaurant > taco restaurant,1
50d136a2e4b001026fcb8580,El Tizón sureño (central),18.458499408531786,-97.38023360598308,5 Oriente Y 1 Sur,,,,,,,MX,2012-12-19,2021-08-16,,,,,,,,['4bf58dd8d48988d151941735'],['Dining and Drinking > Restaurant > Mexican Restaurant > Taco Restaurant'],b'\x00\x00\x00\x00\x01\xc0XXU\xbfU\xa2f@2u`7\x9c\xe1\x1e',"{'xmin': -97.38023360598308, 'ymin': 18.458499408531786, 'xmax': -97.38023360598308, 'ymax': 18.458499408531786}",dining and drinking > restaurant > mexican restaurant > taco restaurant,1
55307140498e6ce7cf31d112,"Tacos ""Lee Charee""",19.208322214823202,-96.19175626569574,Río Papaluapan,Río Medio,,,,,,MX,2015-04-17,2021-12-15,,,,,,,,['4bf58dd8d48988d151941735'],['Dining and Drinking > Restaurant > Mexican Restaurant > Taco Restaurant'],b'\x00\x00\x00\x00\x01\xc0X\x0cE\xbc\x12}\xd8@35T\x9a\xcb\xb2)',"{'xmin': -96.19175626569574, 'ymin': 19.208322214823202, 'xmax': -96.19175626569574, 'ymax': 19.208322214823202}",dining and drinking > restaurant > mexican restaurant > taco restaurant,1
4e7b295d1838baac2b1b3e25,El Rincón Tarasco,19.30047496100392,-99.64344372743585,Santos Degollado,Toluca,Estado de méxico,,,,,MX,2011-09-22,2020-11-21,,722 214 2725,,,,,miguelflores_1,['4bf58dd8d48988d151941735' '4bf58dd8d48988d1c1941735'],"['Dining and Drinking > Restaurant > Mexican Restaurant > Taco Restaurant'
 'Dining and Drinking > Restaurant > Mexican Restaurant']",b'\x00\x00\x00\x00\x01\xc0X\xe9..\x99\x89\xd0@3L\xeb\xedR\xc7Z',"{'xmin': -99.64344372743585, 'ymin': 19.30047496100392, 'xmax': -99.64344372743585, 'ymax': 19.30047496100392}","dining and drinking > restaurant > mexican restaurant > taco restaurant, dining and drinking > restaurant > mexican restaurant",1
541aeeb7498eab3a8a78da8b,Taqueria el güero americanista,16.847946166992188,-99.90904235839844,,,,,,,,MX,2014-09-18,2021-08-13,,,,,,,,['4bf58dd8d48988d151941735'],['Dining and Drinking > Restaurant > Mexican Restaurant > Taco Restaurant'],b'\x00\x00\x00\x00\x01\xc0X\xfa-\xc0\x00\x00\x00@0\xd9\x13\x00\x00\x00\x00',"{'xmin': -99.90904235839844, 'ymin': 16.847946166992188, 'xmax': -99.90904235839844, 'ymax': 16.847946166992188}",dining and drinking > restaurant > mexican restaurant > taco restaurant,1
588f8b440319b8649b5f3570,Tacos de Guisado de la Junta,16.858122,-99.89321,,,,,,,,MX,2017-01-30,2021-08-12,,,,,,,,['4bf58dd8d48988d151941735'],['Dining and Drinking > Restaurant > Mexican Restaurant > Taco Restaurant'],b'\x00\x00\x00\x00\x01\xc0X\xf9*ZF\x9ds@0\xdb\xad\xe2%\xfaf',"{'xmin': -99.89321, 'ymin': 16.858122, 'xmax': -99.89321, 'ymax': 16.858122}",dining and drinking > restaurant > mexican restaurant > taco restaurant,1
4e8529c4b8f76180e18d481e,Tacos El Chino,17.282151098623395,-97.67012706030049,,Heroica Ciudad de Tlaxiaco,Oaxaca,,,,,MX,2011-09-30,2020-11-21,,,,,,,,['4bf58dd8d48988d151941735'],['Dining and Drinking > Restaurant > Mexican Restaurant > Taco Restaurant'],b'\x00\x00\x00\x00\x01\xc0Xj\xe3\\\x9c\t\xef@1H;\r\xed\x1e2',"{'xmin': -97.67012706030049, 'ymin': 17.282151098623395, 'xmax': -97.67012706030049, 'ymax': 17.282151098623395}",dining and drinking > restaurant > mexican restaurant > taco restaurant,1
4fb1c3d4e4b0c76a7a88f0a0,"Taqueria ""La Güera Lega""",18.303977657978677,-95.84043976387107,,,,,,,,MX,2012-05-15,2021-08-10,,,,,,,,['4bf58dd8d48988d151941735'],['Dining and Drinking > Restaurant > Mexican Restaurant > Taco Restaurant'],b'\x00\x00\x00\x00\x01\xc0W\xf5\xc9\xc3\xdd\x05d@2M\xd1z\xd3\xbb\xac',"{'xmin': -95.84043976387107, 'ymin': 18.303977657978677, 'xmax': -95.84043976387107, 'ymax': 18.303977657978677}",dining and drinking > restaurant > mexican restaurant > taco restaurant,1
529b73ab11d299f4652f7cac,Tacos De Canasta Emmanuel,18.344613,-99.541223,,,,,,,,MX,2012-11-12,2021-12-18,,,,,,,,['4bf58dd8d48988d151941735'],['Dining and Drinking > Restaurant > Mexican Restaurant > Taco Restaurant'],b'\x00\x00\x00\x00\x01\xc0X\xe2\xa3e\xcb5\xf4@2X8\x8e\xbc\xc6\xc5',"{'xmin': -99.541223, 'ymin': 18.344613, 'xmax': -99.541223, 'ymax': 18.344613}",dining and drinking > restaurant > mexican restaurant > taco restaurant,1
50f072d5e4b00e6c4a3a602e,Tacos de canasta 'Kevin',19.335256576538086,-99.18052673339844,,,,,,,,MX,2013-01-11,2021-08-17,,,,,,,,['4bf58dd8d48988d151941735'],['Dining and Drinking > Restaurant > Mexican Restaurant > Taco Restaurant'],b'\x00\x00\x00\x00\x01\xc0X\xcb\x8d\xc0\x00\x00\x00@3U\xd3`\x00\x00\x00',"{'xmin': -99.18052673339844, 'ymin': 19.335256576538086, 'xmax': -99.18052673339844, 'ymax': 19.335256576538086}",dining and drinking > restaurant > mexican restaurant > taco restaurant,1
5405f37c498e2fef35884a10,Birriería Lalo y Rubio,19.70279859106304,-101.22728954094848,,,,,,,,MX,2014-09-02,2021-08-14,,,,,,,,['4bf58dd8d48988d151941735'],['Dining and Drinking > Restaurant > Mexican Restaurant > Taco Restaurant'],b'\x00\x00\x00\x00\x01\xc0YN\x8b\xe9nF.@3\xb3\xea\x9b\xc4Jg',"{'xmin': -101.22728954094848, 'ymin': 19.70279859106304, 'xmax': -101.22728954094848, 'ymax': 19.70279859106304}",dining and drinking > restaurant > mexican restaurant > taco restaurant,1
52e48ab8498e7a4757b8cd95,Taquitos Acoxpa,19.292374973803973,-99.1247736104042,Acoxpa,,,,,,,MX,2014-01-26,2021-08-12,,,,,,,,['4bf58dd8d48988d151941735'],['Dining and Drinking > Restaurant > Mexican Restaurant > Taco Restaurant'],"b'\x00\x00\x00\x00\x01\xc0X\xc7\xfcJt\x05\xc1@3J\xd9\x16\x16\xa8,'","{'xmin': -99.1247736104042, 'ymin': 19.292374973803973, 'xmax': -99.1247736104042, 'ymax': 19.292374973803973}",dining and drinking > restaurant > mexican restaurant > taco restaurant,1
4f28c283e4b0c8cf0d864cad,Los Arbolitos,19.32951726030624,-99.16227248430201,,,,,,,,MX,2012-02-01,2021-08-15,,,,,,,,['4bf58dd8d48988d151941735'],['Dining and Drinking > Restaurant > Mexican Restaurant > Taco Restaurant'],b'\x00\x00\x00\x00\x01\xc0X\xcab\xac!G\x8a@3T[>@{\x9a',"{'xmin': -99.16227248430201, 'ymin': 19.32951726030624, 'xmax': -99.16227248430201, 'ymax': 19.32951726030624}",dining and drinking > restaurant > mexican restaurant > taco restaurant,1
501d398ce4b0063e037795bb,Tacos de barbacoa,19.32267734257562,-99.07710120293869,,,,,,,,MX,2012-08-04,2021-08-16,,,,,,,,['4bf58dd8d48988d151941735'],['Dining and Drinking > Restaurant > Mexican Restaurant > Taco Restaurant'],b'\x00\x00\x00\x00\x01\xc0X\xc4\xef9\xe2F\xa7@3R\x9a\xfby\x85\xc1',"{'xmin': -99.07710120293869, 'ymin': 19.32267734257562, 'xmax': -99.07710120293869, 'ymax': 19.32267734257562}",dining and drinking > restaurant > mexican restaurant > taco restaurant,1
5ceeb8f0cabcff002c7046ef,Acorazados Andy,18.930771,-99.23285,,Cuernavaca,MOR,62280,,,,MX,2019-05-29,2020-11-25,,,,,,,,['4bf58dd8d48988d151941735'],['Dining and Drinking > Restaurant > Mexican Restaurant > Taco Restaurant'],b'\x00\x00\x00\x00\x01\xc0X\xce\xe7\x03\xaf\xb7\xe9@2\xeeG\x02\x1d\x10\xb2',"{'xmin': -99.23285, 'ymin': 18.930771, 'xmax': -99.23285, 'ymax': 18.930771}",dining and drinking > restaurant > mexican restaurant > taco restaurant,1
4ef245dbf7905f06f0046986,"Carnitas ""junior's Land""",19.265170576744303,-99.1679707362967,,,,,,,,MX,2011-12-21,2021-08-16,,,,,,,,['4bf58dd8d48988d151941735'],['Dining and Drinking > Restaurant > Mexican Restaurant > Taco Restaurant'],b'\x00\x00\x00\x00\x01\xc0X\xca\xc0\x08T\xc5\x14@3C\xe28\n\xfan',"{'xmin': -99.1679707362967, 'ymin': 19.265170576744303, 'xmax': -99.1679707362967, 'ymax': 19.265170576744303}",dining and drinking > restaurant > mexican restaurant > taco restaurant,1
5a3f21262619ee7032880a94,Tacos los Primos,20.54339,-103.466465,,Tlajomulco de Zúñiga,JAL,45640,,,,MX,2017-12-24,2020-11-25,,,,,,,,['4bf58dd8d48988d151941735'],['Dining and Drinking > Restaurant > Mexican Restaurant > Taco Restaurant'],b'\x00\x00\x00\x00\x01\xc0Y\xdd\xda\x90\x03\xee\xa2@4\x8b\x1b\x9bf\xf93',"{'xmin': -103.466465, 'ymin': 20.54339, 'xmax': -103.466465, 'ymax': 20.54339}",dining and drinking > restaurant > mexican restaurant > taco restaurant,1
544a76fd498e767f773a961f,La bendicion de dios,19.183332443237305,-96.13333129882812,Medano Del Perro,,,,,,,MX,2014-10-24,2021-08-17,,,,,,,,['4bf58dd8d48988d151941735'],['Dining and Drinking > Restaurant > Mexican Restaurant > Taco Restaurant'],b'\x00\x00\x00\x00\x01\xc0X\x08\x88\x80\x00\x00\x00@3.\xee\xe0\x00\x00\x00',"{'xmin': -96.13333129882812, 'ymin': 19.183332443237305, 'xmax': -96.13333129882812, 'ymax': 19.183332443237305}",dining and drinking > restaurant > mexican restaurant > taco restaurant,1
4fbc5db1e4b0c3466b6a1177,Tacondoy,17.064684,-96.696513,,,,,,,,MX,2012-05-23,2021-08-13,,,,,,,,['4bf58dd8d48988d151941735'],['Dining and Drinking > Restaurant > Mexican Restaurant > Taco Restaurant'],"b'\x00\x00\x00\x00\x01\xc0X,\x93\xabC\x0fI@1\x10\x8f!p\x93\x10'","{'xmin': -96.696513, 'ymin': 17.064684, 'xmax': -96.696513, 'ymax': 17.064684}",dining and drinking > restaurant > mexican restaurant > taco restaurant,1
4ec6a70c6da1d1092d924753,Los de Costilla,19.29783830656585,-99.09942626953125,,,,,,,,MX,2011-11-18,2021-08-11,2014-10-04,,,,,,,['4bf58dd8d48988d151941735'],['Dining and Drinking > Restaurant > Mexican Restaurant > Taco Restaurant'],b'\x00\x00\x00\x00\x01\xc0X\xc6]\x00\x00\x00\x00@3L?!\x9a2D',"{'xmin': -99.09942626953125, 'ymin': 19.29783830656585, 'xmax': -99.09942626953125, 'ymax': 19.29783830656585}",dining and drinking > restaurant > mexican restaurant > taco restaurant,1
51528c9fe4b088768ac3542e,Tacos Don Mocos,19.7094,-101.1671,Av Madero esquina Libramiento,Morelia,Michoacan,,,,,MX,2013-03-27,2020-11-21,,,,,,,,['4bf58dd8d48988d151941735'],['Dining and Drinking > Restaurant > Mexican Restaurant > Taco Restaurant'],b'\x00\x00\x00\x00\x01\xc0YJ\xb1\xc42\xcaX@3\xb5\x9b=\x07\xc8K',"{'xmin': -101.1671, 'ymin': 19.7094, 'xmax': -101.1671, 'ymax': 19.7094}",dining and drinking > restaurant > mexican restaurant > taco restaurant,1
5acc1f840802d432aef359ae,Tacos El Gorrudo,19.331067,-102.36878,,Tancítaro,MICH,60460,,,,MX,2018-04-10,2020-11-30,,,,,,,,['4bf58dd8d48988d151941735'],['Dining and Drinking > Restaurant > Mexican Restaurant > Taco Restaurant'],b'\x00\x00\x00\x00\x01\xc0Y\x97\x9a\x17m\xda\xcf@3T\xc0\xce\x91\xc8\xeb',"{'xmin': -102.36878, 'ymin': 19.331067, 'xmax': -102.36878, 'ymax': 19.331067}",dining and drinking > restaurant > mexican restaurant > taco restaurant,1
5e13c9e1ddf0ef0008b6b775,Tacos De Mariscos Y Pescado Ruilac,16.173946,-95.19804,,Salina Cruz,Oaxaca,70660,,,,MX,2020-01-06,2020-11-30,,,,,,,,['4bf58dd8d48988d151941735'],['Dining and Drinking > Restaurant > Mexican Restaurant > Taco Restaurant'],"b'\x00\x00\x00\x00\x01\xc0W\xcc\xac\xaf\xf6\xd31@0,\x87\xb9\x9dE '","{'xmin': -95.19804, 'ymin': 16.173946, 'xmax': -95.19804, 'ymax': 16.173946}",dining and drinking > restaurant > mexican restaurant > taco restaurant,1
5a329458029a553305b605a6,Tacos González,18.359368,-99.541468,,Iguala de la Independencia,GRO,40025,,,,MX,2017-12-14,2023-12-21,,733 333 0190,,,,,,['4bf58dd8d48988d151941735'],['Dining and Drinking > Restaurant > Mexican Restaurant > Taco Restaurant'],"b""\x00\x00\x00\x00\x01\xc0X\xe2\xa7ie\xf5'@2[\xff\x8a\x8f:\x9b""","{'xmin': -99.541468, 'ymin': 18.359368, 'xmax': -99.541468, 'ymax': 18.359368}",dining and drinking > restaurant > mexican restaurant > taco restaurant,1
56230d9b498e62630592d35f,Antojitos Doña Galdy,19.36436200247792,-96.65578620322236,Miguel Lerdo,Villa Emiliano Zapata Carrizal,veracruz,91630,,,,MX,2015-10-18,2020-11-25,,,,,,,,['4bf58dd8d48988d151941735'],['Dining and Drinking > Restaurant > Mexican Restaurant > Taco Restaurant'],b'\x00\x00\x00\x00\x01\xc0X)\xf8f\xb2\x00\x84@3]F\xd4\x04\x8c9',"{'xmin': -96.65578620322236, 'ymin': 19.36436200247792, 'xmax': -96.65578620322236, 'ymax': 19.36436200247792}",dining and drinking > restaurant > mexican restaurant > taco restaurant,1
57322144498e879cb3ae5543,Antojitos Mexicanos Emy,19.0303,-99.199486,,,,,,,,MX,2016-05-10,2021-08-11,,,,,,,,['4bf58dd8d48988d151941735'],['Dining and Drinking > Restaurant > Mexican Restaurant > Taco Restaurant'],b'\x00\x00\x00\x00\x01\xc0X\xcc\xc4`\xed\x80\xa1@3\x07\xc1\xbd\xa5\x11\x9d',"{'xmin': -99.199486, 'ymin': 19.0303, 'xmax': -99.199486, 'ymax': 19.0303}",dining and drinking > restaurant > mexican restaurant > taco restaurant,1
51940204498e4b83b0a69618,Taqueria Tio Remy,18.905201340715166,-97.63779262324829,Morelos,Palmarito Tochapan,,,,,,MX,2013-05-15,2020-11-23,,,,,,,,['4bf58dd8d48988d151941735'],['Dining and Drinking > Restaurant > Mexican Restaurant > Taco Restaurant'],b'\x00\x00\x00\x00\x01\xc0Xh\xd1\x98&\x9e\xd0@2\xe7\xbbFj\xaa\xc0',"{'xmin': -97.63779262324829, 'ymin': 18.905201340715166, 'xmax': -97.63779262324829, 'ymax': 18.905201340715166}",dining and drinking > restaurant > mexican restaurant > taco restaurant,1
4e0614a1483b98d41707adc0,Taquerias Plaza Mexico,18.93715437602123,-99.19508352071308,,Cuernavaca,Morelos,,,,,MX,2011-06-25,2020-11-23,,,,,,,,['4bf58dd8d48988d151941735'],['Dining and Drinking > Restaurant > Mexican Restaurant > Taco Restaurant'],b'\x00\x00\x00\x00\x01\xc0X\xcc|?\x97\\\xe1@2\xef\xe9YdP\x81',"{'xmin': -99.19508352071308, 'ymin': 18.93715437602123, 'xmax': -99.19508352071308, 'ymax': 18.93715437602123}",dining and drinking > restaurant > mexican restaurant > taco restaurant,1
4ddabc628877f11510379e58,La Fuente del Sabor,19.318467778348435,-99.22468333483243,"Tihuatlan #43, San Jerónimo Aculco",Mexico City,Distrito Federal,,,,,MX,2011-05-23,2020-11-22,,,,,,,,['4bf58dd8d48988d151941735'],['Dining and Drinking > Restaurant > Mexican Restaurant > Taco Restaurant'],b'\x00\x00\x00\x00\x01\xc0X\xcea65\xc3\xf0@3Q\x87\x1a\xb4\xd6\x18',"{'xmin': -99.22468333483243, 'ymin': 19.318467778348435, 'xmax': -99.22468333483243, 'ymax': 19.318467778348435}",dining and drinking > restaurant > mexican restaurant > taco restaurant,1
512d8fefe4b032f86428f8b6,Taquería México,19.335653560516487,-99.16484043200273,Eje 10 Sur #338,Ciudad de México,"México, D. F.",04369,,,,MX,2013-02-27,2020-11-24,,,,,,,,['4bf58dd8d48988d151941735'],['Dining and Drinking > Restaurant > Mexican Restaurant > Taco Restaurant'],b'\x00\x00\x00\x00\x01\xc0X\xca\x8c\xbe\xe2 \xa8@3U\xeddI4K',"{'xmin': -99.16484043200273, 'ymin': 19.335653560516487, 'xmax': -99.16484043200273, 'ymax': 19.335653560516487}",dining and drinking > restaurant > mexican restaurant > taco restaurant,1
4e4899ced164155c0e023d21,Taqueria El Pastorcito,17.644434738102312,-101.55474088694287,,Ixtapa,Zihuatanejo,,,,,MX,2011-08-15,2020-11-22,,,,,,,,['4bf58dd8d48988d151941735'],['Dining and Drinking > Restaurant > Mexican Restaurant > Taco Restaurant'],b'\x00\x00\x00\x00\x01\xc0Yc\x80\xdf\xeb\xcb\x1d@1\xa4\xf9\xac\xcc\x8eF',"{'xmin': -101.55474088694287, 'ymin': 17.644434738102312, 'xmax': -101.55474088694287, 'ymax': 17.644434738102312}",dining and drinking > restaurant > mexican restaurant > taco restaurant,1
4f7d1007e4b07071b537e3dc,Taqueria La Torres,19.27538011370317,-99.2115535661271,Calle 7,México,D.F.,14250,,,,MX,2012-04-05,2020-11-23,,,,,,,,['4bf58dd8d48988d151941735'],['Dining and Drinking > Restaurant > Mexican Restaurant > Taco Restaurant'],b'\x00\x00\x00\x00\x01\xc0X\xcd\x8a\x17\xf7\xf7\x8e@3F\x7fO\xa6R\xea',"{'xmin': -99.2115535661271, 'ymin': 19.27538011370317, 'xmax': -99.2115535661271, 'ymax': 19.27538011370317}",dining and drinking > restaurant > mexican restaurant > taco restaurant,1
57a2a9d6498e5c66eeaabc07,Tortas y Tacos Juquilita,19.071858,-97.042813,,,,,,,,MX,2016-08-04,2021-08-11,,,,,,,,['4bf58dd8d48988d151941735'],['Dining and Drinking > Restaurant > Mexican Restaurant > Taco Restaurant'],b'\x00\x00\x00\x00\x01\xc0XB\xbdr\xbc\xb5\xfe@3\x12eI/\xf4\xba',"{'xmin': -97.042813, 'ymin': 19.071858, 'xmax': -97.042813, 'ymax': 19.071858}",dining and drinking > restaurant > mexican restaurant > taco restaurant,1
53f1569f498eaaac485180e1,tacos dorados Cesar's,17.548628,-99.499361,,,,,,,,MX,2014-08-18,2021-08-12,,,,,,,,['4bf58dd8d48988d151941735'],['Dining and Drinking > Restaurant > Mexican Restaurant > Taco Restaurant'],b'\x00\x00\x00\x00\x01\xc0X\xdf\xf5\x87\xd6\xf9v@1\x8cr\xe2u\xab~',"{'xmin': -99.499361, 'ymin': 17.548628, 'xmax': -99.499361, 'ymax': 17.548628}",dining and drinking > restaurant > mexican restaurant > taco restaurant,1
64653041de844359cb1decbd,Fonda Aeropuerto,19.841064,-101.023976,,El Alto de Avilés,Michoacán,58927,,,,MX,2023-05-17,2023-05-17,,,,,,,,['4bf58dd8d48988d151941735'],['Dining and Drinking > Restaurant > Mexican Restaurant > Taco Restaurant'],b'\x00\x00\x00\x00\x01\xc0YA\x88\xd2\xa1\xf8\xe4@3\xd7O\xf8e\xd7\xcb',"{'xmin': -101.023976, 'ymin': 19.841064, 'xmax': -101.023976, 'ymax': 19.841064}",dining and drinking > restaurant > mexican restaurant > taco restaurant,1
52859b5f11d2196af5c0645b,Tacos Del Parquesito,18.77166689198662,-95.76471371014111,,,,,,,,MX,2013-11-15,2021-08-12,,,,,,,,['4bf58dd8d48988d151941735'],['Dining and Drinking > Restaurant > Mexican Restaurant > Taco Restaurant'],b'\x00\x00\x00\x00\x01\xc0W\xf0\xf1\x11\xc5\xf6\xf8@2\xc5\x8b\xf6 }\x0e',"{'xmin': -95.76471371014111, 'ymin': 18.77166689198662, 'xmax': -95.76471371014111, 'ymax': 18.77166689198662}",dining and drinking > restaurant > mexican restaurant > taco restaurant,1
576e002d498e38f2b9710a57,"Tacos ""Tovar""",19.422017,-97.009237,,Xico,Veracruz,,,,,MX,2016-06-25,2020-11-22,,,,,,,,['4bf58dd8d48988d151941735'],['Dining and Drinking > Restaurant > Mexican Restaurant > Taco Restaurant'],b'\x00\x00\x00\x00\x01\xc0X@\x97V\xc9:q@3l\tN][%',"{'xmin': -97.009237, 'ymin': 19.422017, 'xmax': -97.009237, 'ymax': 19.422017}",dining and drinking > restaurant > mexican restaurant > taco restaurant,1
5e4bed14dbf3f900075b6312,La Casa Del Pastor Artz,19.31295,-99.219568,,Ciudad de México,CDMX,01900,,,,MX,2020-02-18,2023-12-21,,55 7595 6471,,,,,,['4bf58dd8d48988d151941735'],['Dining and Drinking > Restaurant > Mexican Restaurant > Taco Restaurant'],b'\x00\x00\x00\x00\x01\xc0X\xce\rf\xf0\xcf\xe1@3P\x1d}\xbfH\x80',"{'xmin': -99.219568, 'ymin': 19.31295, 'xmax': -99.219568, 'ymax': 19.31295}",dining and drinking > restaurant > mexican restaurant > taco restaurant,1
51510c52e4b01a7586dbf460,Taqueria El Cuñadito,19.587990951306978,-102.47395147165737,Mercado 18 De Marzo,Los Reyes,Michoacán,,,,,MX,2013-03-26,2020-11-25,,,,,,,,['4bf58dd8d48988d151941735'],['Dining and Drinking > Restaurant > Mexican Restaurant > Taco Restaurant'],b'\x00\x00\x00\x00\x01\xc0Y\x9eU8\x8d\xaa5@3\x96\x86\x9325\x18',"{'xmin': -102.47395147165737, 'ymin': 19.587990951306978, 'xmax': -102.47395147165737, 'ymax': 19.587990951306978}",dining and drinking > restaurant > mexican restaurant > taco restaurant,1
518fd164498e01b524b2a79d,Cecin@.com,19.320902,-99.105401,,Coyoacán,Mexico City,,,,,MX,2013-05-12,2020-11-30,,,,,,,,['4bf58dd8d48988d151941735'],['Dining and Drinking > Restaurant > Mexican Restaurant > Taco Restaurant'],b'\x00\x00\x00\x00\x01\xc0X\xc6\xbe\xe3\xd5\xfd\xce@3R&\xa2+8\x93',"{'xmin': -99.105401, 'ymin': 19.320902, 'xmax': -99.105401, 'ymax': 19.320902}",dining and drinking > restaurant > mexican restaurant > taco restaurant,1
6102040bb5150041956a91ea,Tacos Paco,17.049948,-96.720833,,Oaxaca de Juárez,OAX,68120,,,,MX,2021-07-29,2021-07-29,,,,,,,,['4bf58dd8d48988d151941735'],['Dining and Drinking > Restaurant > Mexican Restaurant > Taco Restaurant'],"b'\x00\x00\x00\x00\x01\xc0X."" \xbc8*@1\x0c\xc9db\x80('","{'xmin': -96.720833, 'ymin': 17.049948, 'xmax': -96.720833, 'ymax': 17.049948}",dining and drinking > restaurant > mexican restaurant > taco restaurant,1
53d5b15c498e572d763cfa56,Tacos El Pachi,19.422460556030273,-97.00981140136719,,,,,,,,MX,2014-07-28,2021-08-14,,,,,,,,['4bf58dd8d48988d151941735'],['Dining and Drinking > Restaurant > Mexican Restaurant > Taco Restaurant'],b'\x00\x00\x00\x00\x01\xc0X@\xa0\xc0\x00\x00\x00@3l&`\x00\x00\x00',"{'xmin': -97.00981140136719, 'ymin': 19.422460556030273, 'xmax': -97.00981140136719, 'ymax': 19.422460556030273}",dining and drinking > restaurant > mexican restaurant > taco restaurant,1
4f10ec75e4b067f66f15ca95,Tacos De Los Gordos,19.68621240658118,-101.14186045099017,Fray Antonio De San Miguel Iglesias,,,,,,,MX,2012-01-14,2021-08-11,2015-04-19,,,,,,,['4bf58dd8d48988d151941735'],['Dining and Drinking > Restaurant > Mexican Restaurant > Taco Restaurant'],b'\x00\x00\x00\x00\x01\xc0YI\x14=\xdbfO@3\xaf\xab\x9d\xc4`)',"{'xmin': -101.14186045099017, 'ymin': 19.68621240658118, 'xmax': -101.14186045099017, 'ymax': 19.68621240658118}",dining and drinking > restaurant > mexican restaurant > taco restaurant,1
5573b761498e82a424e54f1c,Quesadillas de Santita,19.306661,-99.231676,Francisco Villa,,,10820,,,,MX,2015-06-07,2021-08-13,,,,,,,,['4bf58dd8d48988d151941735'],['Dining and Drinking > Restaurant > Mexican Restaurant > Taco Restaurant'],b'\x00\x00\x00\x00\x01\xc0X\xce\xd3\xc7\x92\xd1(@3N\x81U\xd5\xf5j',"{'xmin': -99.231676, 'ymin': 19.306661, 'xmax': -99.231676, 'ymax': 19.306661}",dining and drinking > restaurant > mexican restaurant > taco restaurant,1
4fc4289ee4b0a88269aa9379,Tacos chaparritos,18.9301887077786,-99.23086756351294,,Cuernavaca,,,,,,MX,2012-05-29,2023-12-20,,777 330 2297,,,,,,['4bf58dd8d48988d151941735'],['Dining and Drinking > Restaurant > Mexican Restaurant > Taco Restaurant'],b'\x00\x00\x00\x00\x01\xc0X\xce\xc6\x88\xbe\xbf\xb3@2\xee \xd8\xdf\x04\x81',"{'xmin': -99.23086756351294, 'ymin': 18.9301887077786, 'xmax': -99.23086756351294, 'ymax': 18.9301887077786}",dining and drinking > restaurant > mexican restaurant > taco restaurant,1
554ed13a498e2dcf900ed19f,Taqueria Cristian De La Sierra Mixe,18.46088218688965,-97.39720153808594,3 Poniente 209,Tehuacán,Puebla,,,,,MX,2015-05-10,2020-11-22,,,,,,,,['4bf58dd8d48988d151941735'],['Dining and Drinking > Restaurant > Mexican Restaurant > Taco Restaurant'],b'\x00\x00\x00\x00\x01\xc0XYk\xc0\x00\x00\x00@2u\xfc`\x00\x00\x00',"{'xmin': -97.39720153808594, 'ymin': 18.46088218688965, 'xmax': -97.39720153808594, 'ymax': 18.46088218688965}",dining and drinking > restaurant > mexican restaurant > taco restaurant,1
4e0e77a2fa76d62f4449998b,Los Foquitos,19.27901681268477,-99.56417651672182,Av Solidaridad Las Torres 1035,Metepec,México,52172,,,,MX,2011-07-02,2020-11-22,,,,,,,tacoslosfoquito,['4bf58dd8d48988d151941735'],['Dining and Drinking > Restaurant > Mexican Restaurant > Taco Restaurant'],b'\x00\x00\x00\x00\x01\xc0X\xe4\x1bw\xd2\x1fs@3Gm\xa5U\x83\xe7',"{'xmin': -99.56417651672182, 'ymin': 19.27901681268477, 'xmax': -99.56417651672182, 'ymax': 19.27901681268477}",dining and drinking > restaurant > mexican restaurant > taco restaurant,1
56f35312498e5bfa6961cd0f,Taqueria El Pastorcito,17.81115,-97.776399,,,,,,,,MX,2016-03-24,2021-08-12,,,,,,,,['4bf58dd8d48988d151941735'],['Dining and Drinking > Restaurant > Mexican Restaurant > Taco Restaurant'],b'\x00\x00\x00\x00\x01\xc0Xq\xb0\x85nij@1\xcf\xa7\x86\xc2&\x81',"{'xmin': -97.776399, 'ymin': 17.81115, 'xmax': -97.776399, 'ymax': 17.81115}",dining and drinking > restaurant > mexican restaurant > taco restaurant,1
