fsq_place_id,name,latitude,longitude,address,locality,region,postcode,admin_region,post_town,po_box,country,date_created,date_refreshed,date_closed,tel,website,email,facebook_id,instagram,twitter,fsq_category_ids,fsq_category_labels,geom,bbox,labels_str,taco_restaurant
526c418e498e46e8286f071d,Las Adelitas,32.647176165623655,-115.42823810628758,Av. Leandro Valle #1113,Mexicali,Baja California,,,,,MX,2013-10-26,2020-11-23,,,,,,,,['4bf58dd8d48988d151941735'],['Dining and Drinking > Restaurant > Mexican Restaurant > Taco Restaurant'],b'\x00\x00\x00\x00\x01\xc0\\\xdbh@\xcdY\xfe@@R\xd6\xab)\rY',"{'xmin': -115.42823810628758, 'ymin': 32.647176165623655, 'xmax': -115.42823810628758, 'ymax': 32.647176165623655}",dining and drinking > restaurant > mexican restaurant > taco restaurant,1
59c7281bc4df1d02e458f560,Taquería El Trailero,31.83581,-116.602037,Carretera Ensenada-Tijuana KM 101,,,,,,,MX,2017-09-24,2023-12-21,,646 248 4890,,,,,,['4bf58dd8d48988d151941735'],['Dining and Drinking > Restaurant > Mexican Restaurant > Taco Restaurant'],b'\x00\x00\x00\x00\x01\xc0]&\x87\xc62~\xd8@?\xd5\xf7\xa4\xe7\xabu',"{'xmin': -116.602037, 'ymin': 31.83581, 'xmax': -116.602037, 'ymax': 31.83581}",dining and drinking > restaurant > mexican restaurant > taco restaurant,1
5128b23ce4b0ac94e9168ce2,La 6ta Faena,32.531183,-117.035057,Calle Sexta,,,,,,,MX,2013-02-23,2021-08-15,,,,,,,,['4bf58dd8d48988d151941735'],['Dining and Drinking > Restaurant > Mexican Restaurant > Taco Restaurant'],b'\x00\x00\x00\x00\x01\xc0]B>_\xb7\x1f\xbc@@C\xfd\xcd\xf6\x98x',"{'xmin': -117.035057, 'ymin': 32.531183, 'xmax': -117.035057, 'ymax': 32.531183}",dining and drinking > restaurant > mexican restaurant > taco restaurant,1
511ab085e4b0a6ce1a82077b,La Guerita expres,32.3515510559082,-117.05965423583984,,,,,,,,MX,2013-02-12,2021-08-14,,,,,,,,['4bf58dd8d48988d151941735'],['Dining and Drinking > Restaurant > Mexican Restaurant > Taco Restaurant'],"b'\x00\x00\x00\x00\x01\xc0]C\xd1`\x00\x00\x00@@,\xff\xa0\x00\x00\x00'","{'xmin': -117.05965423583984, 'ymin': 32.3515510559082, 'xmax': -117.05965423583984, 'ymax': 32.3515510559082}",dining and drinking > restaurant > mexican restaurant > taco restaurant,1
54bb1791498e5618f81b048b,Tacos Estilo Sinaloa,32.50322,-116.90354,Av. Paseo de los Lobos 76,Tijuana,Baja California,22207,,,,MX,2015-01-18,2024-02-28,,664 713 4812,,,,,,['4bf58dd8d48988d151941735'],['Dining and Drinking > Restaurant > Mexican Restaurant > Taco Restaurant'],b'\x00\x00\x00\x00\x01\xc0]9\xd3\x99o\xa8/@@@i\x83QX\xb8',"{'xmin': -116.90354, 'ymin': 32.50322, 'xmax': -116.90354, 'ymax': 32.50322}",dining and drinking > restaurant > mexican restaurant > taco restaurant,1
4bfe2978e529c928dafbbb8c,Tacos El Gordo,32.5281070390516,-117.00544025783843,,,,,,,,MX,2010-05-27,2021-08-14,,,,,,,,['4bf58dd8d48988d151941735'],['Dining and Drinking > Restaurant > Mexican Restaurant > Taco Restaurant'],"b'\x00\x00\x00\x00\x01\xc0]@Y""\x18_\xdd@@C\x99\x02\xee\xc1\xcb'","{'xmin': -117.00544025783843, 'ymin': 32.5281070390516, 'xmax': -117.00544025783843, 'ymax': 32.5281070390516}",dining and drinking > restaurant > mexican restaurant > taco restaurant,1
52c5b20b498edcb09779f59c,Tacos de Guisado Azteca,32.60938423255942,-115.39473479003097,,,,,,,,MX,2014-01-02,2021-08-16,,,,,,,,['4bf58dd8d48988d151941735'],['Dining and Drinking > Restaurant > Mexican Restaurant > Taco Restaurant'],b'\x00\x00\x00\x00\x01\xc0\\\xd9CU\xb5q\xb1@@N\x00Mr\xc58',"{'xmin': -115.39473479003097, 'ymin': 32.60938423255942, 'xmax': -115.39473479003097, 'ymax': 32.60938423255942}",dining and drinking > restaurant > mexican restaurant > taco restaurant,1
50cd91b0e4b05e3efcf3b035,Tacos El Poblano,32.389994,-117.056068,,,,,,,,MX,2012-12-16,2021-08-11,,,,,,,,['4bf58dd8d48988d151941735'],['Dining and Drinking > Restaurant > Mexican Restaurant > Taco Restaurant'],b'\x00\x00\x00\x00\x01\xc0]C\x96\x9e<\x96\x89@@1\xebR\xc9\xd1p',"{'xmin': -117.056068, 'ymin': 32.389994, 'xmax': -117.056068, 'ymax': 32.389994}",dining and drinking > restaurant > mexican restaurant > taco restaurant,1
505d3b19e4b0988daca5fbc2,La Flauta loca,32.35112525426406,-115.18502820863057,Entre Calle 12 Y 13,Guadalupe Victoria,Baja California,21720,,,,MX,2012-09-22,2020-11-23,,,,,,,,['4bf58dd8d48988d151941735'],['Dining and Drinking > Restaurant > Mexican Restaurant > Taco Restaurant'],"b'\x00\x00\x00\x00\x01\xc0\\\xcb\xd7\x80\x8e9\xf8@@,\xf1\xac\x1d\xee\x92'","{'xmin': -115.18502820863057, 'ymin': 32.35112525426406, 'xmax': -115.18502820863057, 'ymax': 32.35112525426406}",dining and drinking > restaurant > mexican restaurant > taco restaurant,1
4fcb0393e4b0881ba3a06e78,Tacos El Gallo,32.522739,-117.025584,,,,,,,,MX,2012-06-03,2021-08-12,,,,,,,,['4bf58dd8d48988d151941735'],['Dining and Drinking > Restaurant > Mexican Restaurant > Taco Restaurant'],b'\x00\x00\x00\x00\x01\xc0]A\xa3+\x12\xd3A@@B\xe9\x1c\x8e\xac\x00',"{'xmin': -117.025584, 'ymin': 32.522739, 'xmax': -117.025584, 'ymax': 32.522739}",dining and drinking > restaurant > mexican restaurant > taco restaurant,1
5435f67f498e6360572f4225,Asadero El Ranchero,32.646781564009736,-115.4363197611895,,,,,,,,MX,2014-10-09,2021-08-17,,,,,,,,['4bf58dd8d48988d151941735'],['Dining and Drinking > Restaurant > Mexican Restaurant > Taco Restaurant'],b'\x00\x00\x00\x00\x01\xc0\\\xdb\xec\xa9\xb8:\x13@@R\xc9\xbd\x00\x89\xed',"{'xmin': -115.4363197611895, 'ymin': 32.646781564009736, 'xmax': -115.4363197611895, 'ymax': 32.646781564009736}",dining and drinking > restaurant > mexican restaurant > taco restaurant,1
4f470ee5e4b0db1b3373999d,Rincón Tapatio,32.605786378942916,-115.48685995809215,,,,,,,,MX,2012-02-24,2021-08-17,,,,,,,,['4bf58dd8d48988d151941735'],['Dining and Drinking > Restaurant > Mexican Restaurant > Taco Restaurant'],b'\x00\x00\x00\x00\x01\xc0\\\xdf(\xb6\xabo7@@M\x8ahv\xf6\x07',"{'xmin': -115.48685995809215, 'ymin': 32.605786378942916, 'xmax': -115.48685995809215, 'ymax': 32.605786378942916}",dining and drinking > restaurant > mexican restaurant > taco restaurant,1
4fe8c571e4b098f61fd112d1,La carretita tacos y jugos,31.8635601,-116.5944666,Mexico,Ensenada,,,,,,MX,2012-06-25,2020-11-23,,,,,,,,['4bf58dd8d48988d151941735'],['Dining and Drinking > Restaurant > Mexican Restaurant > Taco Restaurant'],b'\x00\x00\x00\x00\x01\xc0]&\x0b\xbd\xa3d\x1e@?\xdd\x12FS\xa1h',"{'xmin': -116.5944666, 'ymin': 31.8635601, 'xmax': -116.5944666, 'ymax': 31.8635601}",dining and drinking > restaurant > mexican restaurant > taco restaurant,1
511234db7ab49cc98740c8bd,Asadero Tlaltenango,32.65601498341816,-115.49654245376587,# 1199 calle cuarta Tuxtla Gutierrez,Mexicali,Baja California,,,,,MX,2013-02-06,2020-11-30,,,,,,,,['4bf58dd8d48988d151941735'],['Dining and Drinking > Restaurant > Mexican Restaurant > Taco Restaurant'],b'\x00\x00\x00\x00\x01\xc0\\\xdf\xc7Z\x00\x00\x00@@S\xf8L\x89\xbb\xc6',"{'xmin': -115.49654245376587, 'ymin': 32.65601498341816, 'xmax': -115.49654245376587, 'ymax': 32.65601498341816}",dining and drinking > restaurant > mexican restaurant > taco restaurant,1
5218eb0511d23818947026de,Tacos De Birria,32.534053802490234,-116.97332763671875,,,,,,,,MX,2013-08-24,2021-08-12,,,,,,,,['4bf58dd8d48988d151941735'],['Dining and Drinking > Restaurant > Mexican Restaurant > Taco Restaurant'],b'\x00\x00\x00\x00\x01\xc0]>K\x00\x00\x00\x00@@D[\xe0\x00\x00\x00',"{'xmin': -116.97332763671875, 'ymin': 32.534053802490234, 'xmax': -116.97332763671875, 'ymax': 32.534053802490234}",dining and drinking > restaurant > mexican restaurant > taco restaurant,1
4eb6eb484901cef9d92c2dac,Sahuaros Birrieria Y  Tacos De Borrego Y Cabeza,32.61813356348945,-115.47895738902952,,,,,,,,MX,2011-11-06,2021-08-16,,,,,,,,['4bf58dd8d48988d151941735'],['Dining and Drinking > Restaurant > Mexican Restaurant > Taco Restaurant'],"b""\x00\x00\x00\x00\x01\xc0\\\xde\xa7<\xe4\x83\xcc@@O\x1f\x00'\xdf\xa2""","{'xmin': -115.47895738902952, 'ymin': 32.61813356348945, 'xmax': -115.47895738902952, 'ymax': 32.61813356348945}",dining and drinking > restaurant > mexican restaurant > taco restaurant,1
5bc629ffd807ee00399b5d0d,Birrieria El Toro,32.52656,-117.04898,Calle 9 y San Antonio de los Buenos,Tijuana,Baja California,22000,,,,MX,2018-10-16,2020-11-26,,,,,,,,['4bf58dd8d48988d151941735'],['Dining and Drinking > Restaurant > Mexican Restaurant > Taco Restaurant'],"b'\x00\x00\x00\x00\x01\xc0]C""}\x02\x8a\x1e@@CfQm\xb0\xde'","{'xmin': -117.04898, 'ymin': 32.52656, 'xmax': -117.04898, 'ymax': 32.52656}",dining and drinking > restaurant > mexican restaurant > taco restaurant,1
4e0ea9a6b61c3fe478065dcc,El Rayo,20.577278455812575,-101.19625592525944,Tampico 504,Salamanca,GTO,36730,,,,MX,2011-07-02,2020-11-23,,,,,,,,['4bf58dd8d48988d151941735'],['Dining and Drinking > Restaurant > Mexican Restaurant > Taco Restaurant'],b'\x00\x00\x00\x00\x01\xc0YL\x8fu\x03(\xac@4\x93\xc8\x85Xf\x80',"{'xmin': -101.19625592525944, 'ymin': 20.577278455812575, 'xmax': -101.19625592525944, 'ymax': 20.577278455812575}",dining and drinking > restaurant > mexican restaurant > taco restaurant,1
4ec5ddb62c5b532d04c30270,Tacos el papi,21.113869964522376,-101.65604455151997,Mariano Escobedo,León de Los Aldama,GTO,,,,,MX,2011-11-18,2020-11-30,,,,,,,,"['4bf58dd8d48988d1df931735' '4bf58dd8d48988d151941735'
 '4bf58dd8d48988d1c1941735']","['Dining and Drinking > Restaurant > BBQ Joint'
 'Dining and Drinking > Restaurant > Mexican Restaurant > Taco Restaurant'
 'Dining and Drinking > Restaurant > Mexican Restaurant']",b'\x00\x00\x00\x00\x01\xc0Yi\xfc\xa2I_\xd3@5\x1d&\x94\xfd\x9e\xcb',"{'xmin': -101.65604455151997, 'ymin': 21.113869964522376, 'xmax': -101.65604455151997, 'ymax': 21.113869964522376}","dining and drinking > restaurant > bbq joint, dining and drinking > restaurant > mexican restaurant > taco restaurant, dining and drinking > restaurant > mexican restaurant",1
5273d4d911d26c510a919680,Tacos de Humo,20.746463,-103.385764,,,,,,,,MX,2013-11-01,2023-07-29,,33 3159 0770,,,,,,['4bf58dd8d48988d151941735'],['Dining and Drinking > Restaurant > Mexican Restaurant > Taco Restaurant'],b'\x00\x00\x00\x00\x01\xc0Y\xd8\xb0[|\xfeX@4\xbf\x182\xfc\xac\x8e',"{'xmin': -103.385764, 'ymin': 20.746463, 'xmax': -103.385764, 'ymax': 20.746463}",dining and drinking > restaurant > mexican restaurant > taco restaurant,1
500b80a7e4b0bfba22d13b2a,Taqueria Marin,22.141793549506858,-100.9226103391341,,,,,,,,MX,2012-07-22,2021-08-17,,,,,,,,['4bf58dd8d48988d151941735'],['Dining and Drinking > Restaurant > Mexican Restaurant > Taco Restaurant'],b'\x00\x00\x00\x00\x01\xc0Y;\x0c\x0c<b\x13@6$L\x95\x01\xeal',"{'xmin': -100.9226103391341, 'ymin': 22.141793549506858, 'xmax': -100.9226103391341, 'ymax': 22.141793549506858}",dining and drinking > restaurant > mexican restaurant > taco restaurant,1
4f9f1a4ee4b03337acf615c1,Gorditas de la Wera,21.00152534518887,-101.23895499436787,Presa de la Olla,Guanajuato,Gto.,,,,,MX,2012-04-30,2020-11-22,,,,,,,,['4bf58dd8d48988d151941735'],['Dining and Drinking > Restaurant > Mexican Restaurant > Taco Restaurant'],b'\x00\x00\x00\x00\x01\xc0YOK\t\xe3\x81\xa8@5\x00c\xf7\x0b\xb3\x89',"{'xmin': -101.23895499436787, 'ymin': 21.00152534518887, 'xmax': -101.23895499436787, 'ymax': 21.00152534518887}",dining and drinking > restaurant > mexican restaurant > taco restaurant,1
4f89dd17e4b0e6f348f5cdfc,Carnitas Don Vic,21.928205162948853,-102.30512643140402,,,,,,,,MX,2012-04-14,2021-08-17,,,,,,,,['4bf58dd8d48988d151941735' '4bf58dd8d48988d1c1941735'],"['Dining and Drinking > Restaurant > Mexican Restaurant > Taco Restaurant'
 'Dining and Drinking > Restaurant > Mexican Restaurant']",b'\x00\x00\x00\x00\x01\xc0Y\x93\x871\x03\x01\xa1@5\xed\x9e\xda\x82\xd7\xfb',"{'xmin': -102.30512643140402, 'ymin': 21.928205162948853, 'xmax': -102.30512643140402, 'ymax': 21.928205162948853}","dining and drinking > restaurant > mexican restaurant > taco restaurant, dining and drinking > restaurant > mexican restaurant",1
62bfc2e4ff7ec11ac8e997c2,La Flamita,19.110997,-104.338043,,Manzanillo,COL,28869,,,,MX,2022-07-02,2022-07-02,,,,,,,,['4bf58dd8d48988d151941735'],['Dining and Drinking > Restaurant > Mexican Restaurant > Taco Restaurant'],b'\x00\x00\x00\x00\x01\xc0Z\x15\xa2\x7f\x1bi\x12@3\x1cjL\xa4\xf4A',"{'xmin': -104.338043, 'ymin': 19.110997, 'xmax': -104.338043, 'ymax': 19.110997}",dining and drinking > restaurant > mexican restaurant > taco restaurant,1
5df5967a8a06ab000880e940,Los Tacos Del Güero,20.68399,-103.430987,Novelistas,Zapopan,JAL,45027,,,,MX,2019-12-15,2020-11-23,,,,,,,,['4bf58dd8d48988d151941735' '4bf58dd8d48988d1cb941735'],"['Dining and Drinking > Restaurant > Mexican Restaurant > Taco Restaurant'
 'Dining and Drinking > Food Truck']",b'\x00\x00\x00\x00\x01\xc0Y\xdb\x95J\x7f\x80\x13@4\xaf\x19\xf7\xf8\xca\x82',"{'xmin': -103.430987, 'ymin': 20.68399, 'xmax': -103.430987, 'ymax': 20.68399}","dining and drinking > restaurant > mexican restaurant > taco restaurant, dining and drinking > food truck",1
4db623b91e7248d135c3ac4b,Tacos Timo,20.393622,-101.181504,Mena 166,Valle de Santiago,GTO,,,,,MX,2011-04-26,2020-11-21,,,,,,,,['4bf58dd8d48988d151941735'],['Dining and Drinking > Restaurant > Mexican Restaurant > Taco Restaurant'],b'\x00\x00\x00\x00\x01\xc0YK\x9d\xc2\xf4\x05\xf7@4d\xc4iP\xfcr',"{'xmin': -101.181504, 'ymin': 20.393622, 'xmax': -101.181504, 'ymax': 20.393622}",dining and drinking > restaurant > mexican restaurant > taco restaurant,1
50fb2150e4b0096f89e99f6f,"Tortas ahogadas ""El Furby""",20.642742086047086,-103.29297994770774,,,,,,,,MX,2013-01-19,2021-08-14,,,,,,,,['4bf58dd8d48988d151941735'],['Dining and Drinking > Restaurant > Mexican Restaurant > Taco Restaurant'],b'\x00\x00\x00\x00\x01\xc0Y\xd2\xc0.\xf7rw@4\xa4\x8a\xbe\xcfU\xc6',"{'xmin': -103.29297994770774, 'ymin': 20.642742086047086, 'xmax': -103.29297994770774, 'ymax': 20.642742086047086}",dining and drinking > restaurant > mexican restaurant > taco restaurant,1
5d29120aceaba30023eea83d,Tacos De Carnitas Fer,20.704758,-103.354454,San Juan de Ulúa,Guadalajara,Jalisco,,,,,MX,2019-07-12,2021-08-14,,,,,,,,['4bf58dd8d48988d151941735'],['Dining and Drinking > Restaurant > Mexican Restaurant > Taco Restaurant'],b'\x00\x00\x00\x00\x01\xc0Y\xd6\xaf_\xd4{\xee@4\xb4k\x051\x98)',"{'xmin': -103.354454, 'ymin': 20.704758, 'xmax': -103.354454, 'ymax': 20.704758}",dining and drinking > restaurant > mexican restaurant > taco restaurant,1
563f6ff5237c34cbf4757220,Birria las Tres Marías,20.70474739289137,-101.34181224493318,,,,,,,,MX,2015-11-08,2021-08-11,,,,,,,,['4bf58dd8d48988d151941735'],['Dining and Drinking > Restaurant > Mexican Restaurant > Taco Restaurant'],b'\x00\x00\x00\x00\x01\xc0YU\xe0@wW\x10@4\xb4jS<h\xe2',"{'xmin': -101.34181224493318, 'ymin': 20.70474739289137, 'xmax': -101.34181224493318, 'ymax': 20.70474739289137}",dining and drinking > restaurant > mexican restaurant > taco restaurant,1
503a5668e4b0bd2ec5078b6f,Paco Tacos de Barbacoa Av. Torremolinos,20.74824047588193,-103.40272977494969,Torremolinos,Zapopan,Jalisco,,,,,MX,2012-08-26,2020-11-23,,,,,,,,['4bf58dd8d48988d151941735'],['Dining and Drinking > Restaurant > Mexican Restaurant > Taco Restaurant'],"b'\x00\x00\x00\x00\x01\xc0Y\xd9\xc6S\x1b""3@4\xbf\x8c\xb0\x15t\xd4'","{'xmin': -103.40272977494969, 'ymin': 20.74824047588193, 'xmax': -103.40272977494969, 'ymax': 20.74824047588193}",dining and drinking > restaurant > mexican restaurant > taco restaurant,1
4ebd590ed3e38e6b0c1aee12,Gorditas Rosy,20.606483,-103.43357,,Zapopan,Jalisco,,,,,MX,2011-11-11,2023-12-19,,33 3188 3162,,,,,,['4bf58dd8d48988d151941735'],['Dining and Drinking > Restaurant > Mexican Restaurant > Taco Restaurant'],b'\x00\x00\x00\x00\x01\xc0Y\xdb\xbf\x9cb\xa1\xb6@4\x9bBxJ\x94y',"{'xmin': -103.43357, 'ymin': 20.606483, 'xmax': -103.43357, 'ymax': 20.606483}",dining and drinking > restaurant > mexican restaurant > taco restaurant,1
4fe1fe19e4b0ce7bb0ef5bf1,Quesadillas Estilo DF,20.486901810992823,-100.80955016876297,,,,,,,,MX,2012-06-20,2021-08-14,,,,,,,,['4bf58dd8d48988d151941735'],['Dining and Drinking > Restaurant > Mexican Restaurant > Taco Restaurant'],b'\x00\x00\x00\x00\x01\xc0Y3\xcf\xab\x82\xd3\xba@4|\xa5\x98\xda\x93\xcd',"{'xmin': -100.80955016876297, 'ymin': 20.486901810992823, 'xmax': -100.80955016876297, 'ymax': 20.486901810992823}",dining and drinking > restaurant > mexican restaurant > taco restaurant,1
5260b46811d253066e50c87f,La taque,20.67372,-103.367653,López Cotilla #1423,,,,,,,MX,2013-10-18,2021-08-10,,,,,,,,['4bf58dd8d48988d151941735'],['Dining and Drinking > Restaurant > Mexican Restaurant > Taco Restaurant'],b'\x00\x00\x00\x00\x01\xc0Y\xd7\x87\xa0r\xd1\xaf@4\xacx\xe9\xf6\xa9?',"{'xmin': -103.367653, 'ymin': 20.67372, 'xmax': -103.367653, 'ymax': 20.67372}",dining and drinking > restaurant > mexican restaurant > taco restaurant,1
57675b1f498e386d45395f63,Carne Asada Tito,20.537989,-104.04104,Av. Patria 1D,Ameca,Jalisco,46600,,,,MX,2016-06-20,2020-11-25,,,,,,,,['4bf58dd8d48988d151941735'],['Dining and Drinking > Restaurant > Mexican Restaurant > Taco Restaurant'],b'\x00\x00\x00\x00\x01\xc0Z\x02\xa0f<t\xfb@4\x89\xb9\xa5\xa8\x9b\x95',"{'xmin': -104.04104, 'ymin': 20.537989, 'xmax': -104.04104, 'ymax': 20.537989}",dining and drinking > restaurant > mexican restaurant > taco restaurant,1
52e3da40498ee19499faeb02,Taquería la Vaquita,19.206295,-104.683662,,Barra de Navidad,,,,,,MX,2014-01-25,2020-11-24,,,,,,,,['4bf58dd8d48988d151941735'],['Dining and Drinking > Restaurant > Mexican Restaurant > Taco Restaurant'],b'\x00\x00\x00\x00\x01\xc0Z+\xc1\x1eB\xe1&@34\xcf\xbf\xc6T\r',"{'xmin': -104.683662, 'ymin': 19.206295, 'xmax': -104.683662, 'ymax': 19.206295}",dining and drinking > restaurant > mexican restaurant > taco restaurant,1
5bcb43f7d48ec1002c96e4c5,Tacos Texas,20.669342,-103.431773,,Zapopan,JAL,45030,,,,MX,2018-10-20,2020-11-22,,,,,,,,['4bf58dd8d48988d151941735' '4bf58dd8d48988d1c1941735'],"['Dining and Drinking > Restaurant > Mexican Restaurant > Taco Restaurant'
 'Dining and Drinking > Restaurant > Mexican Restaurant']",b'\x00\x00\x00\x00\x01\xc0Y\xdb\xa2+8\x92\xef@4\xabY\xffO\xd6\xd8',"{'xmin': -103.431773, 'ymin': 20.669342, 'xmax': -103.431773, 'ymax': 20.669342}","dining and drinking > restaurant > mexican restaurant > taco restaurant, dining and drinking > restaurant > mexican restaurant",1
5e24c992d4e15d0008083f04,"Tacos, Gorditas Y Torta Mr. Lopez",20.674257,-103.34881,,Guadalajara,Jalisco,44100,,,,MX,2020-01-19,2021-08-15,,,,,,,,['4bf58dd8d48988d151941735'],['Dining and Drinking > Restaurant > Mexican Restaurant > Taco Restaurant'],b'\x00\x00\x00\x00\x01\xc0Y\xd6R\xe7-\xa1#@4\xac\x9c\x1bT\x19]',"{'xmin': -103.34881, 'ymin': 20.674257, 'xmax': -103.34881, 'ymax': 20.674257}",dining and drinking > restaurant > mexican restaurant > taco restaurant,1
4ee5541ab634710b8bcdb558,"Tacos ""El Güero""",20.715015733519493,-103.37218925470172,,,,,,,,MX,2011-12-12,2021-08-15,,,,,,,,['4bf58dd8d48988d151941735'],['Dining and Drinking > Restaurant > Mexican Restaurant > Taco Restaurant'],b'\x00\x00\x00\x00\x01\xc0Y\xd7\xd1\xf2\xe17u@4\xb7\x0bEg\x97x',"{'xmin': -103.37218925470172, 'ymin': 20.715015733519493, 'xmax': -103.37218925470172, 'ymax': 20.715015733519493}",dining and drinking > restaurant > mexican restaurant > taco restaurant,1
652f446e70efac3604b06cbe,Tostadas Expiatorio,20.623459,-103.415133,,Zapopan,Jal.,45080,,,,MX,2023-10-18,2023-10-18,,,,,,,,['4bf58dd8d48988d1c1941735' '4bf58dd8d48988d151941735'],"['Dining and Drinking > Restaurant > Mexican Restaurant'
 'Dining and Drinking > Restaurant > Mexican Restaurant > Taco Restaurant']",b'\x00\x00\x00\x00\x01\xc0Y\xda\x91\x8a\x00\x9fb@4\x9f\x9b\x02Oe\x99',"{'xmin': -103.415133, 'ymin': 20.623459, 'xmax': -103.415133, 'ymax': 20.623459}","dining and drinking > restaurant > mexican restaurant, dining and drinking > restaurant > mexican restaurant > taco restaurant",1
572b5b76498eb5157ef60128,Tacos Crucero Malvas,20.68298,-101.30334,,,,,,,,MX,2016-05-05,2020-11-22,,,,,,,,['4bf58dd8d48988d151941735'],['Dining and Drinking > Restaurant > Mexican Restaurant > Taco Restaurant'],"b'\x00\x00\x00\x00\x01\xc0YSi\xec,\xe4e@4\xae\xd7\xc6\xfb\xd2t'","{'xmin': -101.30334, 'ymin': 20.68298, 'xmax': -101.30334, 'ymax': 20.68298}",dining and drinking > restaurant > mexican restaurant > taco restaurant,1
4f14f21ae4b0d59e237a34dc,Tacos Manolo,19.09408236526711,-104.35195826904949,,,,,,,,MX,2012-01-17,2021-08-13,,,,,,,,['4bf58dd8d48988d151941735'],['Dining and Drinking > Restaurant > Mexican Restaurant > Taco Restaurant'],b'\x00\x00\x00\x00\x01\xc0Z\x16\x86{\xf9\xc7\xf5@3\x18\x15\xc8)\xf3\xdb',"{'xmin': -104.35195826904949, 'ymin': 19.09408236526711, 'xmax': -104.35195826904949, 'ymax': 19.09408236526711}",dining and drinking > restaurant > mexican restaurant > taco restaurant,1
4f52d27ee4b002a742c0292a,Tacos Victor,20.64143988604233,-103.37169674119968,,Guadalajara,Jalisco,,,,,MX,2012-03-04,2021-08-13,,,,,,,,['4bf58dd8d48988d151941735'],['Dining and Drinking > Restaurant > Mexican Restaurant > Taco Restaurant'],b'\x00\x00\x00\x00\x01\xc0Y\xd7\xc9\xe1 \xde\xe0@4\xa45g\x84\xe6\xdb',"{'xmin': -103.37169674119968, 'ymin': 20.64143988604233, 'xmax': -103.37169674119968, 'ymax': 20.64143988604233}",dining and drinking > restaurant > mexican restaurant > taco restaurant,1
57a9eba2498ee2951c229d0f,Tacos al vapor Don Chuy,20.705431,-103.35372,Guadalupe,Zapopan,JalISCO,,,,,MX,2016-08-09,2021-08-11,,33 1811 5932,,,,,,['4bf58dd8d48988d151941735'],['Dining and Drinking > Restaurant > Mexican Restaurant > Taco Restaurant'],b'\x00\x00\x00\x00\x01\xc0Y\xd6\xa3Y5\xfc;@4\xb4\x97 B\x95\xa7',"{'xmin': -103.35372, 'ymin': 20.705431, 'xmax': -103.35372, 'ymax': 20.705431}",dining and drinking > restaurant > mexican restaurant > taco restaurant,1
503ad6afe4b0d8ef57c994f4,Tacos el pique,20.63037109375,-103.39169311523438,,,,,,,,MX,2012-08-27,2021-08-11,,,,,,,,['4bf58dd8d48988d151941735'],['Dining and Drinking > Restaurant > Mexican Restaurant > Taco Restaurant'],b'\x00\x00\x00\x00\x01\xc0Y\xd9\x11\x80\x00\x00\x00@4\xa1`\x00\x00\x00\x00',"{'xmin': -103.39169311523438, 'ymin': 20.63037109375, 'xmax': -103.39169311523438, 'ymax': 20.63037109375}",dining and drinking > restaurant > mexican restaurant > taco restaurant,1
569c698c498e3013cb8a3992,Tacos Doña Lupe,20.530386,-104.04595,Martín Castañeda,Ameca,Jalisco,46600,,,,MX,2016-01-18,2020-11-22,,,,,,,,['4bf58dd8d48988d151941735'],['Dining and Drinking > Restaurant > Mexican Restaurant > Taco Restaurant'],b'\x00\x00\x00\x00\x01\xc0Z\x02\xf0\xd8D\xd0\x14@4\x87\xc7`|A\x9a',"{'xmin': -104.04595, 'ymin': 20.530386, 'xmax': -104.04595, 'ymax': 20.530386}",dining and drinking > restaurant > mexican restaurant > taco restaurant,1
56379e2f498ef882f89ad991,Tacos “El Güero”,20.725896,-102.236819,,Santiaguito De Velazquez,JALISCO,,,,,MX,2015-11-02,2020-11-23,,,,,,,,['4bf58dd8d48988d151941735'],['Dining and Drinking > Restaurant > Mexican Restaurant > Taco Restaurant'],b'\x00\x00\x00\x00\x01\xc0Y\x8f(\n\xe1\x04\x92@4\xb9\xd4Q\xfcL\x16',"{'xmin': -102.236819, 'ymin': 20.725896, 'xmax': -102.236819, 'ymax': 20.725896}",dining and drinking > restaurant > mexican restaurant > taco restaurant,1
4bd473e55631c9b6df57a230,Tacos Omar Carlos,20.64348254169594,-103.42094056207611,Patria 4970,Zapopan,JAL,45070,,,,MX,2010-04-25,2020-11-23,,33 3628 2701,http://omarcarlos.com,,,,,['4bf58dd8d48988d151941735'],['Dining and Drinking > Restaurant > Mexican Restaurant > Taco Restaurant'],b'\x00\x00\x00\x00\x01\xc0Y\xda\xf0\xb0\xae\xebP@4\xa4\xbbE\x98!\x8a',"{'xmin': -103.42094056207611, 'ymin': 20.64348254169594, 'xmax': -103.42094056207611, 'ymax': 20.64348254169594}",dining and drinking > restaurant > mexican restaurant > taco restaurant,1
5bada8ccfe3740002c91b813,Taquería Palmar,19.223808,-104.71194,,San Patricio,Jalisco,48980,,,,MX,2018-09-28,2020-11-30,,,,,,,,['4bf58dd8d48988d151941735'],['Dining and Drinking > Restaurant > Mexican Restaurant > Taco Restaurant'],b'\x00\x00\x00\x00\x01\xc0Z-\x90l\xca-\xb6@39K{(\x95J',"{'xmin': -104.71194, 'ymin': 19.223808, 'xmax': -104.71194, 'ymax': 19.223808}",dining and drinking > restaurant > mexican restaurant > taco restaurant,1
51b0bf86498e34ecb7921f90,Kekas De La Juárez,21.121254,-101.683461,,,,,,,,MX,2013-06-06,2021-08-16,,,,,,,,['4bf58dd8d48988d151941735'],['Dining and Drinking > Restaurant > Mexican Restaurant > Taco Restaurant'],b'\x00\x00\x00\x00\x01\xc0Yk\xbd\xd34\xc5\xda@5\x1f\n\x80\x8c\x82Z',"{'xmin': -101.683461, 'ymin': 21.121254, 'xmax': -101.683461, 'ymax': 21.121254}",dining and drinking > restaurant > mexican restaurant > taco restaurant,1
4e18c69d52b123a586daa023,Pioneros la huerta,19.684135572739635,-101.21370553321057,,Morelia,Michoacán,,,,,MX,2011-07-09,2020-11-22,,,,,,,,['4bf58dd8d48988d151941735'],['Dining and Drinking > Restaurant > Mexican Restaurant > Taco Restaurant'],b'\x00\x00\x00\x00\x01\xc0YM\xadY\xf9\x07F@3\xaf#\x82F\xf2l',"{'xmin': -101.21370553321057, 'ymin': 19.684135572739635, 'xmax': -101.21370553321057, 'ymax': 19.684135572739635}",dining and drinking > restaurant > mexican restaurant > taco restaurant,1
51b53c99498e4c7041b5a6f9,Tacos Huicho's,20.633992,-105.229243,,,,,,,,MX,2013-06-10,2021-08-12,,,,,,,,['4bf58dd8d48988d151941735'],['Dining and Drinking > Restaurant > Mexican Restaurant > Taco Restaurant'],b'\x00\x00\x00\x00\x01\xc0ZN\xab\xea\xd4\xf5\x90@4\xa2ML\xb9\xec\xf6',"{'xmin': -105.229243, 'ymin': 20.633992, 'xmax': -105.229243, 'ymax': 20.633992}",dining and drinking > restaurant > mexican restaurant > taco restaurant,1
4becd7edd5510f47631ecd6c,Taqueria La Flama,20.529012642562964,-100.81507655312168,,"Celaya, GTO",,38000,,,,MX,2010-05-14,2020-11-23,,,,,,,,['4bf58dd8d48988d151941735'],['Dining and Drinking > Restaurant > Mexican Restaurant > Taco Restaurant'],b'\x00\x00\x00\x00\x01\xc0Y4*6\xd8\xd98@4\x87m_^\xfa}',"{'xmin': -100.81507655312168, 'ymin': 20.529012642562964, 'xmax': -100.81507655312168, 'ymax': 20.529012642562964}",dining and drinking > restaurant > mexican restaurant > taco restaurant,1
56af8560498ecac5693c6170,thor-taz LU,20.820595615072868,-102.76460667667779,,,,,,,,MX,2016-02-01,2021-08-12,,,,,,,,['4bf58dd8d48988d151941735'],['Dining and Drinking > Restaurant > Mexican Restaurant > Taco Restaurant'],b'\x00\x00\x00\x00\x01\xc0Y\xb0\xefP\xd7\xa8\x99@4\xd2\x12\x8d\xe1\xfa\x9e',"{'xmin': -102.76460667667779, 'ymin': 20.820595615072868, 'xmax': -102.76460667667779, 'ymax': 20.820595615072868}",dining and drinking > restaurant > mexican restaurant > taco restaurant,1
55b8fe3a498e728f399d51b2,Lon-Chuy,21.864457775414394,-102.30142170251413,República De Perú 410,Aguascalientes,AGS,,,,,MX,2015-07-29,2020-11-24,,,,,,,,['4bf58dd8d48988d151941735'],['Dining and Drinking > Restaurant > Mexican Restaurant > Taco Restaurant'],b'\x00\x00\x00\x00\x01\xc0Y\x93J~@\xa6\x95@5\xddM\x1a\xd2-\x80',"{'xmin': -102.30142170251413, 'ymin': 21.864457775414394, 'xmax': -102.30142170251413, 'ymax': 21.864457775414394}",dining and drinking > restaurant > mexican restaurant > taco restaurant,1
5681503b38fa767f2efb5159,Quesadillas Fritas Light,20.662953,-103.423985,,,,,,,,MX,2015-12-28,2021-08-17,,,,,,,,['4bf58dd8d48988d151941735'],['Dining and Drinking > Restaurant > Mexican Restaurant > Taco Restaurant'],"b'\x00\x00\x00\x00\x01\xc0Y\xdb""\x91\xfb?\xa7@4\xa9\xb7I\xad\xc8\xfc'","{'xmin': -103.423985, 'ymin': 20.662953, 'xmax': -103.423985, 'ymax': 20.662953}",dining and drinking > restaurant > mexican restaurant > taco restaurant,1
53e8410a498ed72c93e0e00d,Taqueria Brasilia,20.50610815050471,-100.8135668208174,,,,,,,,MX,2014-08-11,2021-08-11,,,,,,,,['4bf58dd8d48988d151941735'],['Dining and Drinking > Restaurant > Mexican Restaurant > Taco Restaurant'],"b'\x00\x00\x00\x00\x01\xc0Y4\x11z\x92!_@4\x81\x90M\xc2\xa8""'","{'xmin': -100.8135668208174, 'ymin': 20.50610815050471, 'xmax': -100.8135668208174, 'ymax': 20.50610815050471}",dining and drinking > restaurant > mexican restaurant > taco restaurant,1
52bab58b498e8697270e89de,tacos botas,20.73647867065393,-103.34462539654304,,,,,,,,MX,2013-12-25,2021-08-15,,,,,,,,['4bf58dd8d48988d151941735'],['Dining and Drinking > Restaurant > Mexican Restaurant > Taco Restaurant'],b'\x00\x00\x00\x00\x01\xc0Y\xd6\x0eW\xad\xe1\x7f@4\xbc\x89\xdd\xbc\xa9\x02',"{'xmin': -103.34462539654304, 'ymin': 20.73647867065393, 'xmax': -103.34462539654304, 'ymax': 20.73647867065393}",dining and drinking > restaurant > mexican restaurant > taco restaurant,1
5af7ca6f628c83002c7c9fcf,Tacos Tadeo,21.069311,-101.560009,,León,GTO,36240,,,,MX,2018-05-13,2020-11-22,,,,,,,,['4bf58dd8d48988d151941735'],['Dining and Drinking > Restaurant > Mexican Restaurant > Taco Restaurant'],b'\x00\x00\x00\x00\x01\xc0Yc\xd7/\xfd\x1d\xcd@5\x11\xbe]\x9e@\xc8',"{'xmin': -101.560009, 'ymin': 21.069311, 'xmax': -101.560009, 'ymax': 21.069311}",dining and drinking > restaurant > mexican restaurant > taco restaurant,1
53c9f6aa498edc8c0e3f9f35,Los Mejoresolcajetes,20.868529,-105.436949,Calle Revolución,Sayulita,Nayarit,,,,,MX,2014-07-19,2020-11-21,,,,,,,,['4bf58dd8d48988d151941735'],['Dining and Drinking > Restaurant > Mexican Restaurant > Taco Restaurant'],b'\x00\x00\x00\x00\x01\xc0Z[\xf6\xf8\xf0AF@4\xdeW\xea\xa2\xa0\xa9',"{'xmin': -105.436949, 'ymin': 20.868529, 'xmax': -105.436949, 'ymax': 20.868529}",dining and drinking > restaurant > mexican restaurant > taco restaurant,1
5659c082498e51f6e15e4017,Ricos Almuerzos Caseros,20.978568758887,-101.47555835393327,,,,,,,,MX,2015-11-28,2020-11-21,,,,,,,,['4bf58dd8d48988d151941735'],['Dining and Drinking > Restaurant > Mexican Restaurant > Taco Restaurant'],b'\x00\x00\x00\x00\x01\xc0Y^o\x8cN^\xe9@4\xfa\x83{pN\x96',"{'xmin': -101.47555835393327, 'ymin': 20.978568758887, 'xmax': -101.47555835393327, 'ymax': 20.978568758887}",dining and drinking > restaurant > mexican restaurant > taco restaurant,1
68b208cf8f4d4e472a6dde19,Tacos Lonches Super Rodo,20.673207,-103.34566,Maestranza 234,Guadalajara,Jalisco,44100,,,,MX,2014-11-23,2023-12-06,,33 3613 5038,,,,,,['4bf58dd8d48988d151941735'],['Dining and Drinking > Restaurant > Mexican Restaurant > Taco Restaurant'],b'\x00\x00\x00\x00\x01\xc0Y\xd6\x1fK\x1e\xe2C@4\xacWK@p3',"{'xmin': -103.34566, 'ymin': 20.673207, 'xmax': -103.34566, 'ymax': 20.673207}",dining and drinking > restaurant > mexican restaurant > taco restaurant,1
5b9f0d20724750002c0a0528,Tacos Juan,19.227684,-103.703842,Av. Acapulco Esq. Barcena,Colima,COL,28048,,,,MX,2018-09-17,2020-11-24,,,,,,,,['4bf58dd8d48988d151941735'],['Dining and Drinking > Restaurant > Mexican Restaurant > Taco Restaurant'],b'\x00\x00\x00\x00\x01\xc0Y\xed\x0b\xbfP\xe3G@3:I\x7f\xa5\xd2\x8d',"{'xmin': -103.703842, 'ymin': 19.227684, 'xmax': -103.703842, 'ymax': 19.227684}",dining and drinking > restaurant > mexican restaurant > taco restaurant,1
4ed19eaff790d0703a0323dc,Tacos el Gordo,20.665116459061654,-105.22219191712408,Exiquio Corona,Puerto Vallarta,,,,,,MX,2011-11-27,2020-11-25,,,,,,,,['4bf58dd8d48988d151941735'],['Dining and Drinking > Restaurant > Mexican Restaurant > Taco Restaurant'],b'\x00\x00\x00\x00\x01\xc0ZN8dr^\xf1@4\xaaE\x12\x7f\xb3}',"{'xmin': -105.22219191712408, 'ymin': 20.665116459061654, 'xmax': -105.22219191712408, 'ymax': 20.665116459061654}",dining and drinking > restaurant > mexican restaurant > taco restaurant,1
5357dd34498ee8116ffe0021,Tacos el Cuñao,21.003610314023692,-101.24399069869214,,,,,,,,MX,2014-04-23,2021-08-17,,,,,,,,['4bf58dd8d48988d151941735'],['Dining and Drinking > Restaurant > Mexican Restaurant > Taco Restaurant'],b'\x00\x00\x00\x00\x01\xc0YO\x9d\x8b)\xdaM@5\x00\xec\x9b\x04\xa8\xf9',"{'xmin': -101.24399069869214, 'ymin': 21.003610314023692, 'xmax': -101.24399069869214, 'ymax': 21.003610314023692}",dining and drinking > restaurant > mexican restaurant > taco restaurant,1
505e6af7e4b0a054468a4ccb,tacos jorge,21.9512490712395,-102.33988605148376,,,,,,,,MX,2012-09-23,2020-11-30,,,,,,,,['4bf58dd8d48988d151941735'],['Dining and Drinking > Restaurant > Mexican Restaurant > Taco Restaurant'],b'\x00\x00\x00\x00\x01\xc0Y\x95\xc0\xb1l\xdfQ@5\xf3\x85\x0f#R\xf3',"{'xmin': -102.33988605148376, 'ymin': 21.9512490712395, 'xmax': -102.33988605148376, 'ymax': 21.9512490712395}",dining and drinking > restaurant > mexican restaurant > taco restaurant,1
5341b042498efacd614abbfc,Baja Fish Taquito,20.915606961829862,-100.74091844798618,Mesones 11-B,San Miguel De Allende,GUANAJUATO,,,,,MX,2014-04-06,2023-12-21,,415 121 0950,http://www.bajafishtaquito.com,bajafishtaquito@gmail.com,,,,['4bf58dd8d48988d1ce941735' '4bf58dd8d48988d151941735'],"['Dining and Drinking > Restaurant > Seafood Restaurant'
 'Dining and Drinking > Restaurant > Mexican Restaurant > Taco Restaurant']",b'\x00\x00\x00\x00\x01\xc0Y/k55\xc6\xa3@4\xeae7\xc5\x0c\x97',"{'xmin': -100.74091844798618, 'ymin': 20.915606961829862, 'xmax': -100.74091844798618, 'ymax': 20.915606961829862}","dining and drinking > restaurant > seafood restaurant, dining and drinking > restaurant > mexican restaurant > taco restaurant",1
543eea45498e2783fe27f7d1,Tacos El Ranchero,20.627104984944317,-103.41873679760306,Lopez Mateos 5480,Zapopan,,,,,,MX,2014-10-15,2020-11-22,,,http://elranchero.mx,,,,,['4bf58dd8d48988d151941735'],['Dining and Drinking > Restaurant > Mexican Restaurant > Taco Restaurant'],b'\x00\x00\x00\x00\x01\xc0Y\xda\xcc\x95l\xd5\x90@4\xa0\x89\xf3\xc9~\x92',"{'xmin': -103.41873679760306, 'ymin': 20.627104984944317, 'xmax': -103.41873679760306, 'ymax': 20.627104984944317}",dining and drinking > restaurant > mexican restaurant > taco restaurant,1
5be79ebcdb2aeb002c0a800a,Taqueria La Cabaña,21.040898,-105.249077,Emiliano Zapata,La Peñita de Jaltemba,NAY,63720,,,,MX,2018-11-11,2020-11-30,,,,,,,,['4bf58dd8d48988d151941735'],['Dining and Drinking > Restaurant > Mexican Restaurant > Taco Restaurant'],b'\x00\x00\x00\x00\x01\xc0ZO\xf0\xe0\xa8K\xe4@5\nxJ\x94x\xc8',"{'xmin': -105.249077, 'ymin': 21.040898, 'xmax': -105.249077, 'ymax': 21.040898}",dining and drinking > restaurant > mexican restaurant > taco restaurant,1
55fd7bd9498eb741a34d2d5e,Gordas Y Tortas Mary,21.8766545721894,-102.24878189875515,,,,,,,,MX,2015-09-19,2021-08-13,,,,,,,,['4bf58dd8d48988d151941735'],['Dining and Drinking > Restaurant > Mexican Restaurant > Taco Restaurant'],b'\x00\x00\x00\x00\x01\xc0Y\x8f\xec\n\xe9\xbf_@5\xe0lo\x1dq=',"{'xmin': -102.24878189875515, 'ymin': 21.8766545721894, 'xmax': -102.24878189875515, 'ymax': 21.8766545721894}",dining and drinking > restaurant > mexican restaurant > taco restaurant,1
4fb47278e4b0e0f14567e427,Tacos Estilo Nayarit,21.47627,-104.86564,Av. Tecnológico Fte. Al Tec,,,,,,,MX,2012-05-17,2021-08-13,,,,,,,,['4bf58dd8d48988d151941735'],['Dining and Drinking > Restaurant > Mexican Restaurant > Taco Restaurant'],b'\x00\x00\x00\x00\x01\xc0Z7f\xa5P\x87\x01@5y\xec\xd4\xaa\x10\xe0',"{'xmin': -104.86564, 'ymin': 21.47627, 'xmax': -104.86564, 'ymax': 21.47627}",dining and drinking > restaurant > mexican restaurant > taco restaurant,1
521824de498e1554bf4e2a99,Tacos El Primo,20.646306097122213,-103.28773143901199,Chamizal,,,,,,,MX,2013-08-24,2021-08-14,,,,,,,,['4bf58dd8d48988d151941735'],['Dining and Drinking > Restaurant > Mexican Restaurant > Taco Restaurant'],b'\x00\x00\x00\x00\x01\xc0Y\xd2j1 %\x9a@4\xa5tP\xfeXf',"{'xmin': -103.28773143901199, 'ymin': 20.646306097122213, 'xmax': -103.28773143901199, 'ymax': 20.646306097122213}",dining and drinking > restaurant > mexican restaurant > taco restaurant,1
54516ff7498e78f30acacc7e,Don Tortaco,21.148689679762317,-101.70113355371026,,,,,,,,MX,2014-10-29,2021-08-15,,,,,,,,['4bf58dd8d48988d151941735'],['Dining and Drinking > Restaurant > Mexican Restaurant > Taco Restaurant'],b'\x00\x00\x00\x00\x01\xc0Yl\xdf_D\xd4\x16@5&\x10\x86\xdf\xd4\xf5',"{'xmin': -101.70113355371026, 'ymin': 21.148689679762317, 'xmax': -101.70113355371026, 'ymax': 21.148689679762317}",dining and drinking > restaurant > mexican restaurant > taco restaurant,1
546ac85e498eb8f5e197b1ed,Tacos al Carbón El Sebas,20.637162068175087,-103.42783565618593,,,,,,,,MX,2014-11-18,2021-08-17,,,,,,,,['4bf58dd8d48988d151941735'],['Dining and Drinking > Restaurant > Mexican Restaurant > Taco Restaurant'],b'\x00\x00\x00\x00\x01\xc0Y\xdba\xa8\xcd\xd8g@4\xa3\x1d\r\xa5\x10P',"{'xmin': -103.42783565618593, 'ymin': 20.637162068175087, 'xmax': -103.42783565618593, 'ymax': 20.637162068175087}",dining and drinking > restaurant > mexican restaurant > taco restaurant,1
57c253e0498e960e0a816f63,Tacos El Agus,21.100278,-101.618604,,,,,,,,MX,2016-08-28,2021-08-15,,,,,,,,['4bf58dd8d48988d151941735'],['Dining and Drinking > Restaurant > Mexican Restaurant > Taco Restaurant'],b'\x00\x00\x00\x00\x01\xc0Yg\x975;K0@5\x19\xab\xd1\xaa\x82\x1f',"{'xmin': -101.618604, 'ymin': 21.100278, 'xmax': -101.618604, 'ymax': 21.100278}",dining and drinking > restaurant > mexican restaurant > taco restaurant,1
51d629c2498e003d3d726e31,Takomoloko,21.100035,-101.70143,Plaza Maya,,,,,,,MX,2013-07-05,2021-08-14,,,,,,,,['4bf58dd8d48988d151941735'],['Dining and Drinking > Restaurant > Mexican Restaurant > Taco Restaurant'],b'\x00\x00\x00\x00\x01\xc0Yl\xe4:\xa7\x9b\xbb@5\x19\x9b\xe4\xcdt\x92',"{'xmin': -101.70143, 'ymin': 21.100035, 'xmax': -101.70143, 'ymax': 21.100035}",dining and drinking > restaurant > mexican restaurant > taco restaurant,1
50a8578ee4b02a7dc037ada5,Tacos Don Santiago y Familia,20.722039300748364,-103.40046151561802,Independencia #746,Zapopan,,,,,,MX,2012-11-18,2020-11-23,,,,,,,,['4bf58dd8d48988d151941735'],['Dining and Drinking > Restaurant > Mexican Restaurant > Taco Restaurant'],b'\x00\x00\x00\x00\x01\xc0Y\xd9\xa1)V8\xb4@4\xb8\xd7\x91O$\x14',"{'xmin': -103.40046151561802, 'ymin': 20.722039300748364, 'xmax': -103.40046151561802, 'ymax': 20.722039300748364}",dining and drinking > restaurant > mexican restaurant > taco restaurant,1
500e095ae4b062eefffb3678,Tacos El Torito,20.543255046988556,-100.80566591462947,,,,,,,,MX,2012-07-24,2021-08-12,,,,,,,,['4bf58dd8d48988d151941735'],['Dining and Drinking > Restaurant > Mexican Restaurant > Taco Restaurant'],b'\x00\x00\x00\x00\x01\xc0Y3\x90\x07\xc4\xb5y@4\x8b\x12\xc3D3\xea',"{'xmin': -100.80566591462947, 'ymin': 20.543255046988556, 'xmax': -100.80566591462947, 'ymax': 20.543255046988556}",dining and drinking > restaurant > mexican restaurant > taco restaurant,1
4e6acd5b88772457c4a11b78,Tacos La Brava,22.148755,-100.991427,Mariano Avila 809,San Luis Potosí,San Luis Potosí,,,,,MX,2011-09-10,2020-11-30,,,,,,,,['4bf58dd8d48988d151941735'],['Dining and Drinking > Restaurant > Mexican Restaurant > Taco Restaurant'],b'\x00\x00\x00\x00\x01\xc0Y?s\x8a;W\xc5@6&\x14\xce\xc4\x1d\xd2',"{'xmin': -100.991427, 'ymin': 22.148755, 'xmax': -100.991427, 'ymax': 22.148755}",dining and drinking > restaurant > mexican restaurant > taco restaurant,1
546cc911498ec90079618c5d,tacos el jhonny,21.131298,-101.697982,,,,,,,,MX,2014-11-19,2021-08-12,,,,,,,,['4bf58dd8d48988d151941735'],['Dining and Drinking > Restaurant > Mexican Restaurant > Taco Restaurant'],b'\x00\x00\x00\x00\x01\xc0Yl\xab\xbc\xb1\xcc\x96@5!\x9c\xbe\xe8\x07\xbc',"{'xmin': -101.697982, 'ymin': 21.131298, 'xmax': -101.697982, 'ymax': 21.131298}",dining and drinking > restaurant > mexican restaurant > taco restaurant,1
50cc9b05e4b0269368ad918b,Tacos de Barbacoa El Gallo,20.70235890854437,-103.32862590652489,7 Colinas,Guadalajara,Jalisco,,,,,MX,2011-11-19,2021-11-22,,33 3643 1358,,,,,,['4bf58dd8d48988d151941735'],['Dining and Drinking > Restaurant > Mexican Restaurant > Taco Restaurant'],b'\x00\x00\x00\x00\x01\xc0Y\xd5\x084\xf4I#@4\xb3\xcd\xcb\x1e@\x98',"{'xmin': -103.32862590652489, 'ymin': 20.70235890854437, 'xmax': -103.32862590652489, 'ymax': 20.70235890854437}",dining and drinking > restaurant > mexican restaurant > taco restaurant,1
52c77c4a498e8ab801ea7433,tacos vikis,20.512067794799805,-105.31349182128906,,,,,,,,MX,2014-01-04,2021-08-17,,,,,,,,['4bf58dd8d48988d151941735'],['Dining and Drinking > Restaurant > Mexican Restaurant > Taco Restaurant'],b'\x00\x00\x00\x00\x01\xc0ZT\x10@\x00\x00\x00@4\x83\x16\xe0\x00\x00\x00',"{'xmin': -105.31349182128906, 'ymin': 20.512067794799805, 'xmax': -105.31349182128906, 'ymax': 20.512067794799805}",dining and drinking > restaurant > mexican restaurant > taco restaurant,1
5289857f11d23a6e5cc1f270,"Tacos ""Toni""",21.251844,-102.336939,,,,,,,,MX,2013-11-18,2021-08-12,,,,,,,,['4bf58dd8d48988d151941735'],['Dining and Drinking > Restaurant > Mexican Restaurant > Taco Restaurant'],b'\x00\x00\x00\x00\x01\xc0Y\x95\x90h\x98o\xce@5@x\xd9/\xb1\x9e',"{'xmin': -102.336939, 'ymin': 21.251844, 'xmax': -102.336939, 'ymax': 21.251844}",dining and drinking > restaurant > mexican restaurant > taco restaurant,1
4f9960c1e4b00ba712be36b5,EL LOCO gorditas chiqueadas,21.88309491146623,-102.30737584869638,,,,,,,,MX,2012-04-26,2021-08-12,,,,,,,,['4bf58dd8d48988d151941735'],['Dining and Drinking > Restaurant > Mexican Restaurant > Taco Restaurant'],b'\x00\x00\x00\x00\x01\xc0Y\x93\xac\x0b\xc0n\xcc@5\xe2\x12\x82\x14\x02\xf0',"{'xmin': -102.30737584869638, 'ymin': 21.88309491146623, 'xmax': -102.30737584869638, 'ymax': 21.88309491146623}",dining and drinking > restaurant > mexican restaurant > taco restaurant,1
52e093f2498e1ccae046e36b,TAQUERIA EL GORRAS,22.146816,-102.280129,,,,,,,,MX,2014-01-23,2021-08-14,,,,,,,,['4bf58dd8d48988d151941735'],['Dining and Drinking > Restaurant > Mexican Restaurant > Taco Restaurant'],b'\x00\x00\x00\x00\x01\xc0Y\x91\xed\xa2/jQ@6%\x95\xbb\xbe\x87\x90',"{'xmin': -102.280129, 'ymin': 22.146816, 'xmax': -102.280129, 'ymax': 22.146816}",dining and drinking > restaurant > mexican restaurant > taco restaurant,1
5b4aae4b67f62b002c31e018,Hungry Alley,20.88443,-103.838186,,Tequila,JAL,46400,,,,MX,2018-07-15,2020-11-23,,,,,,,,['4bf58dd8d48988d151941735'],['Dining and Drinking > Restaurant > Mexican Restaurant > Taco Restaurant'],b'\x00\x00\x00\x00\x01\xc0Y\xf5\xa4\xd6\xe4}\xc3@4\xe2j\x01%\x99\xed',"{'xmin': -103.838186, 'ymin': 20.88443, 'xmax': -103.838186, 'ymax': 20.88443}",dining and drinking > restaurant > mexican restaurant > taco restaurant,1
508d5919e4b0c56e761e299f,Tacos de Barbacoa,20.515661239624023,-100.80548858642578,,,,,,,,MX,2012-10-28,2021-08-16,,,,,,,,['4bf58dd8d48988d151941735'],['Dining and Drinking > Restaurant > Mexican Restaurant > Taco Restaurant'],b'\x00\x00\x00\x00\x01\xc0Y3\x8d \x00\x00\x00@4\x84\x02`\x00\x00\x00',"{'xmin': -100.80548858642578, 'ymin': 20.515661239624023, 'xmax': -100.80548858642578, 'ymax': 20.515661239624023}",dining and drinking > restaurant > mexican restaurant > taco restaurant,1
4f81ada1e4b042dc21f28453,Tacos Carmelo desde 1988,21.15947793405286,-101.65531657387562,"Oxígeno 1006, Valle de Señora, 37205 León de Los Aldama, GTO",León de Los Aldama,Guanajuato,,,,,MX,2012-04-08,2020-11-24,,,,,,,,['4bf58dd8d48988d151941735'],['Dining and Drinking > Restaurant > Mexican Restaurant > Taco Restaurant'],b'\x00\x00\x00\x00\x01\xc0Yi\xf0\xb4\xedT\xa5@5(\xd3\x8b\xbf0\xd0',"{'xmin': -101.65531657387562, 'ymin': 21.15947793405286, 'xmax': -101.65531657387562, 'ymax': 21.15947793405286}",dining and drinking > restaurant > mexican restaurant > taco restaurant,1
4e3897bc18380f8ec547f65a,"Super Tacos ""Roy's""",21.49413159882961,-104.89784901209319,Roble #49,Tepic,Nayarit,,,,,MX,2011-08-03,2024-01-03,,311 214 3173,http://tepic.olx.com.mx/super-tacos-roy-s-iid-12785434,,,,,['4bf58dd8d48988d151941735'],['Dining and Drinking > Restaurant > Mexican Restaurant > Taco Restaurant'],b'\x00\x00\x00\x00\x01\xc0Z9v[\xb3\xeb\xea@5~\x7fh\x90\xe4\xb4',"{'xmin': -104.89784901209319, 'ymin': 21.49413159882961, 'xmax': -104.89784901209319, 'ymax': 21.49413159882961}",dining and drinking > restaurant > mexican restaurant > taco restaurant,1
5e1372fb4036a40008d76d7f,Tacos Jhonny,20.722839,-103.35177,,Zapopan,JAL,45190,,,,MX,2020-01-06,2020-11-22,,,,,,,,['4bf58dd8d48988d151941735'],['Dining and Drinking > Restaurant > Mexican Restaurant > Taco Restaurant'],b'\x00\x00\x00\x00\x01\xc0Y\xd6\x83fQm\xb1@4\xb9\x0b\xfa\tE\xfa',"{'xmin': -103.35177, 'ymin': 20.722839, 'xmax': -103.35177, 'ymax': 20.722839}",dining and drinking > restaurant > mexican restaurant > taco restaurant,1
53d46f3a498e94d0420a3750,Taqueria La Pingüina,20.70359731945265,-101.34098251310674,Los Arcos,,,,,,,MX,2014-07-27,2021-08-24,,,,,,,,['4bf58dd8d48988d151941735'],['Dining and Drinking > Restaurant > Mexican Restaurant > Taco Restaurant'],b'\x00\x00\x00\x00\x01\xc0YU\xd2\xa8Q\x93I@4\xb4\x1e\xf44\x9a7',"{'xmin': -101.34098251310674, 'ymin': 20.70359731945265, 'xmax': -101.34098251310674, 'ymax': 20.70359731945265}",dining and drinking > restaurant > mexican restaurant > taco restaurant,1
5301030c498e86168c957785,Tacos Mendez,20.668497,-101.357768,,,,,,,,MX,2014-02-16,2021-08-10,,,,,,,,['4bf58dd8d48988d151941735'],['Dining and Drinking > Restaurant > Mexican Restaurant > Taco Restaurant'],"b'\x00\x00\x00\x00\x01\xc0YV\xe5\xab\xc0\xe3\x8a@4\xab""\x9e\x90y_'","{'xmin': -101.357768, 'ymin': 20.668497, 'xmax': -101.357768, 'ymax': 20.668497}",dining and drinking > restaurant > mexican restaurant > taco restaurant,1
519f8aaa498efc915d7208fe,El vil taco,21.141459989073176,-101.69092678420293,,,,,,,,MX,2013-05-24,2021-11-29,,,,,,,,['4bf58dd8d48988d151941735'],['Dining and Drinking > Restaurant > Mexican Restaurant > Taco Restaurant'],b'\x00\x00\x00\x00\x01\xc0Yl8$\xf9\x85@@5$6\xb8\xca\xc3\x06',"{'xmin': -101.69092678420293, 'ymin': 21.141459989073176, 'xmax': -101.69092678420293, 'ymax': 21.141459989073176}",dining and drinking > restaurant > mexican restaurant > taco restaurant,1
573f6453498e05602dd13828,Los D' Barbakoa,20.677297,-103.383975,,Guadalajara,Jalisco,,,,,MX,2016-05-20,2021-08-13,,,,,,,,['4bf58dd8d48988d151941735'],['Dining and Drinking > Restaurant > Mexican Restaurant > Taco Restaurant'],b'\x00\x00\x00\x00\x01\xc0Y\xd8\x93\x0b\xe0\xde\xd3@4\xadcV\x10\xad\xcd',"{'xmin': -103.383975, 'ymin': 20.677297, 'xmax': -103.383975, 'ymax': 20.677297}",dining and drinking > restaurant > mexican restaurant > taco restaurant,1
5bf858bb724750002c18ea54,Las Lechuzas De Himalaya,22.140312,-101.02925,,San Luis Potosí,San Luis Potosí,78210,,,,MX,2018-11-23,2020-11-30,,,,,,,,['4bf58dd8d48988d151941735'],['Dining and Drinking > Restaurant > Mexican Restaurant > Taco Restaurant'],b'\x00\x00\x00\x00\x01\xc0YA\xdf;dZ\x1d@6#\xeb|\xbb<\x82',"{'xmin': -101.02925, 'ymin': 22.140312, 'xmax': -101.02925, 'ymax': 22.140312}",dining and drinking > restaurant > mexican restaurant > taco restaurant,1
54cbc0d5498e99dacf42bbc7,La Cuchara,19.051545,-104.317664,,,,,,,,MX,2015-01-30,2021-08-17,,,,,,,,['4bf58dd8d48988d151941735'],['Dining and Drinking > Restaurant > Mexican Restaurant > Taco Restaurant'],b'\x00\x00\x00\x00\x01\xc0Z\x14T\x9bb\xc7u@3\r2\r\x99E\xb7',"{'xmin': -104.317664, 'ymin': 19.051545, 'xmax': -104.317664, 'ymax': 19.051545}",dining and drinking > restaurant > mexican restaurant > taco restaurant,1
5197d129498efa68e99da407,Tacos Los Niños,20.645050882398518,-103.28853758672402,Cipriano Campos Esq. Manuel Rivera,,,,,,,MX,2013-05-18,2021-08-14,,,,,,,,['4bf58dd8d48988d151941735'],['Dining and Drinking > Restaurant > Mexican Restaurant > Taco Restaurant'],"b'\x00\x00\x00\x00\x01\xc0Y\xd2wfZ\xa9_@4\xa5""\r\xfc(W'","{'xmin': -103.28853758672402, 'ymin': 20.645050882398518, 'xmax': -103.28853758672402, 'ymax': 20.645050882398518}",dining and drinking > restaurant > mexican restaurant > taco restaurant,1
4e89e03c8b81ad9c263e5d6f,Tacos La Maquinita,20.674950903869664,-103.34780070811755,,Guadalajara,Jalisco,,,,,MX,2011-10-03,2021-08-11,,,,,,,,['4bf58dd8d48988d151941735'],['Dining and Drinking > Restaurant > Mexican Restaurant > Taco Restaurant'],b'\x00\x00\x00\x00\x01\xc0Y\xd6B]\xe6\xb8\xfe@4\xac\xc9\x95\x1a\x86\x9e',"{'xmin': -103.34780070811755, 'ymin': 20.674950903869664, 'xmax': -103.34780070811755, 'ymax': 20.674950903869664}",dining and drinking > restaurant > mexican restaurant > taco restaurant,1
4f69f93ce4b03edc4c568032,Tacos Carr. Chapala,20.582181676597333,-103.3177822443525,,Las Pintas,Jalisco,,,,,MX,2012-03-21,2020-11-23,,,,,,,,['4bf58dd8d48988d151941735'],['Dining and Drinking > Restaurant > Mexican Restaurant > Taco Restaurant'],b'\x00\x00\x00\x00\x01\xc0Y\xd4V\x8bV\xaf\x95@4\x95\t\xdb\xbdP\xe5',"{'xmin': -103.3177822443525, 'ymin': 20.582181676597333, 'xmax': -103.3177822443525, 'ymax': 20.582181676597333}",dining and drinking > restaurant > mexican restaurant > taco restaurant,1
54d17a11498eacd0217f3738,Tacos Pool,20.721179,-100.757271,,,,,,,,MX,2015-02-04,2021-11-23,,,,,,,,['4bf58dd8d48988d151941735'],['Dining and Drinking > Restaurant > Mexican Restaurant > Taco Restaurant'],b'\x00\x00\x00\x00\x01\xc0Y0w \xc8\xcdd@4\xb8\x9f/\xdb\x8f\xde',"{'xmin': -100.757271, 'ymin': 20.721179, 'xmax': -100.757271, 'ymax': 20.721179}",dining and drinking > restaurant > mexican restaurant > taco restaurant,1
509de5dbe4b044f763e86607,"Hamburguesas ""Ke Toro  Wait""",20.63849842373085,-103.41957366718884,Mariano Otero # 3764,Zapopan,Jalisco,45082,,,,MX,2012-11-10,2023-12-21,,33 1155 3119,,caps274@gmail.com,188555257920073.0,,,['4bf58dd8d48988d16c941735' '4bf58dd8d48988d151941735'],"['Dining and Drinking > Restaurant > Burger Joint'
 'Dining and Drinking > Restaurant > Mexican Restaurant > Taco Restaurant']",b'\x00\x00\x00\x00\x01\xc0Y\xda\xdaK\x82\xb5\xb0@4\xa3t\xa1\xf8x\xb8',"{'xmin': -103.41957366718884, 'ymin': 20.63849842373085, 'xmax': -103.41957366718884, 'ymax': 20.63849842373085}","dining and drinking > restaurant > burger joint, dining and drinking > restaurant > mexican restaurant > taco restaurant",1
4dba2be90437ffd2079e2bda,Taquería La Gloria,21.890499449058513,-102.25762239098557,Hacienda Mesillas,Aguascalientes,AGS,,,,,MX,2011-04-29,2020-11-25,,,,,,,,['4bf58dd8d48988d151941735'],['Dining and Drinking > Restaurant > Mexican Restaurant > Taco Restaurant'],b'\x00\x00\x00\x00\x01\xc0Y\x90|\xe2\xa0\x00\x06@5\xe3\xf7\xc5\x9a\xcf\xf5',"{'xmin': -102.25762239098557, 'ymin': 21.890499449058513, 'xmax': -102.25762239098557, 'ymax': 21.890499449058513}",dining and drinking > restaurant > mexican restaurant > taco restaurant,1
545301c9498ea8054f42251b,el famoso mario,20.60620532116395,-103.44833307607378,,,,,,,,MX,2014-10-31,2021-08-23,,,,,,,,['4bf58dd8d48988d151941735'],['Dining and Drinking > Restaurant > Mexican Restaurant > Taco Restaurant'],b'\x00\x00\x00\x00\x01\xc0Y\xdc\xb1}6\xdc\xed@4\x9b0E\x9d\x0fs',"{'xmin': -103.44833307607378, 'ymin': 20.60620532116395, 'xmax': -103.44833307607378, 'ymax': 20.60620532116395}",dining and drinking > restaurant > mexican restaurant > taco restaurant,1
54453e7a498e87b62a617727,"Tacos de barbacoa ""Eli""",20.68594334635551,-103.37381530489355,,Guadalajara,Jalisco,,,,,MX,2014-10-20,2021-08-14,,,,,,,,['4bf58dd8d48988d151941735'],['Dining and Drinking > Restaurant > Mexican Restaurant > Taco Restaurant'],b'\x00\x00\x00\x00\x01\xc0Y\xd7\xec\x97\x07P\xc6@4\xaf\x99\xfb\xaf\x81w',"{'xmin': -103.37381530489355, 'ymin': 20.68594334635551, 'xmax': -103.37381530489355, 'ymax': 20.68594334635551}",dining and drinking > restaurant > mexican restaurant > taco restaurant,1
5169ac0b498ec8d980954812,D'angelos,20.677793,-103.434183,A Un Lado De Galerias,,,,,,,MX,2013-04-13,2021-08-15,,,,,,,,['4bf58dd8d48988d151941735'],['Dining and Drinking > Restaurant > Mexican Restaurant > Taco Restaurant'],b'\x00\x00\x00\x00\x01\xc0Y\xdb\xc9\xa7~^\xab@4\xad\x83\xd7\x90u.',"{'xmin': -103.434183, 'ymin': 20.677793, 'xmax': -103.434183, 'ymax': 20.677793}",dining and drinking > restaurant > mexican restaurant > taco restaurant,1
50b391f7e4b01c01b5a28cb8,Tortilleria La Victoria,20.655972590386135,-103.42418430434596,,,,,,,,MX,2012-11-26,2023-12-20,,33 3120 7973,,,,,,['4bf58dd8d48988d151941735'],['Dining and Drinking > Restaurant > Mexican Restaurant > Taco Restaurant'],b'\x00\x00\x00\x00\x01\xc0Y\xdb%\xd5\xec\xa9\x1d@4\xa7\xed\xd1\xd6\xc7\xe6',"{'xmin': -103.42418430434596, 'ymin': 20.655972590386135, 'xmax': -103.42418430434596, 'ymax': 20.655972590386135}",dining and drinking > restaurant > mexican restaurant > taco restaurant,1
5054db9ee4b0d211d09fc221,Tacos De Carnitas,20.661749,-105.236163,,,,,,,,MX,2012-09-15,2021-08-13,,,,,,,,['4bf58dd8d48988d151941735'],['Dining and Drinking > Restaurant > Mexican Restaurant > Taco Restaurant'],b'\x00\x00\x00\x00\x01\xc0ZO\x1dKja\x9e@4\xa9ha\xe9)$',"{'xmin': -105.236163, 'ymin': 20.661749, 'xmax': -105.236163, 'ymax': 20.661749}",dining and drinking > restaurant > mexican restaurant > taco restaurant,1
526c77e611d24a2ac27197cf,El Taconazo,20.02181069255801,-100.73155969318458,,,,,,,,MX,2013-10-27,2021-08-14,,,,,,,,['4bf58dd8d48988d151941735'],['Dining and Drinking > Restaurant > Mexican Restaurant > Taco Restaurant'],"b'\x00\x00\x00\x00\x01\xc0Y.\xd1\xdf\xbfS,@4\x05\x95b\xb3=a'","{'xmin': -100.73155969318458, 'ymin': 20.02181069255801, 'xmax': -100.73155969318458, 'ymax': 20.02181069255801}",dining and drinking > restaurant > mexican restaurant > taco restaurant,1
508de505e4b03c5c3b304432,Tacos El Güero,19.115021910412196,-104.33341945214961,,,,,,,,MX,2012-10-29,2021-08-17,,,,,,,,['4bf58dd8d48988d151941735'],['Dining and Drinking > Restaurant > Mexican Restaurant > Taco Restaurant'],b'\x00\x00\x00\x00\x01\xc0Z\x15V\xbe\x8a\xb5M@3\x1dr\x13o\x8b8',"{'xmin': -104.33341945214961, 'ymin': 19.115021910412196, 'xmax': -104.33341945214961, 'ymax': 19.115021910412196}",dining and drinking > restaurant > mexican restaurant > taco restaurant,1
5b858823419a9e00396343ef,"Tacos Y Gorditas ""Marifer""",20.620129,-103.3969,,San Pedro Tlaquepaque,Jalisco,45608,,,,MX,2018-08-28,2020-11-24,,,,,,,,['4bf58dd8d48988d151941735'],['Dining and Drinking > Restaurant > Mexican Restaurant > Taco Restaurant'],b'\x00\x00\x00\x00\x01\xc0Y\xd9f\xcfA\xf2\x13@4\x9e\xc0\xc6.M\x1a',"{'xmin': -103.3969, 'ymin': 20.620129, 'xmax': -103.3969, 'ymax': 20.620129}",dining and drinking > restaurant > mexican restaurant > taco restaurant,1
5470e206498e5d8945524cf3,Cenaduria  La Chata,20.8831844329834,-103.83529663085938,General Arteaga,Tequila,,,,,,MX,2014-11-22,2020-11-24,,,,,,,,['4bf58dd8d48988d151941735'],['Dining and Drinking > Restaurant > Mexican Restaurant > Taco Restaurant'],b'\x00\x00\x00\x00\x01\xc0Y\xf5u\x80\x00\x00\x00@4\xe2\x18`\x00\x00\x00',"{'xmin': -103.83529663085938, 'ymin': 20.8831844329834, 'xmax': -103.83529663085938, 'ymax': 20.8831844329834}",dining and drinking > restaurant > mexican restaurant > taco restaurant,1
533f7f2b498e0a5cf689ec4f,tacos don cuco,21.131322,-101.697712,,,,,,,,MX,2014-04-05,2021-08-10,,,,,,,,['4bf58dd8d48988d151941735'],['Dining and Drinking > Restaurant > Mexican Restaurant > Taco Restaurant'],b'\x00\x00\x00\x00\x01\xc0Yl\xa7P;\x81\xb6@5!\x9eQ\x8f>\xcd',"{'xmin': -101.697712, 'ymin': 21.131322, 'xmax': -101.697712, 'ymax': 21.131322}",dining and drinking > restaurant > mexican restaurant > taco restaurant,1
51c11655498e8958b129e8b0,Tacos la tambora estiló Sinaloa,20.729652,-103.437018,,,,,,,,MX,2013-06-19,2021-08-14,,,,,,,,['4bf58dd8d48988d151941735'],['Dining and Drinking > Restaurant > Mexican Restaurant > Taco Restaurant'],b'\x00\x00\x00\x00\x01\xc0Y\xdb\xf8\x1aXp\xda@4\xba\xcay5v\x04',"{'xmin': -103.437018, 'ymin': 20.729652, 'xmax': -103.437018, 'ymax': 20.729652}",dining and drinking > restaurant > mexican restaurant > taco restaurant,1
4f88fdc6e4b013a9801fcc40,Tacos Don Sebas Sucursal El Faro,21.12958616260886,-101.72146668656777,,,,,,,,MX,2012-04-14,2021-08-12,,,,,,,,['4bf58dd8d48988d151941735'],['Dining and Drinking > Restaurant > Mexican Restaurant > Taco Restaurant'],"b'\x00\x00\x00\x00\x01\xc0Yn,\x82\x9b\xfd\x92@5!,\x8f\nkP'","{'xmin': -101.72146668656777, 'ymin': 21.12958616260886, 'xmax': -101.72146668656777, 'ymax': 21.12958616260886}",dining and drinking > restaurant > mexican restaurant > taco restaurant,1
51d63eba498e006083f4c48e,tacos el patron,20.643129845315652,-103.32894176356655,,,,,,,,MX,2013-07-05,2021-08-15,,,,,,,,['4bf58dd8d48988d151941735'],['Dining and Drinking > Restaurant > Mexican Restaurant > Taco Restaurant'],b'\x00\x00\x00\x00\x01\xc0Y\xd5\ra\xc13\xa4@4\xa4\xa4(T\xb6W',"{'xmin': -103.32894176356655, 'ymin': 20.643129845315652, 'xmax': -103.32894176356655, 'ymax': 20.643129845315652}",dining and drinking > restaurant > mexican restaurant > taco restaurant,1
631427fd0e9e3c5d8f44bca4,"Tacos ""Los Toños""",21.075262,-101.61638,blvrd Epsilon 922,León,Guanajuato,37545,,,,MX,2022-09-04,2022-09-04,,,,,,,,['4bf58dd8d48988d151941735'],['Dining and Drinking > Restaurant > Mexican Restaurant > Taco Restaurant'],b'\x00\x00\x00\x00\x01\xc0Ygr\xc5\x19z%@5\x13D^\xd4\xa1\xad',"{'xmin': -101.61638, 'ymin': 21.075262, 'xmax': -101.61638, 'ymax': 21.075262}",dining and drinking > restaurant > mexican restaurant > taco restaurant,1
567f721e498e3cc40fc0335d,Tacos del Crucero,20.665044,-103.203854,,,,,,,,MX,2015-12-27,2021-08-13,,,,,,,,['4bf58dd8d48988d151941735'],['Dining and Drinking > Restaurant > Mexican Restaurant > Taco Restaurant'],b'\x00\x00\x00\x00\x01\xc0Y\xcd\x0b\xf1\xa5\xca*@4\xaa@R\xd6f\xaa',"{'xmin': -103.203854, 'ymin': 20.665044, 'xmax': -103.203854, 'ymax': 20.665044}",dining and drinking > restaurant > mexican restaurant > taco restaurant,1
5116f86de4b034e6d8c22535,Tacos Don Piti,22.16553980370193,-101.00117191302274,Tetela,San Luis Potosí,,,,,,MX,2013-02-10,2020-11-23,,,,,,,,['4bf58dd8d48988d151941735'],['Dining and Drinking > Restaurant > Mexican Restaurant > Taco Restaurant'],b'\x00\x00\x00\x00\x01\xc0Y@\x133\\\x06\xd0@6*`\xd1\x0b\x16\x07',"{'xmin': -101.00117191302274, 'ymin': 22.16553980370193, 'xmax': -101.00117191302274, 'ymax': 22.16553980370193}",dining and drinking > restaurant > mexican restaurant > taco restaurant,1
4e781c2cfa769112d52c4fbc,Tacos Asaditos Los Compitas,20.67286202714258,-103.40983405635193,Niño Obrero #462,Zapopan,JALISCO,,,,,MX,2011-09-20,2023-12-21,,33 1245 3666,,,,,,['4bf58dd8d48988d151941735'],['Dining and Drinking > Restaurant > Mexican Restaurant > Taco Restaurant'],b'\x00\x00\x00\x00\x01\xc0Y\xda:\xb8\x9f4c@4\xac@\xaf\x91L2',"{'xmin': -103.40983405635193, 'ymin': 20.67286202714258, 'xmax': -103.40983405635193, 'ymax': 20.67286202714258}",dining and drinking > restaurant > mexican restaurant > taco restaurant,1
53b83d3d498e06cf1e680797,Tacos Peter,19.78721,-104.358291,Independencia Nacional,Autlán De Navarro,Jalisco,,,,,MX,2014-07-05,2020-11-22,,,,,,,,['4bf58dd8d48988d151941735'],['Dining and Drinking > Restaurant > Mexican Restaurant > Taco Restaurant'],b'\x00\x00\x00\x00\x01\xc0Z\x16\xee=_\xdc\xdf@3\xc9\x86\x985\x15\x8c',"{'xmin': -104.358291, 'ymin': 19.78721, 'xmax': -104.358291, 'ymax': 19.78721}",dining and drinking > restaurant > mexican restaurant > taco restaurant,1
5365b23b498e45e0c4070a04,Tacos El Roma,20.64800165516253,-103.26250669716892,,,,,,,,MX,2014-05-04,2021-08-12,,,,,,,,['4bf58dd8d48988d151941735'],['Dining and Drinking > Restaurant > Mexican Restaurant > Taco Restaurant'],b'\x00\x00\x00\x00\x01\xc0Y\xd0\xcc\xe8\xe3\xd4\x93@4\xa5\xe3o\xbc\xadL',"{'xmin': -103.26250669716892, 'ymin': 20.64800165516253, 'xmax': -103.26250669716892, 'ymax': 20.64800165516253}",dining and drinking > restaurant > mexican restaurant > taco restaurant,1
55dd22ee498e3bb48b735600,Tacos La Cochera,21.900886988426134,-102.31091494246452,,,,,,,,MX,2015-08-26,2021-08-14,,,,,,,,['4bf58dd8d48988d151941735'],['Dining and Drinking > Restaurant > Mexican Restaurant > Taco Restaurant'],b'\x00\x00\x00\x00\x01\xc0Y\x93\xe6\x07\xc9nC@5\xe6\xa0\x87\x98\xae\xa3',"{'xmin': -102.31091494246452, 'ymin': 21.900886988426134, 'xmax': -102.31091494246452, 'ymax': 21.900886988426134}",dining and drinking > restaurant > mexican restaurant > taco restaurant,1
53605597498e35b5bbb095e1,Tacos Tecuala,21.483452,-104.881789,Rey Nayar,Tepic,Nayarit,,,,,MX,2014-04-30,2020-11-26,,,,,,,,['4bf58dd8d48988d151941735'],['Dining and Drinking > Restaurant > Mexican Restaurant > Taco Restaurant'],b'\x00\x00\x00\x00\x01\xc0Z8o;!>>@5{\xc3\x82\xa1/\x90',"{'xmin': -104.881789, 'ymin': 21.483452, 'xmax': -104.881789, 'ymax': 21.483452}",dining and drinking > restaurant > mexican restaurant > taco restaurant,1
615b88a40cba320ce3413944,Tacos Y Tortas De Tampico,20.675888,-103.34452,venustiano carranza 57 A,Querétaro,Qro,76000,,,,MX,2021-10-04,2021-10-04,,,,,,,,['4bf58dd8d48988d151941735'],['Dining and Drinking > Restaurant > Mexican Restaurant > Taco Restaurant'],b'\x00\x00\x00\x00\x01\xc0Y\xd6\x0c\x9d\x9d4Y@4\xad\x06\xfe\xf7\xc2D',"{'xmin': -103.34452, 'ymin': 20.675888, 'xmax': -103.34452, 'ymax': 20.675888}",dining and drinking > restaurant > mexican restaurant > taco restaurant,1
50f5b435e4b0ff6d36d70c14,tacos polo,21.1319076822719,-101.70007725114269,,,,,,,,MX,2013-01-15,2021-08-16,,,,,,,,['4bf58dd8d48988d151941735'],['Dining and Drinking > Restaurant > Mexican Restaurant > Taco Restaurant'],b'\x00\x00\x00\x00\x01\xc0Yl\xce\x10\xd0\x956@5!\xc4\xb3\xadr\xf0',"{'xmin': -101.70007725114269, 'ymin': 21.1319076822719, 'xmax': -101.70007725114269, 'ymax': 21.1319076822719}",dining and drinking > restaurant > mexican restaurant > taco restaurant,1
58837a22288b6a181ac931bd,Birrieria Luis,20.748572,-105.271187,,,,,,,,MX,2017-01-21,2020-11-22,,,,,,,,['4bf58dd8d48988d151941735'],['Dining and Drinking > Restaurant > Mexican Restaurant > Taco Restaurant'],"b'\x00\x00\x00\x00\x01\xc0ZQ[ \xb8\x06l@4\xbf\xa2j""\xb3\x89'","{'xmin': -105.271187, 'ymin': 20.748572, 'xmax': -105.271187, 'ymax': 20.748572}",dining and drinking > restaurant > mexican restaurant > taco restaurant,1
672f9800de2b8d4b4120f5d1,Tacos Y Gorditas Chelo,20.795709,-103.481225,Zaragoza 224,Tesistán,Jal.,45200,,,,MX,2024-11-09,2024-11-09,,,,,,,,['4bf58dd8d48988d151941735'],['Dining and Drinking > Restaurant > Mexican Restaurant > Taco Restaurant'],"b'\x00\x00\x00\x00\x01\xc0Y\xde\xccc\xf1A @4\xcb\xb3\x95\xc4""\x03'","{'xmin': -103.481225, 'ymin': 20.795709, 'xmax': -103.481225, 'ymax': 20.795709}",dining and drinking > restaurant > mexican restaurant > taco restaurant,1
51d4d826498e2db1a8b81bdc,tacos piolin,19.686334823495052,-101.19731868344267,,,,,,,,MX,2013-07-04,2021-08-11,,,,,,,,['4bf58dd8d48988d151941735'],['Dining and Drinking > Restaurant > Mexican Restaurant > Taco Restaurant'],b'\x00\x00\x00\x00\x01\xc0YL\xa0\xde\x8b\x11\xab@3\xaf\xb3\xa3\x95\x04f',"{'xmin': -101.19731868344267, 'ymin': 19.686334823495052, 'xmax': -101.19731868344267, 'ymax': 19.686334823495052}",dining and drinking > restaurant > mexican restaurant > taco restaurant,1
4fbd38f6e4b087dfda686b4c,Las Gringas Tortas & Tacos,22.14999,-100.985252,Tomasa Esteves,san Luis Potosí,,,,,,MX,2012-05-23,2023-09-13,,,,,,,,['4bf58dd8d48988d151941735'],['Dining and Drinking > Restaurant > Mexican Restaurant > Taco Restaurant'],b'\x00\x00\x00\x00\x01\xc0Y?\x0e^g\x94d@6&e\xbe\xa0\xba\x1f',"{'xmin': -100.985252, 'ymin': 22.14999, 'xmax': -100.985252, 'ymax': 22.14999}",dining and drinking > restaurant > mexican restaurant > taco restaurant,1
4eb4a86fbe7bfc2849fbca23,Tacos El Güero,20.580409692551576,-103.38580907867295,,,,,,,,MX,2011-11-05,2021-08-12,,,,,,,,['4bf58dd8d48988d151941735'],['Dining and Drinking > Restaurant > Mexican Restaurant > Taco Restaurant'],b'\x00\x00\x00\x00\x01\xc0Y\xd8\xb1\x18\x8f\xd9\x9d@4\x94\x95\xba\xc7\xcaZ',"{'xmin': -103.38580907867295, 'ymin': 20.580409692551576, 'xmax': -103.38580907867295, 'ymax': 20.580409692551576}",dining and drinking > restaurant > mexican restaurant > taco restaurant,1
4ba11054f964a5201d9437e3,Quesadillas del Cbtis,20.70084473620476,-101.35589361190796,Guerrero 3198,Irapuato,Guanajuato,,,,,MX,2010-03-17,2020-11-30,,,,,,,,['4bf58dd8d48988d151941735'],['Dining and Drinking > Restaurant > Mexican Restaurant > Taco Restaurant'],b'\x00\x00\x00\x00\x01\xc0YV\xc6\xf6\x00\x00\x00@4\xb3j\x8f\x85\x92\xbd',"{'xmin': -101.35589361190796, 'ymin': 20.70084473620476, 'xmax': -101.35589361190796, 'ymax': 20.70084473620476}",dining and drinking > restaurant > mexican restaurant > taco restaurant,1
4e49bb1418a83cda37d3f243,Tacos Lupillo,20.70132955943472,-103.32162378927559,,Guadalajara,Jalisco,,,,,MX,2011-08-16,2021-08-15,,,,,,,,['4bf58dd8d48988d151941735'],['Dining and Drinking > Restaurant > Mexican Restaurant > Taco Restaurant'],b'\x00\x00\x00\x00\x01\xc0Y\xd4\x95{\xf2#y@4\xb3\x8aU\x81}~',"{'xmin': -103.32162378927559, 'ymin': 20.70132955943472, 'xmax': -103.32162378927559, 'ymax': 20.70132955943472}",dining and drinking > restaurant > mexican restaurant > taco restaurant,1
51a4d6a6498ec1fab9aedfd9,Tacos Doña Seve,20.612071,-103.42393,Cerca De La Bodega,,,,,,,MX,2013-05-28,2021-08-13,,,,,,,,['4bf58dd8d48988d151941735'],['Dining and Drinking > Restaurant > Mexican Restaurant > Taco Restaurant'],b'\x00\x00\x00\x00\x01\xc0Y\xdb!\xabKr\xc5@4\x9c\xb0\xaf_\xd4|',"{'xmin': -103.42393, 'ymin': 20.612071, 'xmax': -103.42393, 'ymax': 20.612071}",dining and drinking > restaurant > mexican restaurant > taco restaurant,1
535d2c68498e0b716d658e81,Quesadillas San Sebastian,21.104087,-101.69634,,,,,,,,MX,2014-04-27,2021-08-15,,,,,,,,['4bf58dd8d48988d151941735'],['Dining and Drinking > Restaurant > Mexican Restaurant > Taco Restaurant'],b'\x00\x00\x00\x00\x01\xc0Yl\x90\xd5\xa5\xb9c@5\x1a\xa5r\x14\xf0R',"{'xmin': -101.69634, 'ymin': 21.104087, 'xmax': -101.69634, 'ymax': 21.104087}",dining and drinking > restaurant > mexican restaurant > taco restaurant,1
52351c0811d26c1abedba32a,Tacos el Arracadas,20.292938232421875,-100.75813293457031,,,,,,,,MX,2013-09-15,2021-08-12,,,,,,,,['4bf58dd8d48988d151941735'],['Dining and Drinking > Restaurant > Mexican Restaurant > Taco Restaurant'],b'\x00\x00\x00\x00\x01\xc0Y0\x85@\x00\x00\x00@4J\xfe\x00\x00\x00\x00',"{'xmin': -100.75813293457031, 'ymin': 20.292938232421875, 'xmax': -100.75813293457031, 'ymax': 20.292938232421875}",dining and drinking > restaurant > mexican restaurant > taco restaurant,1
53b5fe84498ebfb1addebd89,Tacos Pancho,21.109105,-101.703399,,,,,,,,MX,2014-07-04,2021-08-17,,,,,,,,['4bf58dd8d48988d151941735'],['Dining and Drinking > Restaurant > Mexican Restaurant > Taco Restaurant'],b'\x00\x00\x00\x00\x01\xc0Ym\x04}=B\x81@5\x1b\xeeN&\xd4\x80',"{'xmin': -101.703399, 'ymin': 21.109105, 'xmax': -101.703399, 'ymax': 21.109105}",dining and drinking > restaurant > mexican restaurant > taco restaurant,1
55be8454498e4ea1af094f5d,Barrieria las Primas,20.65016850689474,-103.4201098118269,,,,,,,,MX,2015-08-02,2021-08-14,,,,,,,,['4bf58dd8d48988d151941735'],['Dining and Drinking > Restaurant > Mexican Restaurant > Taco Restaurant'],b'\x00\x00\x00\x00\x01\xc0Y\xda\xe3\x14C\xa1\x9e@4\xa6qqz\x00\x87',"{'xmin': -103.4201098118269, 'ymin': 20.65016850689474, 'xmax': -103.4201098118269, 'ymax': 20.65016850689474}",dining and drinking > restaurant > mexican restaurant > taco restaurant,1
4ec74412775bf65c0338d766,"Tacos ""Popeye""",19.687856110473408,-101.30532717756552,Villas del Pedregal,Morelia,Mich,,,,,MX,2011-11-19,2020-11-22,,,,,,,,['4bf58dd8d48988d151941735'],['Dining and Drinking > Restaurant > Mexican Restaurant > Taco Restaurant'],b'\x00\x00\x00\x00\x01\xc0YS\x8a{\x00\x8eT@3\xb0\x17V\x8a\xd6I',"{'xmin': -101.30532717756552, 'ymin': 19.687856110473408, 'xmax': -101.30532717756552, 'ymax': 19.687856110473408}",dining and drinking > restaurant > mexican restaurant > taco restaurant,1
4d9a6f347668f04dd864bc93,Tacos Don Enrique,19.329883,-103.603957,,,,,,,,MX,2011-04-05,2021-08-10,,,,,,,,['4bf58dd8d48988d151941735'],['Dining and Drinking > Restaurant > Mexican Restaurant > Taco Restaurant'],b'\x00\x00\x00\x00\x01\xc0Y\xe6\xa7;B\xcc-@3Ts6X\x81\xa1',"{'xmin': -103.603957, 'ymin': 19.329883, 'xmax': -103.603957, 'ymax': 19.329883}",dining and drinking > restaurant > mexican restaurant > taco restaurant,1
56f4be0d498e1e3f56d01e9f,Pop Up Taco Fish Martina,20.676056,-103.28265,,,,,,,,MX,2016-03-25,2021-08-16,,,,,,,,['4bf58dd8d48988d151941735'],['Dining and Drinking > Restaurant > Mexican Restaurant > Taco Restaurant'],b'\x00\x00\x00\x00\x01\xc0Y\xd2\x16\xf0\x06\x8d\xb9@4\xad\x12\x01\x8aC\xbb',"{'xmin': -103.28265, 'ymin': 20.676056, 'xmax': -103.28265, 'ymax': 20.676056}",dining and drinking > restaurant > mexican restaurant > taco restaurant,1
4f25cb4de4b0085e4b5f1032,"Tacos De Barbacoa ""Renato""",20.627772721891574,-103.43345564297069,,,,,,,,MX,2012-01-29,2021-08-10,,,,,,,,['4bf58dd8d48988d151941735'],['Dining and Drinking > Restaurant > Mexican Restaurant > Taco Restaurant'],b'\x00\x00\x00\x00\x01\xc0Y\xdb\xbd\xbc\xbc\xb4\xd9@4\xa0\xb5\xb6\x8d\xd8`',"{'xmin': -103.43345564297069, 'ymin': 20.627772721891574, 'xmax': -103.43345564297069, 'ymax': 20.627772721891574}",dining and drinking > restaurant > mexican restaurant > taco restaurant,1
515fa9b9e4b027d83ded868d,Tacos el cantar,20.509976,-100.804425,,,,,,,,MX,2013-04-06,2021-08-13,,,,,,,,"['4bf58dd8d48988d151941735' '4bf58dd8d48988d10c941735'
 '4bf58dd8d48988d110941735']","['Dining and Drinking > Restaurant > Mexican Restaurant > Taco Restaurant'
 'Dining and Drinking > Restaurant > French Restaurant'
 'Dining and Drinking > Restaurant > Italian Restaurant']",b'\x00\x00\x00\x00\x01\xc0Y3{\xb2\xfe\xc5m@4\x82\x8d\xc9\x81\xbe\xb2',"{'xmin': -100.804425, 'ymin': 20.509976, 'xmax': -100.804425, 'ymax': 20.509976}","dining and drinking > restaurant > mexican restaurant > taco restaurant, dining and drinking > restaurant > french restaurant, dining and drinking > restaurant > italian restaurant",1
5257718011d257ef86b63bcd,Tacos Vasquez,21.87259324078324,-102.2750763278586,Prolongación Olivos No. 501,Aguascalientes,Aguascalientes,,,,,MX,2013-10-11,2020-11-21,,,,,,,,['4bf58dd8d48988d151941735'],['Dining and Drinking > Restaurant > Mexican Restaurant > Taco Restaurant'],b'\x00\x00\x00\x00\x01\xc0Y\x91\x9a\xd9\xbe\x03\x9d@5\xdfbEG\xdf\xea',"{'xmin': -102.2750763278586, 'ymin': 21.87259324078324, 'xmax': -102.2750763278586, 'ymax': 21.87259324078324}",dining and drinking > restaurant > mexican restaurant > taco restaurant,1
51aac7dc498e2fe97908d98f,Las gringas,20.625,-103.246,Calle 16 de septiembre,Tonala,Jalisco,45400,,,,MX,2013-06-02,2020-11-21,,,,,,,,['4bf58dd8d48988d151941735'],['Dining and Drinking > Restaurant > Mexican Restaurant > Taco Restaurant'],b'\x00\x00\x00\x00\x01\xc0Y\xcf\xbev\xc8\xb49@4\xa0\x00\x00\x00\x00\x00',"{'xmin': -103.246, 'ymin': 20.625, 'xmax': -103.246, 'ymax': 20.625}",dining and drinking > restaurant > mexican restaurant > taco restaurant,1
5640c2e1cd103c7d711c9c3a,Tacos El Patrón,20.646481584476177,-103.38321954665585,Mandarina 1726,Guadalajara,,,,,,MX,2015-11-09,2021-08-16,,,,,,,,['4bf58dd8d48988d151941735'],['Dining and Drinking > Restaurant > Mexican Restaurant > Taco Restaurant'],b'\x00\x00\x00\x00\x01\xc0Y\xd8\x86\xabG\x04\xca@4\xa5\x7f\xd1.\xca\x9c',"{'xmin': -103.38321954665585, 'ymin': 20.646481584476177, 'xmax': -103.38321954665585, 'ymax': 20.646481584476177}",dining and drinking > restaurant > mexican restaurant > taco restaurant,1
5ad21ab5acc5f54f91f18592,El Aguajito,20.728608,-103.541824,,Zapopan,JAL,45221,,,,MX,2018-04-14,2020-11-23,,,,,,,,['4bf58dd8d48988d151941735'],['Dining and Drinking > Restaurant > Mexican Restaurant > Taco Restaurant'],b'\x00\x00\x00\x00\x01\xc0Y\xe2\xad>\x92\x0c\x07@4\xba\x86\r\xcb\x9a\x9e',"{'xmin': -103.541824, 'ymin': 20.728608, 'xmax': -103.541824, 'ymax': 20.728608}",dining and drinking > restaurant > mexican restaurant > taco restaurant,1
4f9cb718e4b0873b67b96383,Tacos Don Lupe,20.62935030328631,-103.40173244476318,Avenida Tabachines,Tlaquepaque,Jalisco,45608,,,,MX,2012-04-29,2020-11-22,,,,,,,,['4bf58dd8d48988d151941735'],['Dining and Drinking > Restaurant > Mexican Restaurant > Taco Restaurant'],b'\x00\x00\x00\x00\x01\xc0Y\xd9\xb5\xfc\x00\x00\x00@4\xa1\x1d\x19\xfaW\xa6',"{'xmin': -103.40173244476318, 'ymin': 20.62935030328631, 'xmax': -103.40173244476318, 'ymax': 20.62935030328631}",dining and drinking > restaurant > mexican restaurant > taco restaurant,1
5aa401202be42507d7d3ce05,Ta’ Carbón Steak,20.685177,-103.374732,,Guadalajara,JAL,44600,,,,MX,2018-03-10,2021-08-16,,,,,,,,['4bf58dd8d48988d151941735' '4bf58dd8d48988d1cb941735'],"['Dining and Drinking > Restaurant > Mexican Restaurant > Taco Restaurant'
 'Dining and Drinking > Food Truck']",b'\x00\x00\x00\x00\x01\xc0Y\xd7\xfb\x9b\xed0\xf0@4\xafg\xc2\x86\xf8\xad',"{'xmin': -103.374732, 'ymin': 20.685177, 'xmax': -103.374732, 'ymax': 20.685177}","dining and drinking > restaurant > mexican restaurant > taco restaurant, dining and drinking > food truck",1
521248ca498e936827674e99,Los Dorados,21.900511,-102.293863,,Aguascalientes,AGS,,,,,MX,2013-08-19,2023-12-21,,55 5360 6025,,,,,,['4bf58dd8d48988d151941735'],['Dining and Drinking > Restaurant > Mexican Restaurant > Taco Restaurant'],b'\x00\x00\x00\x00\x01\xc0Y\x92\xce\xa6\xc1\xa0I@5\xe6\x87\xe3\x8e\xb02',"{'xmin': -102.293863, 'ymin': 21.900511, 'xmax': -102.293863, 'ymax': 21.900511}",dining and drinking > restaurant > mexican restaurant > taco restaurant,1
5036ece3e4b0b68ee3617849,Taquería La Galleta,18.351081591976104,-99.53969049035456,,,,,,,,MX,2012-08-24,2021-08-12,,,,,,,,['4bf58dd8d48988d151941735'],['Dining and Drinking > Restaurant > Mexican Restaurant > Taco Restaurant'],b'\x00\x00\x00\x00\x01\xc0X\xe2\x8aI\xfb\x82>@2Y\xe0{\xb3\xc3\xd6',"{'xmin': -99.53969049035456, 'ymin': 18.351081591976104, 'xmax': -99.53969049035456, 'ymax': 18.351081591976104}",dining and drinking > restaurant > mexican restaurant > taco restaurant,1
4ec945df29c22cc60e7d4d5b,Barbacoa de Capulhuac,19.32494726644532,-99.14313554918691,Museo 110,Mexico DF,Distrito Federal,,,,,MX,2011-11-20,2020-11-22,,,,,,,,['4bf58dd8d48988d151941735'],['Dining and Drinking > Restaurant > Mexican Restaurant > Taco Restaurant'],"b'\x00\x00\x00\x00\x01\xc0X\xc9)""\x01\xa9\xc7@3S/\xbezN\xa8'","{'xmin': -99.14313554918691, 'ymin': 19.32494726644532, 'xmax': -99.14313554918691, 'ymax': 19.32494726644532}",dining and drinking > restaurant > mexican restaurant > taco restaurant,1
5273c1aa498ea6bec4ae488b,Quesadillas SOFI,19.318376541137695,-99.07433319091797,,,,,,,,MX,2013-11-01,2021-08-13,,,,,,,,['4bf58dd8d48988d151941735'],['Dining and Drinking > Restaurant > Mexican Restaurant > Taco Restaurant'],b'\x00\x00\x00\x00\x01\xc0X\xc4\xc1\xe0\x00\x00\x00@3Q\x81 \x00\x00\x00',"{'xmin': -99.07433319091797, 'ymin': 19.318376541137695, 'xmax': -99.07433319091797, 'ymax': 19.318376541137695}",dining and drinking > restaurant > mexican restaurant > taco restaurant,1
511c0123e4b0520526f3f0ee,Tacos los güeros de Jiquilpan,19.290443420410156,-99.13069152832031,,,,,,,,MX,2013-02-13,2021-08-14,,,,,,,,['4bf58dd8d48988d151941735'],['Dining and Drinking > Restaurant > Mexican Restaurant > Taco Restaurant'],b'\x00\x00\x00\x00\x01\xc0X\xc8]@\x00\x00\x00@3JZ\x80\x00\x00\x00',"{'xmin': -99.13069152832031, 'ymin': 19.290443420410156, 'xmax': -99.13069152832031, 'ymax': 19.290443420410156}",dining and drinking > restaurant > mexican restaurant > taco restaurant,1
53add89a498eec2a46c11a2b,boca grande,19.28616101351222,-99.63850946501931,,,,,,,,MX,2014-06-27,2021-08-16,,,,,,,,['4bf58dd8d48988d151941735'],['Dining and Drinking > Restaurant > Mexican Restaurant > Taco Restaurant'],"b'\x00\x00\x00\x00\x01\xc0X\xe8\xddV\xcd\x9cq@3IA\xd9""l\xda'","{'xmin': -99.63850946501931, 'ymin': 19.28616101351222, 'xmax': -99.63850946501931, 'ymax': 19.28616101351222}",dining and drinking > restaurant > mexican restaurant > taco restaurant,1
52887fbd498e03591bd567ed,Tacos de Doña Domy,18.809654235839844,-99.19918060302734,,,,,,,,MX,2013-11-17,2021-08-14,,,,,,,,['4bf58dd8d48988d151941735'],['Dining and Drinking > Restaurant > Mexican Restaurant > Taco Restaurant'],b'\x00\x00\x00\x00\x01\xc0X\xcc\xbf`\x00\x00\x00@2\xcfE\x80\x00\x00\x00',"{'xmin': -99.19918060302734, 'ymin': 18.809654235839844, 'xmax': -99.19918060302734, 'ymax': 18.809654235839844}",dining and drinking > restaurant > mexican restaurant > taco restaurant,1
5cf70b4cf2554e002ce77765,Don Che,19.25521,-99.607927,Pedro Asencio #604,Metepec,Edomex,52140,,,,MX,2019-06-05,2023-09-12,,,,,,,,"['4bf58dd8d48988d1c1941735' '4bf58dd8d48988d151941735'
 '4bf58dd8d48988d16c941735']","['Dining and Drinking > Restaurant > Mexican Restaurant'
 'Dining and Drinking > Restaurant > Mexican Restaurant > Taco Restaurant'
 'Dining and Drinking > Restaurant > Burger Joint']",b'\x00\x00\x00\x00\x01\xc0X\xe6\xe8F\xa5\xd6\xbf@3AUqK\x9c\xb7',"{'xmin': -99.607927, 'ymin': 19.25521, 'xmax': -99.607927, 'ymax': 19.25521}","dining and drinking > restaurant > mexican restaurant, dining and drinking > restaurant > mexican restaurant > taco restaurant, dining and drinking > restaurant > burger joint",1
52eab57211d24c9cc1bad372,Huaraches prepa 5,19.263005,-99.643995,,,,,,,,MX,2014-01-30,2020-11-24,,,,,,,,['4bf58dd8d48988d151941735'],['Dining and Drinking > Restaurant > Mexican Restaurant > Taco Restaurant'],b'\x00\x00\x00\x00\x01\xc0X\xe976\xcd\xf2g@3CTK\xb1\xaf:',"{'xmin': -99.643995, 'ymin': 19.263005, 'xmax': -99.643995, 'ymax': 19.263005}",dining and drinking > restaurant > mexican restaurant > taco restaurant,1
4d939b78eccda14349770e55,Food Market,19.28523225491375,-99.1363627803809,Puente 222,Ciudad de México,Distrito Federal,14380,,,,MX,2011-03-30,2020-11-22,,,http://www.itesm.edu/wps/wcm/connect/Campus/CCM/Ciudad+de+Mexico/,,,,Tec_CCM,"['4bf58dd8d48988d120951735' '4bf58dd8d48988d151941735'
 '4bf58dd8d48988d112941735']","['Dining and Drinking > Food Court'
 'Dining and Drinking > Restaurant > Mexican Restaurant > Taco Restaurant'
 'Dining and Drinking > Juice Bar']",b'\x00\x00\x00\x00\x01\xc0X\xc8\xba*\xf4\x88+@3I\x04\xfb&\x9ep',"{'xmin': -99.1363627803809, 'ymin': 19.28523225491375, 'xmax': -99.1363627803809, 'ymax': 19.28523225491375}","dining and drinking > food court, dining and drinking > restaurant > mexican restaurant > taco restaurant, dining and drinking > juice bar",1
4fd4f2f5e4b0f961a859d60e,Tacos Estelita,19.305181,-99.234495,,,,,,,,MX,2012-06-10,2021-08-16,,,,,,,,['4bf58dd8d48988d151941735'],['Dining and Drinking > Restaurant > Mexican Restaurant > Taco Restaurant'],b'\x00\x00\x00\x00\x01\xc0X\xcf\x01\xf7Q\x04\xd5@3N W\x8e\\O',"{'xmin': -99.234495, 'ymin': 19.305181, 'xmax': -99.234495, 'ymax': 19.305181}",dining and drinking > restaurant > mexican restaurant > taco restaurant,1
55f901fb498e87e7ed8e4269,Tacos de tripa Mary,19.66798116007101,-101.52414232606148,Benito Juárez,Quiroga,Michoacán,58420,,,,MX,2015-09-16,2020-11-22,,,,,,,,['4bf58dd8d48988d151941735'],['Dining and Drinking > Restaurant > Mexican Restaurant > Taco Restaurant'],b'\x00\x00\x00\x00\x01\xc0Ya\x8b\x8cA8\x8a@3\xab\x00\xd04\xd9a',"{'xmin': -101.52414232606148, 'ymin': 19.66798116007101, 'xmax': -101.52414232606148, 'ymax': 19.66798116007101}",dining and drinking > restaurant > mexican restaurant > taco restaurant,1
4ed069edb8f7971d6aad27b7,Tortas Azteca,19.325457216172182,-99.15837924075589,,Ciudad de México,Distrito Federal,,,,,MX,2011-11-26,2020-11-20,,,,,,,,['4bf58dd8d48988d151941735'],['Dining and Drinking > Restaurant > Mexican Restaurant > Taco Restaurant'],"b'\x00\x00\x00\x00\x01\xc0X\xca""\xe2\xae\xda\\@3SQ*\x03\xb4\xec'","{'xmin': -99.15837924075589, 'ymin': 19.325457216172182, 'xmax': -99.15837924075589, 'ymax': 19.325457216172182}",dining and drinking > restaurant > mexican restaurant > taco restaurant,1
50a1df65e4b02fa534382c47,Tacos Arabes  Basam,18.8658547088258,-97.09932227736695,,,,,,,,MX,2012-11-13,2021-08-10,,,,,,,,['4bf58dd8d48988d151941735'],['Dining and Drinking > Restaurant > Mexican Restaurant > Taco Restaurant'],b'\x00\x00\x00\x00\x01\xc0XF[K\xd3C\x8a@2\xdd\xa8\xa7y~\x92',"{'xmin': -97.09932227736695, 'ymin': 18.8658547088258, 'xmax': -97.09932227736695, 'ymax': 18.8658547088258}",dining and drinking > restaurant > mexican restaurant > taco restaurant,1
57706235498e10ec3d1498c1,Taqueria no que no,17.554198,-99.519348,,,,,,,,MX,2016-06-26,2021-08-13,,,,,,,,['4bf58dd8d48988d151941735'],['Dining and Drinking > Restaurant > Mexican Restaurant > Taco Restaurant'],b'\x00\x00\x00\x00\x01\xc0X\xe1<\xffd\xcf\x8d@1\x8d\xdf\xeb\x8d\x824',"{'xmin': -99.519348, 'ymin': 17.554198, 'xmax': -99.519348, 'ymax': 17.554198}",dining and drinking > restaurant > mexican restaurant > taco restaurant,1
58673e332c55ec073779fd0b,Taqueria Moya,20.298985,-103.188825,Pepe Guízar,Chapala,Jalisco,,,,,MX,2016-12-31,2020-11-30,,,,,,,,['4bf58dd8d48988d151941735'],['Dining and Drinking > Restaurant > Mexican Restaurant > Taco Restaurant'],b'\x00\x00\x00\x00\x01\xc0Y\xcc\x15\xb5s\xea\xb3@4L\x8aG\xec\xfe\x9b',"{'xmin': -103.188825, 'ymin': 20.298985, 'xmax': -103.188825, 'ymax': 20.298985}",dining and drinking > restaurant > mexican restaurant > taco restaurant,1
52ec8633498e3a81123be55b,"Tacos ""El Chino""",18.555322057657694,-99.6027268038318,,,,,,,,MX,2014-02-01,2021-08-17,,,,,,,,['4bf58dd8d48988d151941735'],['Dining and Drinking > Restaurant > Mexican Restaurant > Taco Restaurant'],b'\x00\x00\x00\x00\x01\xc0X\xe6\x93\x13q\xb8U@2\x8e)\x96\x1cc!',"{'xmin': -99.6027268038318, 'ymin': 18.555322057657694, 'xmax': -99.6027268038318, 'ymax': 18.555322057657694}",dining and drinking > restaurant > mexican restaurant > taco restaurant,1
4d31f8ab5017a093d7ab449b,Tacos Del Chino,18.946170605285218,-99.23518628080534,,,,,,,,MX,2011-01-15,2021-08-16,,,,,,,,['4bf58dd8d48988d151941735'],['Dining and Drinking > Restaurant > Mexican Restaurant > Taco Restaurant'],"b'\x00\x00\x00\x00\x01\xc0X\xcf\rJ\xc2!\xb7@2\xf28<\x9e""\xf4'","{'xmin': -99.23518628080534, 'ymin': 18.946170605285218, 'xmax': -99.23518628080534, 'ymax': 18.946170605285218}",dining and drinking > restaurant > mexican restaurant > taco restaurant,1
549633ae498eff4bb462a840,Las Quekas de Silvia,19.334514617919922,-99.11031341552734,,,,,,,,MX,2014-12-21,2021-08-15,,,,,,,,['4bf58dd8d48988d151941735'],['Dining and Drinking > Restaurant > Mexican Restaurant > Taco Restaurant'],b'\x00\x00\x00\x00\x01\xc0X\xc7\x0f`\x00\x00\x00@3U\xa2\xc0\x00\x00\x00',"{'xmin': -99.11031341552734, 'ymin': 19.334514617919922, 'xmax': -99.11031341552734, 'ymax': 19.334514617919922}",dining and drinking > restaurant > mexican restaurant > taco restaurant,1
5126d113e4b05d346a733141,George's Tacos,19.303549,-99.649966,,,,,,,,MX,2013-02-22,2021-08-12,,,,,,,,['4bf58dd8d48988d151941735'],['Dining and Drinking > Restaurant > Mexican Restaurant > Taco Restaurant'],b'\x00\x00\x00\x00\x01\xc0X\xe9\x99\n\xfe`\xc4@3M\xb5c#\xbb\xc7',"{'xmin': -99.649966, 'ymin': 19.303549, 'xmax': -99.649966, 'ymax': 19.303549}",dining and drinking > restaurant > mexican restaurant > taco restaurant,1
50c170c6e4b052c5b5495c5c,combinados,17.065319212375833,-96.71890779105738,,Oaxaca,Oaxaca,,,,,MX,2012-12-07,2023-12-20,,951 133 4046,,,,,,['4bf58dd8d48988d151941735'],['Dining and Drinking > Restaurant > Mexican Restaurant > Taco Restaurant'],b'\x00\x00\x00\x00\x01\xc0X.\x02\x95\xd2\xdb\x96@1\x10\xb8\xc2\x88\xf4f',"{'xmin': -96.71890779105738, 'ymin': 17.065319212375833, 'xmax': -96.71890779105738, 'ymax': 17.065319212375833}",dining and drinking > restaurant > mexican restaurant > taco restaurant,1
5c4df1ef75dcb7002ce560a5,Taco Queto,19.2958,-99.11002,Sauzales,Ciudad de México,Ciudad de México,14330,,,,MX,2019-01-27,2020-11-22,,,,,,,,['4bf58dd8d48988d151941735'],['Dining and Drinking > Restaurant > Mexican Restaurant > Taco Restaurant'],b'\x00\x00\x00\x00\x01\xc0X\xc7\n\x91Sy\xfb@3K\xb9\x8c~($',"{'xmin': -99.11002, 'ymin': 19.2958, 'xmax': -99.11002, 'ymax': 19.2958}",dining and drinking > restaurant > mexican restaurant > taco restaurant,1
4fc936d4e4b0a40e5e32ca18,Tacos + Tacos,17.032266385194205,-96.71314506002005,Símbolos Patrios,Oaxaca,Oaxaca,,,,,MX,2012-06-01,2020-11-25,,,,,,,,['4bf58dd8d48988d151941735'],['Dining and Drinking > Restaurant > Mexican Restaurant > Taco Restaurant'],b'\x00\x00\x00\x00\x01\xc0X-\xa4+-\x85\xc4@1\x08B\x9c\x1d+T',"{'xmin': -96.71314506002005, 'ymin': 17.032266385194205, 'xmax': -96.71314506002005, 'ymax': 17.032266385194205}",dining and drinking > restaurant > mexican restaurant > taco restaurant,1
5170c798498e8c90ea464bcf,Tacos Alex,18.912513167778346,-103.88012560943051,Libertad,Tecoman,colima,,,,,MX,2013-04-19,2020-11-30,,313 324 4708,,,,,,['4bf58dd8d48988d151941735'],['Dining and Drinking > Restaurant > Mexican Restaurant > Taco Restaurant'],b'\x00\x00\x00\x00\x01\xc0Y\xf8S\xfa]8\x12@2\xe9\x9av\x84\xc7\x01',"{'xmin': -103.88012560943051, 'ymin': 18.912513167778346, 'xmax': -103.88012560943051, 'ymax': 18.912513167778346}",dining and drinking > restaurant > mexican restaurant > taco restaurant,1
63784a87b6eb937cad9f3ef7,Taquería Brujitos (Nueva Ubicación),19.289549,-99.117801,Calz Acoxpa,Tlalpan,CDMX,14390,,,,MX,2022-11-19,2022-12-09,,,,,,,,['4bf58dd8d48988d151941735'],['Dining and Drinking > Restaurant > Mexican Restaurant > Taco Restaurant'],b'\x00\x00\x00\x00\x01\xc0X\xc7\x8a\r4\x9b\xe9@3J\x1f\xe2\x1d\x96\xea',"{'xmin': -99.117801, 'ymin': 19.289549, 'xmax': -99.117801, 'ymax': 19.289549}",dining and drinking > restaurant > mexican restaurant > taco restaurant,1
57300cc0498eb4ab4f8396ee,El Fogonzito,17.804136,-97.78216,5 De Febrero,Huajuapan De León,Oaxaca,,,,,MX,2016-05-09,2020-11-23,,,,,,,,['4bf58dd8d48988d151941735'],['Dining and Drinking > Restaurant > Mexican Restaurant > Taco Restaurant'],b'\x00\x00\x00\x00\x01\xc0Xr\x0e\xe8\xd1\x0fR@1\xcd\xdb\xdb]\x89H',"{'xmin': -97.78216, 'ymin': 17.804136, 'xmax': -97.78216, 'ymax': 17.804136}",dining and drinking > restaurant > mexican restaurant > taco restaurant,1
4fa59761e4b0862c752b18c0,TACOS LA PROSPERIDAD,16.209138,-95.204684,CARRETERA TRANSISMICA,SALINA CRUZ,OAXACA,,,,,MX,2012-05-05,2020-11-26,,,,,,,,['4bf58dd8d48988d151941735'],['Dining and Drinking > Restaurant > Mexican Restaurant > Taco Restaurant'],b'\x00\x00\x00\x00\x01\xc0W\xcd\x19\x8a\xeb\x80\xed@05\x8a\x11fY\xd1',"{'xmin': -95.204684, 'ymin': 16.209138, 'xmax': -95.204684, 'ymax': 16.209138}",dining and drinking > restaurant > mexican restaurant > taco restaurant,1
52ca2b14498e75e0c4c34c11,Tacos de Don Goyo,19.265594758342953,-99.11163316823084,Guadalupe I. Ramírez,Xochimilco,,,,,,MX,2012-02-29,2021-11-27,,,,,,,,['4bf58dd8d48988d151941735'],['Dining and Drinking > Restaurant > Mexican Restaurant > Taco Restaurant'],b'\x00\x00\x00\x00\x01\xc0X\xc7$\xffq\xac\xd2@3C\xfe\x04\xa1\x12o',"{'xmin': -99.11163316823084, 'ymin': 19.265594758342953, 'xmax': -99.11163316823084, 'ymax': 19.265594758342953}",dining and drinking > restaurant > mexican restaurant > taco restaurant,1
545fb6d6498e1f6bee7fa3a4,Tianguis arboledas,19.328776355243132,-99.05381287797898,,,,,,,,MX,2014-11-09,2021-08-13,,,,,,,,['4bf58dd8d48988d151941735'],['Dining and Drinking > Restaurant > Mexican Restaurant > Taco Restaurant'],b'\x00\x00\x00\x00\x01\xc0X\xc3q\xab\x91\xc1\x7f@3T*\xaf\xedw\xa3',"{'xmin': -99.05381287797898, 'ymin': 19.328776355243132, 'xmax': -99.05381287797898, 'ymax': 19.328776355243132}",dining and drinking > restaurant > mexican restaurant > taco restaurant,1
50a556cae4b0c015fa265a0d,"Tacos “El Cumbayo""",18.081014,-96.121923,Interior Del Mercado,"Tuxtepec, Oaxaca",,,,,,MX,2012-11-15,2020-11-30,,,,,,,,['4bf58dd8d48988d151941735'],['Dining and Drinking > Restaurant > Mexican Restaurant > Taco Restaurant'],b'\x00\x00\x00\x00\x01\xc0X\x07\xcd\x96 hU@2\x14\xbdU`\x84\xa5',"{'xmin': -96.121923, 'ymin': 18.081014, 'xmax': -96.121923, 'ymax': 18.081014}",dining and drinking > restaurant > mexican restaurant > taco restaurant,1
4decea8522713dd973d12db8,Carnitas Los Vikingos,18.89059427392865,-99.22827586494306,Autopista Mexico-Acapulco,Cuernavaca,MOR,,,,,MX,2011-06-06,2020-11-22,,,,,,,,['4bf58dd8d48988d151941735'],['Dining and Drinking > Restaurant > Mexican Restaurant > Taco Restaurant'],b'\x00\x00\x00\x00\x01\xc0X\xce\x9c\x12_\x99a@2\xe3\xfd\xfc\x80\x87F',"{'xmin': -99.22827586494306, 'ymin': 18.89059427392865, 'xmax': -99.22827586494306, 'ymax': 18.89059427392865}",dining and drinking > restaurant > mexican restaurant > taco restaurant,1
4e7bd89e887742fc66458ae7,"Tacos ""La Pasadita""",18.874319979637438,-99.22584287304767,Av. Puebla,Cuernavaca,Morelos,,,,,MX,2011-09-23,2020-11-22,,,,,,,,['4bf58dd8d48988d151941735'],['Dining and Drinking > Restaurant > Mexican Restaurant > Taco Restaurant'],b'\x00\x00\x00\x00\x01\xc0X\xcet5\xaaq\x90@2\xdf\xd3o&\xc8=',"{'xmin': -99.22584287304767, 'ymin': 18.874319979637438, 'xmax': -99.22584287304767, 'ymax': 18.874319979637438}",dining and drinking > restaurant > mexican restaurant > taco restaurant,1
571b1aa0498e52f5b07a1571,Taqueria la piña,19.703047,-103.478631,,,,,,,,MX,2016-04-23,2021-08-10,,,,,,,,['4bf58dd8d48988d151941735'],['Dining and Drinking > Restaurant > Mexican Restaurant > Taco Restaurant'],b'\x00\x00\x00\x00\x01\xc0Y\xde\xa1\xe3\xea\xf6\x83@3\xb3\xfa\xe3`\x8d\t',"{'xmin': -103.478631, 'ymin': 19.703047, 'xmax': -103.478631, 'ymax': 19.703047}",dining and drinking > restaurant > mexican restaurant > taco restaurant,1
5876ecd0e11095762ad23a04,Tacos y Gordas de Don Rafa,16.235242,-92.143646,,,,,,,,MX,2017-01-12,2023-12-20,,961 176 0829,,,,,,['4bf58dd8d48988d151941735'],['Dining and Drinking > Restaurant > Mexican Restaurant > Taco Restaurant'],b'\x00\x00\x00\x00\x01\xc0W\t1~\xfe\x0c\xe1@0<8\xd1\xd8\xa5H',"{'xmin': -92.143646, 'ymin': 16.235242, 'xmax': -92.143646, 'ymax': 16.235242}",dining and drinking > restaurant > mexican restaurant > taco restaurant,1
5904e37435d3fc7ff2b982ed,Premium Carnitas,19.256166,-99.68055,,Cacalomacán,State of Mexico,,,,,MX,2017-04-29,2020-11-30,,,,,,,,['4bf58dd8d48988d151941735'],['Dining and Drinking > Restaurant > Mexican Restaurant > Taco Restaurant'],b'\x00\x00\x00\x00\x01\xc0X\xeb\x8e!\x96R\xbd@3A\x94\x18PX\xde',"{'xmin': -99.68055, 'ymin': 19.256166, 'xmax': -99.68055, 'ymax': 19.256166}",dining and drinking > restaurant > mexican restaurant > taco restaurant,1
538b589d498ef911b529c7e8,Barbacoa el Toluco,19.314783,-99.103929,,,,,,,,MX,2014-06-01,2021-08-12,,,,,,,,['4bf58dd8d48988d151941735'],['Dining and Drinking > Restaurant > Mexican Restaurant > Taco Restaurant'],b'\x00\x00\x00\x00\x01\xc0X\xc6\xa6\xc5\xd2\x06\xc8@3P\x95\x9ebV6',"{'xmin': -99.103929, 'ymin': 19.314783, 'xmax': -99.103929, 'ymax': 19.314783}",dining and drinking > restaurant > mexican restaurant > taco restaurant,1
4c98fd1ef419a0938d6f7488,Tacos de bisteck,19.297955079995166,-99.18549963258823,Metrobus Villa Olimpica,Distrito Federal,Mexico,,,,,MX,2010-09-21,2020-11-25,,,,,,,,['4bf58dd8d48988d1c1941735' '4bf58dd8d48988d151941735'],"['Dining and Drinking > Restaurant > Mexican Restaurant'
 'Dining and Drinking > Restaurant > Mexican Restaurant > Taco Restaurant']",b'\x00\x00\x00\x00\x01\xc0X\xcb\xdf9\xd9\xd8\xbc@3LF\xc8\xbcA\x9d',"{'xmin': -99.18549963258823, 'ymin': 19.297955079995166, 'xmax': -99.18549963258823, 'ymax': 19.297955079995166}","dining and drinking > restaurant > mexican restaurant, dining and drinking > restaurant > mexican restaurant > taco restaurant",1
549f9ddf498e54b4405269c2,"Tacos ""El Piolin""",19.33716716503689,-99.14505847767975,Av. de las Rosas 69-Local 1,Coyoacán,Distrito Federal,04370,,,,MX,2014-12-28,2023-02-18,,55 5689 4497,,,,,,['4bf58dd8d48988d151941735'],['Dining and Drinking > Restaurant > Mexican Restaurant > Taco Restaurant'],b'\x00\x00\x00\x00\x01\xc0X\xc9H\xa3Zi\x18@3VP\x96[\x1eU',"{'xmin': -99.14505847767975, 'ymin': 19.33716716503689, 'xmax': -99.14505847767975, 'ymax': 19.33716716503689}",dining and drinking > restaurant > mexican restaurant > taco restaurant,1
4f8248bde4b0cd6f637aec5e,Tacos El Chavito,19.33463736368108,-99.0802496730217,Nautla,Mexico,Df,09850,,,,MX,2012-04-09,2020-11-23,,,,,,,,['4bf58dd8d48988d151941735'],['Dining and Drinking > Restaurant > Mexican Restaurant > Taco Restaurant'],"b'\x00\x00\x00\x00\x01\xc0X\xc5""\xcf\x86I%@3U\xaa\xcbU\x07\xa7'","{'xmin': -99.0802496730217, 'ymin': 19.33463736368108, 'xmax': -99.0802496730217, 'ymax': 19.33463736368108}",dining and drinking > restaurant > mexican restaurant > taco restaurant,1
4f92154ee4b0b745b29d6b5b,La adelita,17.033082539072765,-96.72890366660471,,,,,,,,MX,2012-04-21,2021-08-15,,,,,,,,['4bf58dd8d48988d151941735'],['Dining and Drinking > Restaurant > Mexican Restaurant > Taco Restaurant'],b'\x00\x00\x00\x00\x01\xc0X.\xa6[\x90\x80\x1c@1\x08x\x18\xe7b\xdc',"{'xmin': -96.72890366660471, 'ymin': 17.033082539072765, 'xmax': -96.72890366660471, 'ymax': 17.033082539072765}",dining and drinking > restaurant > mexican restaurant > taco restaurant,1
58cc0287460dd92fa83558ae,rincon azteca,19.341705,-99.028412,,,,,,,,MX,2017-03-17,2021-08-17,,,,,,,,['4bf58dd8d48988d151941735'],['Dining and Drinking > Restaurant > Mexican Restaurant > Taco Restaurant'],b'\x00\x00\x00\x00\x01\xc0X\xc1\xd1\x80\x90\xb4\x18@3Wy\xfa\x97\xe13',"{'xmin': -99.028412, 'ymin': 19.341705, 'xmax': -99.028412, 'ymax': 19.341705}",dining and drinking > restaurant > mexican restaurant > taco restaurant,1
5265b9df498eb13284df00c3,Tacos De Pastor,19.311116,-99.111058,,,,,,,,MX,2013-10-21,2021-08-15,,,,,,,,['4bf58dd8d48988d151941735'],['Dining and Drinking > Restaurant > Mexican Restaurant > Taco Restaurant'],b'\x00\x00\x00\x00\x01\xc0X\xc7\x1b\x93\x03}c@3O\xa5LUC(',"{'xmin': -99.111058, 'ymin': 19.311116, 'xmax': -99.111058, 'ymax': 19.311116}",dining and drinking > restaurant > mexican restaurant > taco restaurant,1
5088a488e4b07178d08ab559,Tacos Al Carbón Charmin,18.95188479220675,-99.23007419588868,,,,,,,,MX,2012-10-25,2021-08-11,,,,,,,,['4bf58dd8d48988d151941735'],['Dining and Drinking > Restaurant > Mexican Restaurant > Taco Restaurant'],b'\x00\x00\x00\x00\x01\xc0X\xce\xb9\x89\x1e\xbf\xb4@2\xf3\xae\xb8\xc4\x16w',"{'xmin': -99.23007419588868, 'ymin': 18.95188479220675, 'xmax': -99.23007419588868, 'ymax': 18.95188479220675}",dining and drinking > restaurant > mexican restaurant > taco restaurant,1
5202ff44498e1b7df50cd4bc,Taqueria Ceci,19.3288,-99.1691,,,,,,,,MX,2013-08-08,2021-08-15,,,,,,,,['4bf58dd8d48988d151941735'],['Dining and Drinking > Restaurant > Mexican Restaurant > Taco Restaurant'],"b'\x00\x00\x00\x00\x01\xc0X\xca\xd2\x88\xcep;@3T,<\x9e\xec\xc0'","{'xmin': -99.1691, 'ymin': 19.3288, 'xmax': -99.1691, 'ymax': 19.3288}",dining and drinking > restaurant > mexican restaurant > taco restaurant,1
500a126fe4b02f47f6afcc36,Taquería Villalobos,18.030970146553706,-95.52866817980797,Nicolas Bravo,Villa Isla,Veracruz,,,,,MX,2012-07-21,2020-11-30,,,,,,,,['4bf58dd8d48988d151941735'],['Dining and Drinking > Restaurant > Mexican Restaurant > Taco Restaurant'],b'\x00\x00\x00\x00\x01\xc0W\xe1\xd5\xb3\x0f\xad\x82@2\x07\xed\xa8\xd6\x99\xba',"{'xmin': -95.52866817980797, 'ymin': 18.030970146553706, 'xmax': -95.52866817980797, 'ymax': 18.030970146553706}",dining and drinking > restaurant > mexican restaurant > taco restaurant,1
4ecc4d707ee51c2d4ff9aea2,Tacos Chente,18.972333183537035,-99.24593785606343,Universidad,Cuernavaca,Morelos,,,,,MX,2011-11-23,2020-11-30,,,,,,,,['4bf58dd8d48988d151941735'],['Dining and Drinking > Restaurant > Mexican Restaurant > Taco Restaurant'],"b'\x00\x00\x00\x00\x01\xc0X\xcf\xbdr"")\x03@2\xf8\xea\xd3\xd8\x1bm'","{'xmin': -99.24593785606343, 'ymin': 18.972333183537035, 'xmax': -99.24593785606343, 'ymax': 18.972333183537035}",dining and drinking > restaurant > mexican restaurant > taco restaurant,1
4f6f694be4b0e42844219ccf,Tacos La Fama,19.27765883023399,-99.59667755547349,,,,,,,,MX,2012-03-25,2020-11-25,,,,,,,,['4bf58dd8d48988d151941735'],['Dining and Drinking > Restaurant > Mexican Restaurant > Taco Restaurant'],b'\x00\x00\x00\x00\x01\xc0X\xe6/\xf7\x0e\xc1\x04@3G\x14\xa6+L\xf4',"{'xmin': -99.59667755547349, 'ymin': 19.27765883023399, 'xmax': -99.59667755547349, 'ymax': 19.27765883023399}",dining and drinking > restaurant > mexican restaurant > taco restaurant,1
5349a70a498e5e5f2307f14a,Carnitas Costa,19.292764,-99.116021,,,,,,,,MX,2014-04-12,2021-08-11,,,,,,,,['4bf58dd8d48988d151941735'],['Dining and Drinking > Restaurant > Mexican Restaurant > Taco Restaurant'],b'\x00\x00\x00\x00\x01\xc0X\xc7l\xe3X)\x8d@3J\xf2\x94\xddr6',"{'xmin': -99.116021, 'ymin': 19.292764, 'xmax': -99.116021, 'ymax': 19.292764}",dining and drinking > restaurant > mexican restaurant > taco restaurant,1
9b1cff456474468a7ce751a3,Tacos el Salto,20.513503,-103.238323,El Salto El Verde 47,El Salto,Jalisco,45685,,,,MX,2013-03-24,2023-12-06,,33 3688 1815,,,,,,['4bf58dd8d48988d151941735' '4d4b7105d754a06378d81259'],"['Dining and Drinking > Restaurant > Mexican Restaurant > Taco Restaurant'
 'Retail']",b'\x00\x00\x00\x00\x01\xc0Y\xcf@\xaf\x1c\xb8\x9d@4\x83t\xee\xbfe\xdc',"{'xmin': -103.238323, 'ymin': 20.513503, 'xmax': -103.238323, 'ymax': 20.513503}","dining and drinking > restaurant > mexican restaurant > taco restaurant, retail",1
54b31c19498ef4fbd395ef86,"Taquería ""El Pastorcito Del Sur""",19.30102745590171,-99.0636014581411,Av. La Turba,Delegación Tláhuac,Distrito Federal,,,,,MX,2015-01-12,2020-11-24,,,,,,,,['4bf58dd8d48988d151941735'],['Dining and Drinking > Restaurant > Mexican Restaurant > Taco Restaurant'],"b'\x00\x00\x00\x00\x01\xc0X\xc4\x12\x0b\xd9\xaci@3M\x10""\xa6K\xc2'","{'xmin': -99.0636014581411, 'ymin': 19.30102745590171, 'xmax': -99.0636014581411, 'ymax': 19.30102745590171}",dining and drinking > restaurant > mexican restaurant > taco restaurant,1
59079e3acab4106231ac93f7,La Parrilla Toluqueña,19.287638,-99.63978,Guillermo Prieto 310,Toluca,Mexico,,,,,MX,2017-05-01,2020-11-22,,,,,,,,['4bf58dd8d48988d151941735'],['Dining and Drinking > Restaurant > Mexican Restaurant > Taco Restaurant'],"b""\x00\x00\x00\x00\x01\xc0X\xe8\xf2'\xd0(\xa2@3I\xa2\xa4\xdb\x16<""","{'xmin': -99.63978, 'ymin': 19.287638, 'xmax': -99.63978, 'ymax': 19.287638}",dining and drinking > restaurant > mexican restaurant > taco restaurant,1
5daa598fbe7d890007d79fcf,Tacos Y Quesadillas Bet-Hel,19.303674,-99.080288,,Ciudad de México,CDMX,09970,,,,MX,2019-10-19,2020-11-24,,,,,,,,['4bf58dd8d48988d151941735'],['Dining and Drinking > Restaurant > Mexican Restaurant > Taco Restaurant'],b'\x00\x00\x00\x00\x01\xc0X\xc5#pG\x90\xb8@3M\xbd\x94J\xa5@',"{'xmin': -99.080288, 'ymin': 19.303674, 'xmax': -99.080288, 'ymax': 19.303674}",dining and drinking > restaurant > mexican restaurant > taco restaurant,1
5100b822e4b0dbb0c45a158d,carnitas de la chata,19.279077561199895,-99.63533396525462,Juan B. Garza #1,Toluca,mexico,50150,,,,MX,2013-01-24,2020-11-25,,,,,,,,['4bf58dd8d48988d151941735'],['Dining and Drinking > Restaurant > Mexican Restaurant > Taco Restaurant'],b'\x00\x00\x00\x00\x01\xc0X\xe8\xa9O\xca\xb3\x9f@3Gq\xa0\x86f\xa7',"{'xmin': -99.63533396525462, 'ymin': 19.279077561199895, 'xmax': -99.63533396525462, 'ymax': 19.279077561199895}",dining and drinking > restaurant > mexican restaurant > taco restaurant,1
59f685d2f96b2c39568f5cce,Tacos Don Mario,18.916647,-100.147736,,Tejupilco de Hidalgo,Edomex,51412,,,,MX,2017-10-30,2020-11-25,,,,,,,,['4bf58dd8d48988d151941735'],['Dining and Drinking > Restaurant > Mexican Restaurant > Taco Restaurant'],b'\x00\x00\x00\x00\x01\xc0Y\tt\x81\xb2\x1cG@2\xea\xa9`\xb6\xf9\xfd',"{'xmin': -100.147736, 'ymin': 18.916647, 'xmax': -100.147736, 'ymax': 18.916647}",dining and drinking > restaurant > mexican restaurant > taco restaurant,1
6628792ad5ccac4396f1a4d6,La Norteñita,17.547518,-98.57444,,Tlapa de Comonfort,Guerrero,41300,,,,MX,2024-04-24,2024-04-24,,,,,,,,['4bf58dd8d48988d151941735'],['Dining and Drinking > Restaurant > Mexican Restaurant > Taco Restaurant'],b'\x00\x00\x00\x00\x01\xc0X\xa4\xc3\x9f\xfd`\xe9@1\x8c*#\xbf\xf8\xa9',"{'xmin': -98.57444, 'ymin': 17.547518, 'xmax': -98.57444, 'ymax': 17.547518}",dining and drinking > restaurant > mexican restaurant > taco restaurant,1
520ee96111d2be9b1db126c8,Quesadillas El Wero,19.255712,-99.633468,,,,,,,,MX,2013-08-17,2020-11-24,,,,,,,,['4bf58dd8d48988d151941735'],['Dining and Drinking > Restaurant > Mexican Restaurant > Taco Restaurant'],b'\x00\x00\x00\x00\x01\xc0X\xe8\x8a\xbd]\xc4\x00@3AvWu1\xdb',"{'xmin': -99.633468, 'ymin': 19.255712, 'xmax': -99.633468, 'ymax': 19.255712}",dining and drinking > restaurant > mexican restaurant > taco restaurant,1
5263006511d2266b1e25871c,K-Pez,19.172637742114418,-96.12561018880346,Colon #610-1,Veracruz,ver,,,,,MX,2013-10-19,2020-11-23,,,,,,,,['4bf58dd8d48988d151941735'],['Dining and Drinking > Restaurant > Mexican Restaurant > Taco Restaurant'],"b'\x00\x00\x00\x00\x01\xc0X\x08\t\xffQ=#@3,1\xfc\xb0o\xcc'","{'xmin': -96.12561018880346, 'ymin': 19.172637742114418, 'xmax': -96.12561018880346, 'ymax': 19.172637742114418}",dining and drinking > restaurant > mexican restaurant > taco restaurant,1
