fsq_place_id,name,latitude,longitude,address,locality,region,postcode,admin_region,post_town,po_box,country,date_created,date_refreshed,date_closed,tel,website,email,facebook_id,instagram,twitter,fsq_category_ids,fsq_category_labels,geom,bbox,labels_str,taco_restaurant
52c77ed17c9c44f9e70841f4,El Laboratorio de los Chimoles - Tacos Guisados,,,Rotograbados 177,Ciudad de México,Ciudad de México,17720,,,,MX,2010-07-15,2023-12-06,,,,,,,,['4bf58dd8d48988d151941735'],['Dining and Drinking > Restaurant > Mexican Restaurant > Taco Restaurant'],,"{'xmin': None, 'ymin': None, 'xmax': None, 'ymax': None}",dining and drinking > restaurant > mexican restaurant > taco restaurant,1
51ca07c8498e0b8e450ac6ad,"Tacos Tito,s",32.36536639394699,-117.05470121468112,,,,,,,,MX,2013-06-25,2021-08-14,,,,,,,,['4bf58dd8d48988d151941735'],['Dining and Drinking > Restaurant > Mexican Restaurant > Taco Restaurant'],b'\x00\x00\x00\x00\x01\xc0]C\x809\x86\x06\xd7@@.\xc4St\x87\xa7',"{'xmin': -117.05470121468112, 'ymin': 32.36536639394699, 'xmax': -117.05470121468112, 'ymax': 32.36536639394699}",dining and drinking > restaurant > mexican restaurant > taco restaurant,1
582ffc619465dd7874e06108,Asadero Ambar,31.881646,-116.62043,,,,,,,,MX,2016-11-19,2021-08-15,,,,,,,,['4bf58dd8d48988d151941735'],['Dining and Drinking > Restaurant > Mexican Restaurant > Taco Restaurant'],"b""\x00\x00\x00\x00\x01\xc0]'\xb5 \x07\xddD@?\xe1\xb3\x8d`\xa63""","{'xmin': -116.62043, 'ymin': 31.881646, 'xmax': -116.62043, 'ymax': 31.881646}",dining and drinking > restaurant > mexican restaurant > taco restaurant,1
5822be04df57f32c8f5a063d,Taqueria Kairos Iztapalapa - TJ,32.471573,-117.01665,,Tijuana,Baja California,,,,,MX,2016-11-09,2020-11-23,,,,,,,,['4bf58dd8d48988d151941735'],['Dining and Drinking > Restaurant > Mexican Restaurant > Taco Restaurant'],b'\x00\x00\x00\x00\x01\xc0]A\x10\xcb)^\x9e@@<\\\x81\nV\x9b',"{'xmin': -117.01665, 'ymin': 32.471573, 'xmax': -117.01665, 'ymax': 32.471573}",dining and drinking > restaurant > mexican restaurant > taco restaurant,1
4d1813b18312236adca362ba,Tacos El Chipilon,32.46804920633347,-114.75957740965016,Revolucion y 21,,SONORA,,,,,MX,2010-12-27,2024-01-04,,653 518 3240,http://www.tacoselchipilon.com,,,,,['4bf58dd8d48988d151941735'],['Dining and Drinking > Restaurant > Mexican Restaurant > Taco Restaurant'],b'\x00\x00\x00\x00\x01\xc0\\\xb0\x9c\xea\x91N\x95@@;\xe9\tQ\x0f}',"{'xmin': -114.75957740965016, 'ymin': 32.46804920633347, 'xmax': -114.75957740965016, 'ymax': 32.46804920633347}",dining and drinking > restaurant > mexican restaurant > taco restaurant,1
57085cb6498e08a7931b7329,tacos el poblano,32.485474,-116.92335,,,,,,,,MX,2016-04-09,2020-11-30,,,,,,,,['4bf58dd8d48988d151941735'],['Dining and Drinking > Restaurant > Mexican Restaurant > Taco Restaurant'],b'\x00\x00\x00\x00\x01\xc0];\x18*\x990\xbe@@>$\x03\x14\x87w',"{'xmin': -116.92335, 'ymin': 32.485474, 'xmax': -116.92335, 'ymax': 32.485474}",dining and drinking > restaurant > mexican restaurant > taco restaurant,1
504bbff1e4b037e08597f642,Tacos de pescado Tito‘s,32.46180300785097,-116.83768747124437,,,,,,,,MX,2012-09-08,2020-11-24,,,,,,,,['4bf58dd8d48988d151941735'],['Dining and Drinking > Restaurant > Mexican Restaurant > Taco Restaurant'],b'\x00\x00\x00\x00\x01\xc0]5\x9c\xab\xe9P\xdd@@;\x1c\\g\xf5\t',"{'xmin': -116.83768747124437, 'ymin': 32.46180300785097, 'xmax': -116.83768747124437, 'ymax': 32.46180300785097}",dining and drinking > restaurant > mexican restaurant > taco restaurant,1
50b7097ee4b0b5250b7885b5,Tacos Las Gordas,32.6286,-115.407,,,,,,,,MX,2012-11-29,2021-08-17,,,,,,,,['4bf58dd8d48988d151941735'],['Dining and Drinking > Restaurant > Mexican Restaurant > Taco Restaurant'],b'\x00\x00\x00\x00\x01\xc0\\\xda\x0cI\xba^5@@Pu\xf6\xfd!\xff',"{'xmin': -115.407, 'ymin': 32.6286, 'xmax': -115.407, 'ymax': 32.6286}",dining and drinking > restaurant > mexican restaurant > taco restaurant,1
50103cb9e4b0861e520031fb,Taxis de guisado jerez,32.6180309,-115.3802004,,,,,,,,MX,2012-07-25,2021-08-12,,,,,,,,['4bf58dd8d48988d151941735'],['Dining and Drinking > Restaurant > Mexican Restaurant > Taco Restaurant'],b'\x00\x00\x00\x00\x01\xc0\\\xd8U4\x0e\xfbF@@O\x1b\xa2\xf3\xb5o',"{'xmin': -115.3802004, 'ymin': 32.6180309, 'xmax': -115.3802004, 'ymax': 32.6180309}",dining and drinking > restaurant > mexican restaurant > taco restaurant,1
526c369311d224e407dd4f1f,Asadero Tejaban,32.655138,-115.43285,,,,,,,,MX,2013-10-26,2021-08-10,,,,,,,,['4bf58dd8d48988d151941735'],['Dining and Drinking > Restaurant > Mexican Restaurant > Taco Restaurant'],b'\x00\x00\x00\x00\x01\xc0\\\xdb\xb3\xd0|\x84\xb6@@S\xdb\x8f\xde.\xf5',"{'xmin': -115.43285, 'ymin': 32.655138, 'xmax': -115.43285, 'ymax': 32.655138}",dining and drinking > restaurant > mexican restaurant > taco restaurant,1
58d8825ea37d7267a097abba,Arrachera Las Brochedillas,32.532025,-116.948225,,Tijuana,BC,22457,,,,MX,2017-03-27,2020-11-23,,,,,,,,['4bf58dd8d48988d151941735'],['Dining and Drinking > Restaurant > Mexican Restaurant > Taco Restaurant'],b'\x00\x00\x00\x00\x01\xc0]<\xaf\xb7\xe9\x0f\xf9@@D\x19e+\xd3\xc3',"{'xmin': -116.948225, 'ymin': 32.532025, 'xmax': -116.948225, 'ymax': 32.532025}",dining and drinking > restaurant > mexican restaurant > taco restaurant,1
55ec9ad4498e3c52331be5f4,La tradicion-tacos de canasta,32.52558029703813,-117.1147928301055,,,,,,,,MX,2015-09-06,2021-08-15,,,,,,,,['4bf58dd8d48988d151941735'],['Dining and Drinking > Restaurant > Mexican Restaurant > Taco Restaurant'],b'\x00\x00\x00\x00\x01\xc0]GX\xc4\x06\xc7\x94@@CF7\x15\x99\xb2',"{'xmin': -117.1147928301055, 'ymin': 32.52558029703813, 'xmax': -117.1147928301055, 'ymax': 32.52558029703813}",dining and drinking > restaurant > mexican restaurant > taco restaurant,1
4f6f5daee4b0861078608f1a,j & s,32.574554443359375,-115.47441101074219,,,,,,,,MX,2012-03-25,2021-08-12,,,,,,,,['4bf58dd8d48988d151941735'],['Dining and Drinking > Restaurant > Mexican Restaurant > Taco Restaurant'],b'\x00\x00\x00\x00\x01\xc0\\\xde\\\xc0\x00\x00\x00@@I\x8b\x00\x00\x00\x00',"{'xmin': -115.47441101074219, 'ymin': 32.574554443359375, 'xmax': -115.47441101074219, 'ymax': 32.574554443359375}",dining and drinking > restaurant > mexican restaurant > taco restaurant,1
574b5ef9498e18da913da390,Carnitas El Kioskito 2,32.44274,-114.794205,Sonora No. 6 Avenida Cuauhtémoc,,,,,,,MX,2016-05-29,2021-08-13,,,,,,,,['4bf58dd8d48988d151941735'],['Dining and Drinking > Restaurant > Mexican Restaurant > Taco Restaurant'],b'\x00\x00\x00\x00\x01\xc0\\\xb2\xd4A5Tv@@8\xab\xb4NP\xc6',"{'xmin': -114.794205, 'ymin': 32.44274, 'xmax': -114.794205, 'ymax': 32.44274}",dining and drinking > restaurant > mexican restaurant > taco restaurant,1
531cc6b6498e252c0454a93e,tortas ahogadas,32.46040344238281,-116.87421417236328,,,,,,,,MX,2014-03-09,2021-08-15,,,,,,,,['4bf58dd8d48988d151941735'],['Dining and Drinking > Restaurant > Mexican Restaurant > Taco Restaurant'],b'\x00\x00\x00\x00\x01\xc0]7\xf3 \x00\x00\x00@@:\xee\x80\x00\x00\x00',"{'xmin': -116.87421417236328, 'ymin': 32.46040344238281, 'xmax': -116.87421417236328, 'ymax': 32.46040344238281}",dining and drinking > restaurant > mexican restaurant > taco restaurant,1
64cbd7f103fa80768a76ebf1,La Guerrerense,32.50450343891096,-116.99863342706784,,Tijuana,B.C.,22024,,,,MX,2023-08-03,2023-08-03,,,,,,,,"['4bf58dd8d48988d1cb941735' '4bf58dd8d48988d151941735'
 '4bf58dd8d48988d1c1941735']","['Dining and Drinking > Food Truck'
 'Dining and Drinking > Restaurant > Mexican Restaurant > Taco Restaurant'
 'Dining and Drinking > Restaurant > Mexican Restaurant']",b'\x00\x00\x00\x00\x01\xc0]?\xe9\x9c-|\xb9@@@\x93\x91\x95k\xca',"{'xmin': -116.99863342706784, 'ymin': 32.50450343891096, 'xmax': -116.99863342706784, 'ymax': 32.50450343891096}","dining and drinking > food truck, dining and drinking > restaurant > mexican restaurant > taco restaurant, dining and drinking > restaurant > mexican restaurant",1
53407689498e85909a47cb61,Tacos Kokopelli Palmas,32.4984611226927,-116.98679146951568,Las Palmas,Tijuana,,,,,,MX,2014-04-05,2020-11-25,2017-04-23,,http://kokopelli.mx,,,,,['4bf58dd8d48988d151941735' '4bf58dd8d48988d1d3941735'],"['Dining and Drinking > Restaurant > Mexican Restaurant > Taco Restaurant'
 'Dining and Drinking > Restaurant > Vegan and Vegetarian Restaurant']","b""\x00\x00\x00\x00\x01\xc0]?'\x97hb\xaa@@?\xcd\x92\xf6%t""","{'xmin': -116.98679146951568, 'ymin': 32.4984611226927, 'xmax': -116.98679146951568, 'ymax': 32.4984611226927}","dining and drinking > restaurant > mexican restaurant > taco restaurant, dining and drinking > restaurant > vegan and vegetarian restaurant",1
5a5fcdb50c9f3165a258fff9,Asadero Sonora Express,32.499769,-117.001545,Av. De Las Ferias 22414 Local 22,Tijuana,BC,22470,,,,MX,2018-01-17,2020-11-23,,,,,,,,['4bf58dd8d48988d1c1941735' '4bf58dd8d48988d151941735'],"['Dining and Drinking > Restaurant > Mexican Restaurant'
 'Dining and Drinking > Restaurant > Mexican Restaurant > Taco Restaurant']",b'\x00\x00\x00\x00\x01\xc0]@\x19P3\x1e:@@?\xf8n;F\xfe',"{'xmin': -117.001545, 'ymin': 32.499769, 'xmax': -117.001545, 'ymax': 32.499769}","dining and drinking > restaurant > mexican restaurant, dining and drinking > restaurant > mexican restaurant > taco restaurant",1
534a0fb2498e6a822928e7a3,Tacos Puesto Verde,20.69559588288838,-103.3011603897279,,,,,,,,MX,2014-04-13,2021-08-14,,,,,,,,['4bf58dd8d48988d151941735'],['Dining and Drinking > Restaurant > Mexican Restaurant > Taco Restaurant'],b'\x00\x00\x00\x00\x01\xc0Y\xd3F6:.\xd8@4\xb2\x12\x92`<\xe3',"{'xmin': -103.3011603897279, 'ymin': 20.69559588288838, 'xmax': -103.3011603897279, 'ymax': 20.69559588288838}",dining and drinking > restaurant > mexican restaurant > taco restaurant,1
580d0bdf38fa4b2ceda7f552,las animas de sayula,20.229813,-103.568739,Mercado Municipal,Zacoalco de Torres,Jalisco,,,,,MX,2016-10-23,2020-11-23,,,,,,,,['4bf58dd8d48988d151941735'],['Dining and Drinking > Restaurant > Mexican Restaurant > Taco Restaurant'],b'\x00\x00\x00\x00\x01\xc0Y\xe4f8C=l@4:\xd5\x06W2\x16',"{'xmin': -103.568739, 'ymin': 20.229813, 'xmax': -103.568739, 'ymax': 20.229813}",dining and drinking > restaurant > mexican restaurant > taco restaurant,1
5b491b40ba57b4002cca65d4,Tacos El Tapatio,21.912374,-102.329929,,La Plazuela,AGS,,,,,MX,2018-07-13,2020-11-25,,,,,,,,['4bf58dd8d48988d151941735'],['Dining and Drinking > Restaurant > Mexican Restaurant > Taco Restaurant'],b'\x00\x00\x00\x00\x01\xc0Y\x95\x1d\x8e\x86@!@5\xe9\x91W\xab\xb8\x80',"{'xmin': -102.329929, 'ymin': 21.912374, 'xmax': -102.329929, 'ymax': 21.912374}",dining and drinking > restaurant > mexican restaurant > taco restaurant,1
4c678c308e9120a10b41db64,Tacos Alteños,20.698272041423074,-103.41562891839068,Av. Patria 1472,Zapopan,JAL,45110,,,,MX,2010-08-15,2020-11-25,2019-05-03,33 3610 0417,,,,,,['4bf58dd8d48988d151941735'],['Dining and Drinking > Restaurant > Mexican Restaurant > Taco Restaurant'],b'\x00\x00\x00\x00\x01\xc0Y\xda\x99\xaa\x08\xf0\xa1@4\xb2\xc1\xf4\xdd\x9f\x8e',"{'xmin': -103.41562891839068, 'ymin': 20.698272041423074, 'xmax': -103.41562891839068, 'ymax': 20.698272041423074}",dining and drinking > restaurant > mexican restaurant > taco restaurant,1
6159e4c10edd3f4d440bbd8b,Birria El Cuñado,20.652226,-103.450541,Tepeyac,Zapopan,JAL,45069,,,,MX,2021-10-03,2021-10-03,,,,,,,,['4bf58dd8d48988d1c1941735' '4bf58dd8d48988d151941735'],"['Dining and Drinking > Restaurant > Mexican Restaurant'
 'Dining and Drinking > Restaurant > Mexican Restaurant > Taco Restaurant']",b'\x00\x00\x00\x00\x01\xc0Y\xdc\xd5\xa9\xeb u@4\xa6\xf8H{\x99\xd4',"{'xmin': -103.450541, 'ymin': 20.652226, 'xmax': -103.450541, 'ymax': 20.652226}","dining and drinking > restaurant > mexican restaurant, dining and drinking > restaurant > mexican restaurant > taco restaurant",1
56a45bd4498ebd48f1e0edc0,Taqueria La Hacienda,21.51773040523066,-104.88068595968414,,,,,,,,MX,2016-01-24,2021-08-16,,,,,,,,['4bf58dd8d48988d151941735'],['Dining and Drinking > Restaurant > Mexican Restaurant > Taco Restaurant'],b'\x00\x00\x00\x00\x01\xc0Z8](\xa4\xb8\xf2@5\x84\x89\xfa\xd6\x9cK',"{'xmin': -104.88068595968414, 'ymin': 21.51773040523066, 'xmax': -104.88068595968414, 'ymax': 21.51773040523066}",dining and drinking > restaurant > mexican restaurant > taco restaurant,1
4d71b28dd976236a2c43fb78,Tacos Hermosillo,20.347775,-102.045152,Río Balsas 2,La Piedad de Cavadas,Michoacán de Ocampo,,,,,MX,2011-03-05,2020-11-30,,,,,,,,['4bf58dd8d48988d151941735'],['Dining and Drinking > Restaurant > Mexican Restaurant > Taco Restaurant'],b'\x00\x00\x00\x00\x01\xc0Y\x82\xe3\xc56\xd6V@4Y\x07\xc8K]\xcc',"{'xmin': -102.045152, 'ymin': 20.347775, 'xmax': -102.045152, 'ymax': 20.347775}",dining and drinking > restaurant > mexican restaurant > taco restaurant,1
4d976063a2c654815c62d753,Tacos Barbacoa (Junto al Almacen),22.14729356428792,-101.00265149087666,,,,,,,,MX,2011-04-02,2021-08-17,,,,,,,,['4bf58dd8d48988d151941735'],['Dining and Drinking > Restaurant > Mexican Restaurant > Taco Restaurant'],b'\x00\x00\x00\x00\x01\xc0Y@+q(\xa6u@6%\xb5\x07\xf1\x87$',"{'xmin': -101.00265149087666, 'ymin': 22.14729356428792, 'xmax': -101.00265149087666, 'ymax': 22.14729356428792}",dining and drinking > restaurant > mexican restaurant > taco restaurant,1
52d8970a498e0c29b152c051,Tacos El China,20.720673,-103.395345,,,,,,,,MX,2014-01-17,2021-08-16,,,,,,,,['4bf58dd8d48988d151941735'],['Dining and Drinking > Restaurant > Mexican Restaurant > Taco Restaurant'],b'\x00\x00\x00\x00\x01\xc0Y\xd9MU\x1dh\xc7@4\xb8~\x06\x96\x1c7',"{'xmin': -103.395345, 'ymin': 20.720673, 'xmax': -103.395345, 'ymax': 20.720673}",dining and drinking > restaurant > mexican restaurant > taco restaurant,1
56820031498ebdd3faa3e594,Tacos Abajo Del Puente Santa Teresa,20.96126,-101.31645,,,,,,,,MX,2015-12-29,2021-08-10,,,,,,,,['4bf58dd8d48988d151941735'],['Dining and Drinking > Restaurant > Mexican Restaurant > Taco Restaurant'],"b'\x00\x00\x00\x00\x01\xc0YT@\xb7\x804n@4\xf6\x15""\xa6\xf3\xf5'","{'xmin': -101.31645, 'ymin': 20.96126, 'xmax': -101.31645, 'ymax': 20.96126}",dining and drinking > restaurant > mexican restaurant > taco restaurant,1
552af993498eb8ced4bd1f4d,Á TACO.,20.70261394443033,-102.35182672334257,,,,,,,,MX,2015-04-12,2021-08-13,,,,,,,,['4bf58dd8d48988d151941735'],['Dining and Drinking > Restaurant > Mexican Restaurant > Taco Restaurant'],b'\x00\x00\x00\x00\x01\xc0Y\x96\x84T;\xa7_@4\xb3\xde\x81\xe9\n\xb5',"{'xmin': -102.35182672334257, 'ymin': 20.70261394443033, 'xmax': -102.35182672334257, 'ymax': 20.70261394443033}",dining and drinking > restaurant > mexican restaurant > taco restaurant,1
51919e37498e5c184f5b873d,Del Puente,21.17023468017578,-101.66424560546875,,,,,,,,MX,2013-05-14,2021-08-11,,,,,,,,['4bf58dd8d48988d151941735'],['Dining and Drinking > Restaurant > Mexican Restaurant > Taco Restaurant'],b'\x00\x00\x00\x00\x01\xc0Yj\x83\x00\x00\x00\x00@5+\x94\x80\x00\x00\x00',"{'xmin': -101.66424560546875, 'ymin': 21.17023468017578, 'xmax': -101.66424560546875, 'ymax': 21.17023468017578}",dining and drinking > restaurant > mexican restaurant > taco restaurant,1
5b2f9cb2b9ac38002ca9da36,Tacos De Don David,22.145396,-100.952686,,San Luis Potosí,S.L.P.,78399,,,,MX,2018-06-24,2020-11-30,,,,,,,,['4bf58dd8d48988d151941735'],['Dining and Drinking > Restaurant > Mexican Restaurant > Taco Restaurant'],b'\x00\x00\x00\x00\x01\xc0Y<\xf8\xce\xb3V\xda@6%8\xac\x18\xf8\x1f',"{'xmin': -100.952686, 'ymin': 22.145396, 'xmax': -100.952686, 'ymax': 22.145396}",dining and drinking > restaurant > mexican restaurant > taco restaurant,1
4e224f3d22717a5245d4c2b3,Taquería Tlecuitl,20.683119101020697,-103.39628326451559,Homero,Guadalajara,Jalisco,,,,,MX,2011-07-17,2021-11-16,,,,,,,,['4bf58dd8d48988d151941735'],['Dining and Drinking > Restaurant > Mexican Restaurant > Taco Restaurant'],b'\x00\x00\x00\x00\x01\xc0Y\xd9\\\xb4{B\xfb@4\xae\xe0\xe4\xb6(%',"{'xmin': -103.39628326451559, 'ymin': 20.683119101020697, 'xmax': -103.39628326451559, 'ymax': 20.683119101020697}",dining and drinking > restaurant > mexican restaurant > taco restaurant,1
505890dfe4b0fd1b42c5e2ed,Tacos de Guisado El Matador,21.121403,-101.667503,Españita No. 419,León,Guanajuato,,,,,MX,2012-09-18,2023-12-21,,477 716 2460,,,,,,['4bf58dd8d48988d151941735'],['Dining and Drinking > Restaurant > Mexican Restaurant > Taco Restaurant'],b'\x00\x00\x00\x00\x01\xc0Yj\xb8^\x80\xbe\xd7@5\x1f\x14DZ\xa2\xe4',"{'xmin': -101.667503, 'ymin': 21.121403, 'xmax': -101.667503, 'ymax': 21.121403}",dining and drinking > restaurant > mexican restaurant > taco restaurant,1
53f600f2498e9554d50ae7bd,Carnitas Cuchilu,20.62486195736711,-103.41209650039673,Río Cihuatlán 1517 A,"Zapopan, JAL",Jalisco,,,,,MX,2014-08-21,2020-11-22,,33 1073 5193,,,,,,['4bf58dd8d48988d151941735'],['Dining and Drinking > Restaurant > Mexican Restaurant > Taco Restaurant'],b'\x00\x00\x00\x00\x01\xc0Y\xda_\xca\x00\x00\x00@4\x9f\xf6\xf4\x07h\x02',"{'xmin': -103.41209650039673, 'ymin': 20.62486195736711, 'xmax': -103.41209650039673, 'ymax': 20.62486195736711}",dining and drinking > restaurant > mexican restaurant > taco restaurant,1
6635a62ca26128665240e29d,Tacos Del Millon,21.189314,-101.745226,Plaza Via Aurelia,León,Gto.,37690,,,,MX,2024-05-04,2024-05-04,,,,,,,,['4bf58dd8d48988d151941735'],['Dining and Drinking > Restaurant > Mexican Restaurant > Taco Restaurant'],b'\x00\x00\x00\x00\x01\xc0Yo\xb1\xc8d\x88@@50v\xe1\xde\xac\xc9',"{'xmin': -101.745226, 'ymin': 21.189314, 'xmax': -101.745226, 'ymax': 21.189314}",dining and drinking > restaurant > mexican restaurant > taco restaurant,1
5248970d11d2516dbfd458d5,Taqueria Mello,20.137676,-101.18007,Fco.I. Madero #53,Uriangato,Guanajuato,,,,,MX,2013-09-29,2020-11-23,,,,,,,,['4bf58dd8d48988d151941735'],['Dining and Drinking > Restaurant > Mexican Restaurant > Taco Restaurant'],b'\x00\x00\x00\x00\x01\xc0YK\x86DR?h@4#>\xbb\xfdq\xb0',"{'xmin': -101.18007, 'ymin': 20.137676, 'xmax': -101.18007, 'ymax': 20.137676}",dining and drinking > restaurant > mexican restaurant > taco restaurant,1
4fcf8035e4b0ce2b62bb14ac,Barbacoa El Primo,20.889869632808885,-100.76502032038503,,,,,,,,MX,2012-06-06,2021-08-15,,,,,,,,['4bf58dd8d48988d151941735'],['Dining and Drinking > Restaurant > Mexican Restaurant > Taco Restaurant'],b'\x00\x00\x00\x00\x01\xc0Y0\xf6\x17\xca5\x11@4\xe3\xce\x7f\n\x9e!',"{'xmin': -100.76502032038503, 'ymin': 20.889869632808885, 'xmax': -100.76502032038503, 'ymax': 20.889869632808885}",dining and drinking > restaurant > mexican restaurant > taco restaurant,1
520d79c211d233dc6cd8731f,El Compadrito,19.672115,-101.209004,,,,,,,,MX,2013-08-16,2021-08-12,,,,,,,,['4bf58dd8d48988d151941735'],['Dining and Drinking > Restaurant > Mexican Restaurant > Taco Restaurant'],b'\x00\x00\x00\x00\x01\xc0YM`RP.\xec@3\xac\x0f\xba\x88&\xab',"{'xmin': -101.209004, 'ymin': 19.672115, 'xmax': -101.209004, 'ymax': 19.672115}",dining and drinking > restaurant > mexican restaurant > taco restaurant,1
61b79d49b296c4126be7560b,Taco Lupe,20.682979,-103.428273,Avenida Juan Palomar Y Arias,Zapopan,JAL,45027,,,,MX,2021-12-13,2021-12-13,,,,,,,,['4bf58dd8d48988d1c1941735' '4bf58dd8d48988d151941735'],"['Dining and Drinking > Restaurant > Mexican Restaurant'
 'Dining and Drinking > Restaurant > Mexican Restaurant > Taco Restaurant']",b'\x00\x00\x00\x00\x01\xc0Y\xdbh\xd3(0\xa1@4\xae\xd7\xb64\xda\xd3',"{'xmin': -103.428273, 'ymin': 20.682979, 'xmax': -103.428273, 'ymax': 20.682979}","dining and drinking > restaurant > mexican restaurant, dining and drinking > restaurant > mexican restaurant > taco restaurant",1
5ab67eb8f79faa713613752d,Barbacoa Santa Fe 2,20.69473,-101.37176,,Irapuato,Guanajuato,36612,,,,MX,2018-03-24,2020-11-23,,,,,,,,['4bf58dd8d48988d151941735'],['Dining and Drinking > Restaurant > Mexican Restaurant > Taco Restaurant'],b'\x00\x00\x00\x00\x01\xc0YW\xca\xeat}\x80@4\xb1\xd9\xd3E\x8c\xd2',"{'xmin': -101.37176, 'ymin': 20.69473, 'xmax': -101.37176, 'ymax': 20.69473}",dining and drinking > restaurant > mexican restaurant > taco restaurant,1
501a9259e4b0092a23304c56,Tacos Richard's,20.709914519146185,-103.3408015920829,Evora,Guadalajara,,,,,,MX,2012-08-02,2021-08-17,,,,,,,,['4bf58dd8d48988d151941735'],['Dining and Drinking > Restaurant > Mexican Restaurant > Taco Restaurant'],b'\x00\x00\x00\x00\x01\xc0Y\xd5\xcf\xb1{\x1a\xee@4\xb5\xbc\xf5:\xb0=',"{'xmin': -103.3408015920829, 'ymin': 20.709914519146185, 'xmax': -103.3408015920829, 'ymax': 20.709914519146185}",dining and drinking > restaurant > mexican restaurant > taco restaurant,1
52fd7b6b498edcd633686d18,Tacos el pastorcito,20.54738082801599,-100.80600199271544,Av Manuel Orozco Y Berra 1144,Celaya,Guanajuato,38010,,,,MX,2014-02-14,2020-11-22,,,,,,,,['4bf58dd8d48988d151941735'],['Dining and Drinking > Restaurant > Mexican Restaurant > Taco Restaurant'],b'\x00\x00\x00\x00\x01\xc0Y3\x95\x89a\xceP@4\x8c!&b\xc9<',"{'xmin': -100.80600199271544, 'ymin': 20.54738082801599, 'xmax': -100.80600199271544, 'ymax': 20.54738082801599}",dining and drinking > restaurant > mexican restaurant > taco restaurant,1
53ae7962498e36e528580e3a,Tacos La Cabañita,20.680558,-103.387452,,Guadalajara,Jalisco,,,,,MX,2014-06-28,2021-08-11,,,,,,,,['4bf58dd8d48988d151941735'],['Dining and Drinking > Restaurant > Mexican Restaurant > Taco Restaurant'],b'\x00\x00\x00\x00\x01\xc0Y\xd8\xcc\x03y1D@4\xae9\x0c\x91\x07\xfb',"{'xmin': -103.387452, 'ymin': 20.680558, 'xmax': -103.387452, 'ymax': 20.680558}",dining and drinking > restaurant > mexican restaurant > taco restaurant,1
4f31e676e4b015f62bcbb802,Tacos ayutla,21.473650542494354,-104.87723076614515,Ayutla,Tepic,Nayarit,,,,,MX,2012-02-08,2020-11-21,,,,,,,,['4bf58dd8d48988d151941735'],['Dining and Drinking > Restaurant > Mexican Restaurant > Taco Restaurant'],b'\x00\x00\x00\x00\x01\xc0Z8$\x8c\x82\xe8\xdc@5yA)u\xbe\xf4',"{'xmin': -104.87723076614515, 'ymin': 21.473650542494354, 'xmax': -104.87723076614515, 'ymax': 21.473650542494354}",dining and drinking > restaurant > mexican restaurant > taco restaurant,1
55b993c5498eff099ce9d689,Tacos Rocio,21.093058,-101.651822,,,,,,,,MX,2015-07-30,2021-08-13,,,,,,,,['4bf58dd8d48988d151941735'],['Dining and Drinking > Restaurant > Mexican Restaurant > Taco Restaurant'],b'\x00\x00\x00\x00\x01\xc0Yi\xb7s\x9f4\r@5\x17\xd2\xa6*\xa1\x94',"{'xmin': -101.651822, 'ymin': 21.093058, 'xmax': -101.651822, 'ymax': 21.093058}",dining and drinking > restaurant > mexican restaurant > taco restaurant,1
531a8c1f498e386bc997ac67,gringas de pastor,20.213339,-101.13282,,,,,,,,MX,2014-03-08,2021-08-14,,,,,,,,['4bf58dd8d48988d151941735'],['Dining and Drinking > Restaurant > Mexican Restaurant > Taco Restaurant'],b'\x00\x00\x00\x00\x01\xc0YH\x80\x1fu\x10M@46\x9db{\xf6\x1b',"{'xmin': -101.13282, 'ymin': 20.213339, 'xmax': -101.13282, 'ymax': 20.213339}",dining and drinking > restaurant > mexican restaurant > taco restaurant,1
56075cee498edccb546b1231,Tacos Chavaroty,20.50968316168416,-100.95527213402073,,,,,,,,MX,2015-09-27,2020-11-25,,,,,,,,['4bf58dd8d48988d151941735'],['Dining and Drinking > Restaurant > Mexican Restaurant > Taco Restaurant'],b'\x00\x00\x00\x00\x01\xc0Y=#-\xbb\x99\x8c@4\x82z\x98~\xc1^',"{'xmin': -100.95527213402073, 'ymin': 20.50968316168416, 'xmax': -100.95527213402073, 'ymax': 20.50968316168416}",dining and drinking > restaurant > mexican restaurant > taco restaurant,1
50d53d5ce4b073c61da6e227,Tacos Los Chilangos,20.539517,-104.042315,La calzada,Ameca,Jalisco,46600,,,,MX,2012-12-22,2020-11-20,,,,,,,,['4bf58dd8d48988d151941735'],['Dining and Drinking > Restaurant > Mexican Restaurant > Taco Restaurant'],b'\x00\x00\x00\x00\x01\xc0Z\x02\xb5I\xf9HV@4\x8a\x1d\xc9>\xa2\xd3',"{'xmin': -104.042315, 'ymin': 20.539517, 'xmax': -104.042315, 'ymax': 20.539517}",dining and drinking > restaurant > mexican restaurant > taco restaurant,1
63a29edac029bf22f0bc69ea,Tacos Luis El Güero,20.618002,-103.314082,,San Pedro Tlaquepaque,JAL,45580,,,,MX,2022-12-21,2022-12-21,,,,,,,,['4bf58dd8d48988d151941735'],['Dining and Drinking > Restaurant > Mexican Restaurant > Taco Restaurant'],b'\x00\x00\x00\x00\x01\xc0Y\xd4\x19\xebc\x90\xc9@4\x9e5a\n\xdc\xd3',"{'xmin': -103.314082, 'ymin': 20.618002, 'xmax': -103.314082, 'ymax': 20.618002}",dining and drinking > restaurant > mexican restaurant > taco restaurant,1
5060fc3de4b08b477caf3f96,Taqueria Avenida,21.87923360555726,-102.2905951028238,,,,,,,,MX,2012-09-25,2021-08-13,,,,,,,,['4bf58dd8d48988d151941735'],['Dining and Drinking > Restaurant > Mexican Restaurant > Taco Restaurant'],b'\x00\x00\x00\x00\x01\xc0Y\x92\x99\x1c3\xc0b@5\xe1\x15t\x1di\xa0',"{'xmin': -102.2905951028238, 'ymin': 21.87923360555726, 'xmax': -102.2905951028238, 'ymax': 21.87923360555726}",dining and drinking > restaurant > mexican restaurant > taco restaurant,1
4ed1bcf299114b4889c42ad7,Burritos Cajetilandia,20.519467,-100.807653,,Celaya,Guanajuato,,,,,MX,2011-11-27,2020-11-30,,,,,,,,['4bf58dd8d48988d151941735'],['Dining and Drinking > Restaurant > Mexican Restaurant > Taco Restaurant'],b'\x00\x00\x00\x00\x01\xc0Y3\xb0\x965a\x0b@4\x84\xfb\xca\x10Y\xea',"{'xmin': -100.807653, 'ymin': 20.519467, 'xmax': -100.807653, 'ymax': 20.519467}",dining and drinking > restaurant > mexican restaurant > taco restaurant,1
4ee51915e30005f8b87dd3ab,Taqueria Los Compadres,20.652840500336396,-103.38074853895216,Av. Del mercado 1257,Guadalajara,Jalisco,,,,,MX,2011-12-11,2021-08-15,,521 663 5201,,,,,,['4bf58dd8d48988d151941735'],['Dining and Drinking > Restaurant > Mexican Restaurant > Taco Restaurant'],b'\x00\x00\x00\x00\x01\xc0Y\xd8^/\x1e\xb3(@4\xa7 \x8e\x16r\xf8',"{'xmin': -103.38074853895216, 'ymin': 20.652840500336396, 'xmax': -103.38074853895216, 'ymax': 20.652840500336396}",dining and drinking > restaurant > mexican restaurant > taco restaurant,1
524aff1611d24056ab100a74,Birria Caderas De La Muerte,21.514857,-104.908754,,,,,,,,MX,2013-10-01,2021-08-11,,,,,,,,['4bf58dd8d48988d151941735'],['Dining and Drinking > Restaurant > Mexican Restaurant > Taco Restaurant'],b'\x00\x00\x00\x00\x01\xc0Z:)\x06\x89\x86\xfd@5\x83\xcd\xab\x19\x1d\xde',"{'xmin': -104.908754, 'ymin': 21.514857, 'xmax': -104.908754, 'ymax': 21.514857}",dining and drinking > restaurant > mexican restaurant > taco restaurant,1
5c45fc461cf2e1002cb179fc,El Cuinito,22.14562,-101.016914,El pasaje,San Luis Potosí,San Luis Potosí,78210,,,,MX,2019-01-21,2020-11-22,,,,,,,,['4bf58dd8d48988d151941735'],['Dining and Drinking > Restaurant > Mexican Restaurant > Taco Restaurant'],b'\x00\x00\x00\x00\x01\xc0YA\x15\x1eu6\r@6%GZ1\xa4\xbe',"{'xmin': -101.016914, 'ymin': 22.14562, 'xmax': -101.016914, 'ymax': 22.14562}",dining and drinking > restaurant > mexican restaurant > taco restaurant,1
5992616b5f68b956c23b8fcd,Taquibiris,20.963953,-101.288867,,Guanajuato,GTO,36257,,,,MX,2017-08-15,2020-11-25,,,,,,,,['4bf58dd8d48988d151941735'],['Dining and Drinking > Restaurant > Mexican Restaurant > Taco Restaurant'],b'\x00\x00\x00\x00\x01\xc0YR|\xcc\x03y1@4\xf6\xc5\x9f\xb1\xe1\x8f',"{'xmin': -101.288867, 'ymin': 20.963953, 'xmax': -101.288867, 'ymax': 20.963953}",dining and drinking > restaurant > mexican restaurant > taco restaurant,1
4f63fbbee4b0e30d2039b51f,Taco Pronto,19.675109,-101.200512,Margarita Maza de Juárez,Morelia,Michoacán de Ocampo,,,,,MX,2012-03-17,2021-12-20,,,,,,,,['4bf58dd8d48988d151941735'],['Dining and Drinking > Restaurant > Mexican Restaurant > Taco Restaurant'],b'\x00\x00\x00\x00\x01\xc0YL\xd50H\x9d(@3\xac\xd3\xf1\x84<:',"{'xmin': -101.200512, 'ymin': 19.675109, 'xmax': -101.200512, 'ymax': 19.675109}",dining and drinking > restaurant > mexican restaurant > taco restaurant,1
5a347362ee71200acfd80a22,Taquito Movil,21.839708,-102.32302,,Aguascalientes,AGS,,,,,MX,2017-12-16,2020-11-30,,,,,,,,['4bf58dd8d48988d151941735'],['Dining and Drinking > Restaurant > Mexican Restaurant > Taco Restaurant'],b'\x00\x00\x00\x00\x01\xc0Y\x94\xac\\\x13\xfd\r@5\xd6\xf7\x1a~0\x88',"{'xmin': -102.32302, 'ymin': 21.839708, 'xmax': -102.32302, 'ymax': 21.839708}",dining and drinking > restaurant > mexican restaurant > taco restaurant,1
56fd72d4498e8f8ac7c4a5e1,Carnitas Las Delicias Aguascalientes,21.877316,-102.28164,,,,,,,,MX,2016-03-31,2021-08-11,,,,,,,,['4bf58dd8d48988d151941735'],['Dining and Drinking > Restaurant > Mexican Restaurant > Taco Restaurant'],b'\x00\x00\x00\x00\x01\xc0Y\x92\x06c\xc7O\xb5@5\xe0\x97\xc8\x08A\xee',"{'xmin': -102.28164, 'ymin': 21.877316, 'xmax': -102.28164, 'ymax': 21.877316}",dining and drinking > restaurant > mexican restaurant > taco restaurant,1
5cb15029788044002cdcc0e9,Carnes Asadas El Chuta,20.63292,-103.051529,Carretera Libre a Tepatitlán De Morelos,Zapotlanejo,JAL,45444,,,,MX,2019-04-13,2020-11-25,,,,,,,,['4bf58dd8d48988d1df931735' '4bf58dd8d48988d151941735'],"['Dining and Drinking > Restaurant > BBQ Joint'
 'Dining and Drinking > Restaurant > Mexican Restaurant > Taco Restaurant']",b'\x00\x00\x00\x00\x01\xc0Y\xc3L@Jr\xeb@4\xa2\x07\x0b\x8c\xfb\xfc',"{'xmin': -103.051529, 'ymin': 20.63292, 'xmax': -103.051529, 'ymax': 20.63292}","dining and drinking > restaurant > bbq joint, dining and drinking > restaurant > mexican restaurant > taco restaurant",1
4e11de31aeb74afe60c0a42c,Tacos BBQ WTC,20.652866259947242,-103.39466127422914,,Guadalajara,Jalisco,,,,,MX,2011-07-04,2021-08-10,,,,,,,,"['4bf58dd8d48988d1cb941735' '4bf58dd8d48988d151941735'
 '4bf58dd8d48988d1c1941735']","['Dining and Drinking > Food Truck'
 'Dining and Drinking > Restaurant > Mexican Restaurant > Taco Restaurant'
 'Dining and Drinking > Restaurant > Mexican Restaurant']","b'\x00\x00\x00\x00\x01\xc0Y\xd9B!\\s\xf5@4\xa7"">C""\x9f'","{'xmin': -103.39466127422914, 'ymin': 20.652866259947242, 'xmax': -103.39466127422914, 'ymax': 20.652866259947242}","dining and drinking > food truck, dining and drinking > restaurant > mexican restaurant > taco restaurant, dining and drinking > restaurant > mexican restaurant",1
4ccda6aaba79a1cd799f42cb,Tortas Poncho,21.105974623260572,-101.6665757929213,Bocanegra,León Moderno,Guanajuato,,,,,MX,2010-10-31,2020-11-25,,,,,,,,['4bf58dd8d48988d151941735'],['Dining and Drinking > Restaurant > Mexican Restaurant > Taco Restaurant'],"b""\x00\x00\x00\x00\x01\xc0Yj\xa9-\x83\xb9\xbe@5\x1b!'%\x1c.""","{'xmin': -101.6665757929213, 'ymin': 21.105974623260572, 'xmax': -101.6665757929213, 'ymax': 21.105974623260572}",dining and drinking > restaurant > mexican restaurant > taco restaurant,1
55eba471498e2b63b216257c,Cenaduría Cuquita,20.68165781913833,-103.3298478010683,Pedro A. Galván,Guadalajara,,,,,,MX,2015-09-06,2021-08-17,,,,,,,,['4bf58dd8d48988d151941735'],['Dining and Drinking > Restaurant > Mexican Restaurant > Taco Restaurant'],b'\x00\x00\x00\x00\x01\xc0Y\xd5\x1c9\xf3\x8f\xbc@4\xae\x81 xC\x06',"{'xmin': -103.3298478010683, 'ymin': 20.68165781913833, 'xmax': -103.3298478010683, 'ymax': 20.68165781913833}",dining and drinking > restaurant > mexican restaurant > taco restaurant,1
4f7b2134e4b0e204109c4652,Tacos El Tartaro,21.858984,-102.299017,,,,,,,,MX,2012-04-03,2021-08-15,,,,,,,,['4bf58dd8d48988d151941735'],['Dining and Drinking > Restaurant > Mexican Restaurant > Taco Restaurant'],b'\x00\x00\x00\x00\x01\xc0Y\x93#\x182\xfc\xad@5\xdb\xe6`\x1b\xc9\x8a',"{'xmin': -102.299017, 'ymin': 21.858984, 'xmax': -102.299017, 'ymax': 21.858984}",dining and drinking > restaurant > mexican restaurant > taco restaurant,1
5125909ce4b0943f16cfbc5f,Tacos Rica,20.622323989868164,-103.38060760498047,,,,,,,,MX,2013-02-21,2021-08-11,,,,,,,,['4bf58dd8d48988d151941735'],['Dining and Drinking > Restaurant > Mexican Restaurant > Taco Restaurant'],b'\x00\x00\x00\x00\x01\xc0Y\xd8[\xe0\x00\x00\x00@4\x9fP\xa0\x00\x00\x00',"{'xmin': -103.38060760498047, 'ymin': 20.622323989868164, 'xmax': -103.38060760498047, 'ymax': 20.622323989868164}",dining and drinking > restaurant > mexican restaurant > taco restaurant,1
4de8626f45dde4a28d4f6225,Tacoh,22.141361,-101.010168,,San Luis Potosi,SLP,,,,,MX,2011-06-03,2020-11-25,,,,,,,,['4bf58dd8d48988d151941735'],['Dining and Drinking > Restaurant > Mexican Restaurant > Taco Restaurant'],b'\x00\x00\x00\x00\x01\xc0Y@\xa6\x97\xae\xdd\xce@6$0<\x07\xee\x0b',"{'xmin': -101.010168, 'ymin': 22.141361, 'xmax': -101.010168, 'ymax': 22.141361}",dining and drinking > restaurant > mexican restaurant > taco restaurant,1
52c7479f498e5d8880eb0ec6,iphonda,20.68417252183081,-103.33785767953108,,Guadalajara,,,,,,MX,2014-01-03,2021-08-17,,,,,,,,['4bf58dd8d48988d151941735'],['Dining and Drinking > Restaurant > Mexican Restaurant > Taco Restaurant'],b'\x00\x00\x00\x00\x01\xc0Y\xd5\x9fu\xd1\x12v@4\xaf%\xee.\x15\xce',"{'xmin': -103.33785767953108, 'ymin': 20.68417252183081, 'xmax': -103.33785767953108, 'ymax': 20.68417252183081}",dining and drinking > restaurant > mexican restaurant > taco restaurant,1
4edfe6942c5bb0e03e3e49c9,Tacos Los Altos,20.676838741672448,-103.34328197602201,,Guadalajara,,,,,,MX,2011-12-07,2021-08-14,,,,,,,,['4bf58dd8d48988d1df931735' '4bf58dd8d48988d151941735'],"['Dining and Drinking > Restaurant > BBQ Joint'
 'Dining and Drinking > Restaurant > Mexican Restaurant > Taco Restaurant']","b'\x00\x00\x00\x00\x01\xc0Y\xd5\xf8T\xf7\x14\x88@4\xadEM\xc4&""'","{'xmin': -103.34328197602201, 'ymin': 20.676838741672448, 'xmax': -103.34328197602201, 'ymax': 20.676838741672448}","dining and drinking > restaurant > bbq joint, dining and drinking > restaurant > mexican restaurant > taco restaurant",1
4ec141b561af06192be405ec,Tacos La China,20.515651858096213,-100.82335846983023,,Celaya,Guanajuato,,,,,MX,2011-11-14,2020-11-26,,,,,,,,['4bf58dd8d48988d151941735'],['Dining and Drinking > Restaurant > Mexican Restaurant > Taco Restaurant'],b'\x00\x00\x00\x00\x01\xc0Y4\xb1\xe7\xb93\x8c@4\x84\x01\xc2\x9a\xa5\x16',"{'xmin': -100.82335846983023, 'ymin': 20.515651858096213, 'xmax': -100.82335846983023, 'ymax': 20.515651858096213}",dining and drinking > restaurant > mexican restaurant > taco restaurant,1
5824de8e1632355a951cbbfc,Tacos El Gordito,20.626373,-103.402881,,,,,,,,MX,2016-11-10,2021-08-12,,,,,,,,['4bf58dd8d48988d151941735'],['Dining and Drinking > Restaurant > Mexican Restaurant > Taco Restaurant'],b'\x00\x00\x00\x00\x01\xc0Y\xd9\xc8\xcdc\xcb\x81@4\xa0Y\xfb\x1e\x18\xf0',"{'xmin': -103.402881, 'ymin': 20.626373, 'xmax': -103.402881, 'ymax': 20.626373}",dining and drinking > restaurant > mexican restaurant > taco restaurant,1
54bacecc498e05024fb10480,tortas ahogadas chago II,20.631661,-103.31153,,,,,,,,MX,2015-01-17,2021-08-10,,,,,,,,['4bf58dd8d48988d151941735'],['Dining and Drinking > Restaurant > Mexican Restaurant > Taco Restaurant'],b'\x00\x00\x00\x00\x01\xc0Y\xd3\xf0\x1b\x86nD@4\xa1\xb4\x89\t(\x9e',"{'xmin': -103.31153, 'ymin': 20.631661, 'xmax': -103.31153, 'ymax': 20.631661}",dining and drinking > restaurant > mexican restaurant > taco restaurant,1
640a0219be59ed7f68a7adcd,Gorditas El Malecon,21.351964,-101.931162,,Lagos de Moreno,JAL,47400,,,,MX,2023-03-09,2023-03-09,,,,,,,,['4bf58dd8d48988d151941735'],['Dining and Drinking > Restaurant > Mexican Restaurant > Taco Restaurant'],b'\x00\x00\x00\x00\x01\xc0Y{\x98(\x80Q\xca@5Z\x1aP\r^\x8d',"{'xmin': -101.931162, 'ymin': 21.351964, 'xmax': -101.931162, 'ymax': 21.351964}",dining and drinking > restaurant > mexican restaurant > taco restaurant,1
5c2bc72c286fda002cb3df72,Las Tejanas,20.649586,-103.316268,,Guadalajara,JAL,44840,,,,MX,2019-01-01,2021-08-14,,,,,,,,['4bf58dd8d48988d151941735'],['Dining and Drinking > Restaurant > Mexican Restaurant > Taco Restaurant'],b'\x00\x00\x00\x00\x01\xc0Y\xd4=\xbc#1]@4\xa6KD\xa1\xf0\x80',"{'xmin': -103.316268, 'ymin': 20.649586, 'xmax': -103.316268, 'ymax': 20.649586}",dining and drinking > restaurant > mexican restaurant > taco restaurant,1
66afeecbee420f6fb9d2a513,Tacos Frontera,20.678438,-105.249114,,Puerto Vallarta,Jal.,48335,,,,MX,2024-08-04,2024-08-04,,,,,,,,['4bf58dd8d48988d151941735'],['Dining and Drinking > Restaurant > Mexican Restaurant > Taco Restaurant'],b'\x00\x00\x00\x00\x01\xc0ZO\xf1{\xd8\xbes@4\xad\xae\x1c\xde]\x18',"{'xmin': -105.249114, 'ymin': 20.678438, 'xmax': -105.249114, 'ymax': 20.678438}",dining and drinking > restaurant > mexican restaurant > taco restaurant,1
4e9c625f5503cfce74fca1cf,Tacos Sonora,20.661335754534402,-103.42907141995607,Guadalupe 5307,Zapopan,Jalisco,,,,,MX,2011-10-17,2020-11-22,,,,,,,,['4bf58dd8d48988d151941735'],['Dining and Drinking > Restaurant > Mexican Restaurant > Taco Restaurant'],b'\x00\x00\x00\x00\x01\xc0Y\xdbu\xe7\xf9\x17\x04@4\xa9ML\xcdf\x97',"{'xmin': -103.42907141995607, 'ymin': 20.661335754534402, 'xmax': -103.42907141995607, 'ymax': 20.661335754534402}",dining and drinking > restaurant > mexican restaurant > taco restaurant,1
5160d66fe4b06882ec6081d6,Tacos Don Pablo,21.522095,-102.229997,,,,,,,,MX,2013-04-07,2021-08-15,,,,,,,,['4bf58dd8d48988d151941735'],['Dining and Drinking > Restaurant > Mexican Restaurant > Taco Restaurant'],b'\x00\x00\x00\x00\x01\xc0Y\x8e\xb8EVKf@5\x85\xa8\x04\x96g\xb6',"{'xmin': -102.229997, 'ymin': 21.522095, 'xmax': -102.229997, 'ymax': 21.522095}",dining and drinking > restaurant > mexican restaurant > taco restaurant,1
51f2b36d498ed5e37e10ceb1,Tacos Hno. Mateo,20.66960334777832,-103.2833251953125,Nazaret,Guadalajara,,44770,,,,MX,2013-07-26,2021-08-15,,,,,,,,['4bf58dd8d48988d151941735'],['Dining and Drinking > Restaurant > Mexican Restaurant > Taco Restaurant'],"b'\x00\x00\x00\x00\x01\xc0Y\xd2""\x00\x00\x00\x00@4\xabk \x00\x00\x00'","{'xmin': -103.2833251953125, 'ymin': 20.66960334777832, 'xmax': -103.2833251953125, 'ymax': 20.66960334777832}",dining and drinking > restaurant > mexican restaurant > taco restaurant,1
57b0d8e2498ee0c05fedd402,El pastor del rica,20.665288,-103.407969,,,,,,,,MX,2016-08-14,2021-08-15,,,,,,,,['4bf58dd8d48988d151941735'],['Dining and Drinking > Restaurant > Mexican Restaurant > Taco Restaurant'],b'\x00\x00\x00\x00\x01\xc0Y\xda\x1c*\x022\t@4\xaaPPzk\xd7',"{'xmin': -103.407969, 'ymin': 20.665288, 'xmax': -103.407969, 'ymax': 20.665288}",dining and drinking > restaurant > mexican restaurant > taco restaurant,1
52b9b08c11d24e0c7327a07d,Tacos de Barbacoa Doña Elba,20.74705303618042,-103.39833435373878,,,,,,,,MX,2013-12-24,2021-08-13,,,,,,,,['4bf58dd8d48988d151941735'],['Dining and Drinking > Restaurant > Mexican Restaurant > Taco Restaurant'],b'\x00\x00\x00\x00\x01\xc0Y\xd9~O_\x8b\x9b@4\xbf>\xde&\xc5\xbd',"{'xmin': -103.39833435373878, 'ymin': 20.74705303618042, 'xmax': -103.39833435373878, 'ymax': 20.74705303618042}",dining and drinking > restaurant > mexican restaurant > taco restaurant,1
50f2efeae4b0c609c9ec6557,Carnitas Carmelo,19.68410444268104,-101.3326107906507,Carretera Morelia-Guadalajara,Morelia,Michoacán,,,,,MX,2013-01-13,2020-11-30,,,,,,,,['4bf58dd8d48988d151941735'],['Dining and Drinking > Restaurant > Mexican Restaurant > Taco Restaurant'],b'\x00\x00\x00\x00\x01\xc0YUI~\xc5\t\x0e@3\xaf!x\x00]\x06',"{'xmin': -101.3326107906507, 'ymin': 19.68410444268104, 'xmax': -101.3326107906507, 'ymax': 19.68410444268104}",dining and drinking > restaurant > mexican restaurant > taco restaurant,1
56a58e5c498e3eaf7f59f883,"Tacos ""El Güero de Guerrero""",22.168261,-100.991882,Aeropuerto,San Luis Potosí,San Luis Potosí,78170,,,,MX,2016-01-25,2020-11-24,,,,,,,,['4bf58dd8d48988d151941735'],['Dining and Drinking > Restaurant > Mexican Restaurant > Taco Restaurant'],"b""\x00\x00\x00\x00\x01\xc0Y?z\xfe\xa3\xdfn@6+\x13'$18""","{'xmin': -100.991882, 'ymin': 22.168261, 'xmax': -100.991882, 'ymax': 22.168261}",dining and drinking > restaurant > mexican restaurant > taco restaurant,1
52ffdd8b498eae44156e8771,Tacos TaCarbon,20.689085,-103.428708,,,,,,,,MX,2014-02-15,2021-08-16,,,,,,,,['4bf58dd8d48988d151941735'],['Dining and Drinking > Restaurant > Mexican Restaurant > Taco Restaurant'],b'\x00\x00\x00\x00\x01\xc0Y\xdbo\xf3\xad\xe2&@4\xb0g\xdf\xe3*\x06',"{'xmin': -103.428708, 'ymin': 20.689085, 'xmax': -103.428708, 'ymax': 20.689085}",dining and drinking > restaurant > mexican restaurant > taco restaurant,1
57f178f4498ef69c64d8671b,La taqueria,19.668955,-101.168526,,,,,,,,MX,2016-10-02,2020-11-25,,,,,,,,['4bf58dd8d48988d151941735'],['Dining and Drinking > Restaurant > Mexican Restaurant > Taco Restaurant'],b'\x00\x00\x00\x00\x01\xc0YJ\xc9!F\xa1\xa5@3\xab@\xa2\x87~\xe5',"{'xmin': -101.168526, 'ymin': 19.668955, 'xmax': -101.168526, 'ymax': 19.668955}",dining and drinking > restaurant > mexican restaurant > taco restaurant,1
6563eadbd4e580480e51a115,Birdie’s Burgers Sma,20.905034,-100.748571,,San Miguel de Allende,Gto.,37760,,,,MX,2023-11-27,2023-11-27,,,,,,,,"['4bf58dd8d48988d16c941735' '4bf58dd8d48988d11d941735'
 '4bf58dd8d48988d151941735']","['Dining and Drinking > Restaurant > Burger Joint'
 'Dining and Drinking > Bar > Sports Bar'
 'Dining and Drinking > Restaurant > Mexican Restaurant > Taco Restaurant']",b'\x00\x00\x00\x00\x01\xc0Y/\xe8\x96V\xee\xfa@4\xe7\xb0N\xe7\xc4\xa0',"{'xmin': -100.748571, 'ymin': 20.905034, 'xmax': -100.748571, 'ymax': 20.905034}","dining and drinking > restaurant > burger joint, dining and drinking > bar > sports bar, dining and drinking > restaurant > mexican restaurant > taco restaurant",1
586684ce6cea3f1bbab3f6e7,Kekas Alfer,21.151937,-101.70027,,León,Guanajuato,,,,,MX,2016-12-30,2020-11-22,,,,,,,,['4bf58dd8d48988d151941735'],['Dining and Drinking > Restaurant > Mexican Restaurant > Taco Restaurant'],b'\x00\x00\x00\x00\x01\xc0Yl\xd19C\x17\xad@5&\xe5W\xde\rg',"{'xmin': -101.70027, 'ymin': 21.151937, 'xmax': -101.70027, 'ymax': 21.151937}",dining and drinking > restaurant > mexican restaurant > taco restaurant,1
4dcc9563d164679b8cd30340,Tacos el Paisa,20.651486312876514,-103.42260269181332,av. Patria,,,,,,,MX,2011-05-13,2021-08-12,,,,,,,,['4bf58dd8d48988d151941735'],['Dining and Drinking > Restaurant > Mexican Restaurant > Taco Restaurant'],"b'\x00\x00\x00\x00\x01\xc0Y\xdb\x0b\xec)""\x8c@4\xa6\xc7\xce\x97\x98\xa4'","{'xmin': -103.42260269181332, 'ymin': 20.651486312876514, 'xmax': -103.42260269181332, 'ymax': 20.651486312876514}",dining and drinking > restaurant > mexican restaurant > taco restaurant,1
4f945614e4b0242d621a797a,Los Primos,20.760219,-103.38945,,,,,,,,MX,2012-04-22,2021-08-11,,,,,,,,['4bf58dd8d48988d151941735'],['Dining and Drinking > Restaurant > Mexican Restaurant > Taco Restaurant'],b'\x00\x00\x00\x00\x01\xc0Y\xd8\xec\xbf\xb1[W@4\xc2\x9d\xb6^\xcc>',"{'xmin': -103.38945, 'ymin': 20.760219, 'xmax': -103.38945, 'ymax': 20.760219}",dining and drinking > restaurant > mexican restaurant > taco restaurant,1
55711540498ef374570d49e7,Taquería Jalisco,20.389482,-101.178781,,,,,,,,MX,2015-06-05,2021-08-15,,,,,,,,['4bf58dd8d48988d151941735'],['Dining and Drinking > Restaurant > Mexican Restaurant > Taco Restaurant'],b'\x00\x00\x00\x00\x01\xc0YKq%\xdd\t[@4c\xb5\x17\xa4at',"{'xmin': -101.178781, 'ymin': 20.389482, 'xmax': -101.178781, 'ymax': 20.389482}",dining and drinking > restaurant > mexican restaurant > taco restaurant,1
4f90bf8de4b0a9b8bc90a691,Tacos Rayito,20.960505138814366,-101.4334684604359,Río Turbio 71,Silao,Guanajuato,36100,,,,MX,2012-04-20,2020-11-24,,,,,,,,['4bf58dd8d48988d151941735'],['Dining and Drinking > Restaurant > Mexican Restaurant > Taco Restaurant'],b'\x00\x00\x00\x00\x01\xc0Y[\xbd\xf2\x7fZ\xdc@4\xf5\xe3\xaa.\xd8\xff',"{'xmin': -101.4334684604359, 'ymin': 20.960505138814366, 'xmax': -101.4334684604359, 'ymax': 20.960505138814366}",dining and drinking > restaurant > mexican restaurant > taco restaurant,1
4d5ca865e7f75481cacd1c97,Las Brasitas Guelaguetza Las Torres,21.148833410284965,-101.66000038171278,,,,,,,,MX,2011-02-17,2021-08-14,,,,,,,,['4bf58dd8d48988d151941735'],['Dining and Drinking > Restaurant > Mexican Restaurant > Taco Restaurant'],b'\x00\x00\x00\x00\x01\xc0Yj=r=\xb3s@5&\x19\xf2E\xb9\xe0',"{'xmin': -101.66000038171278, 'ymin': 21.148833410284965, 'xmax': -101.66000038171278, 'ymax': 21.148833410284965}",dining and drinking > restaurant > mexican restaurant > taco restaurant,1
5077734de4b0d3b8078fd7cd,mis taquitos.com,20.512073516845703,-100.84221649169922,Av. Real de Arboledas 108,Celaya,Guanajuato,,,,,MX,2012-10-12,2020-11-23,,,,,,,,['4bf58dd8d48988d151941735'],['Dining and Drinking > Restaurant > Mexican Restaurant > Taco Restaurant'],b'\x00\x00\x00\x00\x01\xc0Y5\xe6\xe0\x00\x00\x00@4\x83\x17@\x00\x00\x00',"{'xmin': -100.84221649169922, 'ymin': 20.512073516845703, 'xmax': -100.84221649169922, 'ymax': 20.512073516845703}",dining and drinking > restaurant > mexican restaurant > taco restaurant,1
502d2ec2e4b021f7a3f0d474,Tacos Don Artur el ahorita te atiendo,20.675056,-103.326585,Eliliano Zapata,Guadalajara,,,,,,MX,2012-08-16,2021-08-15,,,,,,,,['4bf58dd8d48988d151941735'],['Dining and Drinking > Restaurant > Mexican Restaurant > Taco Restaurant'],b'\x00\x00\x00\x00\x01\xc0Y\xd4\xe6\xc4\xc5\x97N@4\xac\xd0xR\xf7\xf5',"{'xmin': -103.326585, 'ymin': 20.675056, 'xmax': -103.326585, 'ymax': 20.675056}",dining and drinking > restaurant > mexican restaurant > taco restaurant,1
4e8fb90c02d5ee38b680fc58,Tacos Tom,20.6787052154541,-103.36129760742188,Juan Manuel,"Guadalajara, JAL",jalisco,,,,,MX,2011-10-08,2021-08-12,,,,,,,,['4bf58dd8d48988d151941735'],['Dining and Drinking > Restaurant > Mexican Restaurant > Taco Restaurant'],b'\x00\x00\x00\x00\x01\xc0Y\xd7\x1f\x80\x00\x00\x00@4\xad\xbf\xa0\x00\x00\x00',"{'xmin': -103.36129760742188, 'ymin': 20.6787052154541, 'xmax': -103.36129760742188, 'ymax': 20.6787052154541}",dining and drinking > restaurant > mexican restaurant > taco restaurant,1
591658febed48311a1f8ebd7,Taquería Don Ramiro,20.707919,-103.313493,Igualdad 558,Guadalajara,JAL,44300,,,,MX,2017-05-13,2021-08-13,,,,,,,,['4bf58dd8d48988d151941735'],['Dining and Drinking > Restaurant > Mexican Restaurant > Taco Restaurant'],b'\x00\x00\x00\x00\x01\xc0Y\xd4\x10D\xf1\xa1\x98@4\xb5:-\xf97\x8f',"{'xmin': -103.313493, 'ymin': 20.707919, 'xmax': -103.313493, 'ymax': 20.707919}",dining and drinking > restaurant > mexican restaurant > taco restaurant,1
5261b2da498eaec52c815e67,El Mexicanito,21.913153,-102.311714,Sierra de pinos 107,Aguascalientes,,,,,,MX,2013-10-18,2020-11-25,,,,,,,,['4bf58dd8d48988d151941735'],['Dining and Drinking > Restaurant > Mexican Restaurant > Taco Restaurant'],b'\x00\x00\x00\x00\x01\xc0Y\x93\xf3\x1fF\xed$@5\xe9\xc4e\x1f>\x8a',"{'xmin': -102.311714, 'ymin': 21.913153, 'xmax': -102.311714, 'ymax': 21.913153}",dining and drinking > restaurant > mexican restaurant > taco restaurant,1
50842993e4b0921f5d2e3971,Tacos Javier,21.523765915824654,-104.88731717776682,,,,,,,,MX,2012-10-21,2021-08-14,,,,,,,,['4bf58dd8d48988d151941735' '4bf58dd8d48988d1cb941735'],"['Dining and Drinking > Restaurant > Mexican Restaurant > Taco Restaurant'
 'Dining and Drinking > Food Truck']",b'\x00\x00\x00\x00\x01\xc0Z8\xc9\xcd\xfc\xec\x00@5\x86\x15\x85\xe79\xf4',"{'xmin': -104.88731717776682, 'ymin': 21.523765915824654, 'xmax': -104.88731717776682, 'ymax': 21.523765915824654}","dining and drinking > restaurant > mexican restaurant > taco restaurant, dining and drinking > food truck",1
5b4958af4b78c5002c5655c3,Los Cuñados Tacos,20.64177,-103.420242,,Zapopan,JAL,45070,,,,MX,2018-07-14,2020-11-22,,,,,,,,['4bf58dd8d48988d151941735'],['Dining and Drinking > Restaurant > Mexican Restaurant > Taco Restaurant'],b'\x00\x00\x00\x00\x01\xc0Y\xda\xe5>\xb3\x99\xf6@4\xa4K\t\xe9\x8d\xce',"{'xmin': -103.420242, 'ymin': 20.64177, 'xmax': -103.420242, 'ymax': 20.64177}",dining and drinking > restaurant > mexican restaurant > taco restaurant,1
58d0000a995842498e7cb8b0,Tacos De Barbacoa El Super,20.64564,-103.311295,Ramón Lopez,Guadalajara,Jalisco,,,,,MX,2017-03-20,2021-08-13,,,,,,,,['4bf58dd8d48988d151941735'],['Dining and Drinking > Restaurant > Mexican Restaurant > Taco Restaurant'],"b'\x00\x00\x00\x00\x01\xc0Y\xd3\xecA\xdd\x1a""@4\xa5H\xa9\xbc\xfdL'","{'xmin': -103.311295, 'ymin': 20.64564, 'xmax': -103.311295, 'ymax': 20.64564}",dining and drinking > restaurant > mexican restaurant > taco restaurant,1
50592856e4b0616dc66dca23,Tacos El Güero,20.63409,-103.317726,Niños Heroes,Tlaquepaque,Jalisco,,,,,MX,2012-09-19,2020-11-30,,,,,,,,['4bf58dd8d48988d151941735'],['Dining and Drinking > Restaurant > Mexican Restaurant > Taco Restaurant'],b'\x00\x00\x00\x00\x01\xc0Y\xd4U\x9fn\xc5\xb0@4\xa2S\xb8\xe4\xb8|',"{'xmin': -103.317726, 'ymin': 20.63409, 'xmax': -103.317726, 'ymax': 20.63409}",dining and drinking > restaurant > mexican restaurant > taco restaurant,1
502338d2e4b0f454b8976213,Tacos La Michoacana,20.683435570746166,-103.44714996490842,Calzada Norte 90A,,,,,,,MX,2012-08-09,2021-08-12,,,,,,,,['4bf58dd8d48988d151941735' '4bf58dd8d48988d1c9941735'],"['Dining and Drinking > Restaurant > Mexican Restaurant > Taco Restaurant'
 'Dining and Drinking > Dessert Shop > Ice Cream Parlor']",b'\x00\x00\x00\x00\x01\xc0Y\xdc\x9e\x1a\xe2\xec\x1c@4\xae\xf5\xa21G#',"{'xmin': -103.44714996490842, 'ymin': 20.683435570746166, 'xmax': -103.44714996490842, 'ymax': 20.683435570746166}","dining and drinking > restaurant > mexican restaurant > taco restaurant, dining and drinking > dessert shop > ice cream parlor",1
5cf5d9dc1af852002cc94d0a,Chulo’s,22.141214,-100.931434,,San Luis Potosí,S.L.P.,78396,,,,MX,2019-06-04,2020-11-24,,,,,,,,['4bf58dd8d48988d151941735'],['Dining and Drinking > Restaurant > Mexican Restaurant > Taco Restaurant'],b'\x00\x00\x00\x00\x01\xc0Y;\x9c\x9dZ\x18z@6$&\x99\xc7\xbc\xc3',"{'xmin': -100.931434, 'ymin': 22.141214, 'xmax': -100.931434, 'ymax': 22.141214}",dining and drinking > restaurant > mexican restaurant > taco restaurant,1
549da72d498e523cafcea986,Tacos de Barbacoa Juan,20.641227357202364,-103.27895434634104,Maria Reyes,Tetlán,,,,,,MX,2014-12-26,2020-11-25,,,,,,,,['4bf58dd8d48988d151941735'],['Dining and Drinking > Restaurant > Mexican Restaurant > Taco Restaurant'],"b""\x00\x00\x00\x00\x01\xc0Y\xd1\xdacT\xa7(@4\xa4'y\xe0|\x13""","{'xmin': -103.27895434634104, 'ymin': 20.641227357202364, 'xmax': -103.27895434634104, 'ymax': 20.641227357202364}",dining and drinking > restaurant > mexican restaurant > taco restaurant,1
51314c23e4b0c9fccd782007,"Tacos De Pescado Y Camaron ""Aly's""",20.66936536128945,-103.29506588185667,Francisco De Ayza #3007-B,Guadalajara,Jalisco,,,,,MX,2013-03-02,2021-08-14,,,,,,,,['4bf58dd8d48988d151941735'],['Dining and Drinking > Restaurant > Mexican Restaurant > Taco Restaurant'],b'\x00\x00\x00\x00\x01\xc0Y\xd2\xe2\\\x02/Y@4\xab[\x87?\xd0<',"{'xmin': -103.29506588185667, 'ymin': 20.66936536128945, 'xmax': -103.29506588185667, 'ymax': 20.66936536128945}",dining and drinking > restaurant > mexican restaurant > taco restaurant,1
534ddd8b498e079b1e0df29d,Tacos Ke Vasooo?,20.636756363662343,-103.39717355143188,,Guadalajara,,,,,,MX,2014-04-16,2020-11-22,,,,,,,,['4bf58dd8d48988d151941735'],['Dining and Drinking > Restaurant > Mexican Restaurant > Taco Restaurant'],b'\x00\x00\x00\x00\x01\xc0Y\xd9kJ\x9d\x8f\x1c@4\xa3\x02w\rs\x1c',"{'xmin': -103.39717355143188, 'ymin': 20.636756363662343, 'xmax': -103.39717355143188, 'ymax': 20.636756363662343}",dining and drinking > restaurant > mexican restaurant > taco restaurant,1
57830c42498e2dacccaaa2c2,Taquerías Los Ganzos,20.691208,-101.354153,Av. Ejército Nacional,Irapuato,Guanajuato,,,,,MX,2016-07-11,2020-11-22,,,,,,,,['4bf58dd8d48988d151941735'],['Dining and Drinking > Restaurant > Mexican Restaurant > Taco Restaurant'],b'\x00\x00\x00\x00\x01\xc0YV\xaaqX1\xf0@4\xb0\xf3\x01\xea\xbb\xcb',"{'xmin': -101.354153, 'ymin': 20.691208, 'xmax': -101.354153, 'ymax': 20.691208}",dining and drinking > restaurant > mexican restaurant > taco restaurant,1
52a2b30b11d25cafa7bd746c,Tacos Pompes,20.651359,-103.295327,,,,,,,,MX,2013-12-07,2021-08-14,,,,,,,,['4bf58dd8d48988d151941735'],['Dining and Drinking > Restaurant > Mexican Restaurant > Taco Restaurant'],b'\x00\x00\x00\x00\x01\xc0Y\xd2\xe6\xa37\xa8\r@4\xa6\xbfv\xa2\xf4\x8c',"{'xmin': -103.295327, 'ymin': 20.651359, 'xmax': -103.295327, 'ymax': 20.651359}",dining and drinking > restaurant > mexican restaurant > taco restaurant,1
5a3c0b0cc0af574d054d8daf,Carnitas El Vale 2,20.678421,-103.3383,industria,Guadalajara,Jalisco,44360,,,,MX,2017-12-21,2021-08-11,,,,,,,,['4bf58dd8d48988d151941735'],['Dining and Drinking > Restaurant > Mexican Restaurant > Taco Restaurant'],b'\x00\x00\x00\x00\x01\xc0Y\xd5\xa6\xb5\x0b\x0f(@4\xad\xac\xff\xa7\xebl',"{'xmin': -103.3383, 'ymin': 20.678421, 'xmax': -103.3383, 'ymax': 20.678421}",dining and drinking > restaurant > mexican restaurant > taco restaurant,1
5a3dbf7f09e283441f07519d,Santo Taco,20.694044,-105.294608,,Nuevo Vallarta,NAY,,,,,MX,2017-12-23,2023-12-21,,322 297 6570,,,,,,['4bf58dd8d48988d151941735'],['Dining and Drinking > Restaurant > Mexican Restaurant > Taco Restaurant'],b'\x00\x00\x00\x00\x01\xc0ZR\xda\xdb\x83H\xf5@4\xb1\xac\xde\x19\xfc+',"{'xmin': -105.294608, 'ymin': 20.694044, 'xmax': -105.294608, 'ymax': 20.694044}",dining and drinking > restaurant > mexican restaurant > taco restaurant,1
4cc3ccf4c844721ef5b6e501,Tacos El Guero,20.778526,-103.451333,,Nuevo México,JAL,,,,,MX,2010-10-24,2020-11-23,,,,,,,,['4bf58dd8d48988d151941735'],['Dining and Drinking > Restaurant > Mexican Restaurant > Taco Restaurant'],b'\x00\x00\x00\x00\x01\xc0Y\xdc\xe2\xa3\xce\xa6\xc2@4\xc7Mz\xdd\x15\xf0',"{'xmin': -103.451333, 'ymin': 20.778526, 'xmax': -103.451333, 'ymax': 20.778526}",dining and drinking > restaurant > mexican restaurant > taco restaurant,1
513d4b4be4b04d690ff29bdb,Tacos Tapatío,22.133921078435296,-101.03190541573143,Himalaya,San Luis Potosí,San Luis Potosí,,,,,MX,2013-03-11,2020-11-23,,,,,,,,['4bf58dd8d48988d151941735'],['Dining and Drinking > Restaurant > Mexican Restaurant > Taco Restaurant'],"b'\x00\x00\x00\x00\x01\xc0YB\n\xbd\x03Ho@6""H\xa6\xdc\x1f\xe9'","{'xmin': -101.03190541573143, 'ymin': 22.133921078435296, 'xmax': -101.03190541573143, 'ymax': 22.133921078435296}",dining and drinking > restaurant > mexican restaurant > taco restaurant,1
51ccc763498ea4582a3b80f7,Mariscos y Tacos El Maviri,20.529144287109375,-100.83228302001953,,,,,,,,MX,2013-06-27,2021-08-13,,,,,,,,"['4bf58dd8d48988d1ce941735' '4bf58dd8d48988d151941735'
 '50327c8591d4c4b30a586d5d']","['Dining and Drinking > Restaurant > Seafood Restaurant'
 'Dining and Drinking > Restaurant > Mexican Restaurant > Taco Restaurant'
 'Dining and Drinking > Brewery']",b'\x00\x00\x00\x00\x01\xc0Y5D \x00\x00\x00@4\x87v\x00\x00\x00\x00',"{'xmin': -100.83228302001953, 'ymin': 20.529144287109375, 'xmax': -100.83228302001953, 'ymax': 20.529144287109375}","dining and drinking > restaurant > seafood restaurant, dining and drinking > restaurant > mexican restaurant > taco restaurant, dining and drinking > brewery",1
5207c168498e862a8647cdf3,Tacos El Patron,20.621434,-103.321952,,,,,,,,MX,2013-08-11,2021-08-15,,,,,,,,['4bf58dd8d48988d151941735'],['Dining and Drinking > Restaurant > Mexican Restaurant > Taco Restaurant'],b'\x00\x00\x00\x00\x01\xc0Y\xd4\x9a\xdc\x8f\xb8o@4\x9f\x16Lr\x9fZ',"{'xmin': -103.321952, 'ymin': 20.621434, 'xmax': -103.321952, 'ymax': 20.621434}",dining and drinking > restaurant > mexican restaurant > taco restaurant,1
58993aa951666a4c26220b54,Restaurante Los Laureles,20.659100549958534,-103.39712406538966,Av. Las Rosas 3045,Zapopan,Jalisco,,,,,MX,2017-02-07,2021-08-12,,,,,,,,['4bf58dd8d48988d151941735'],['Dining and Drinking > Restaurant > Mexican Restaurant > Taco Restaurant'],b'\x00\x00\x00\x00\x01\xc0Y\xd9j{\x0eSg@4\xa8\xba\xd0J\xd8\xf7',"{'xmin': -103.39712406538966, 'ymin': 20.659100549958534, 'xmax': -103.39712406538966, 'ymax': 20.659100549958534}",dining and drinking > restaurant > mexican restaurant > taco restaurant,1
4cffdae6202e224b5071b02a,Tacos De Polvo,20.566668,-103.443591,,,,,,,,MX,2010-12-08,2021-08-16,,,,,,,,['4bf58dd8d48988d151941735'],['Dining and Drinking > Restaurant > Mexican Restaurant > Taco Restaurant'],"b""\x00\x00\x00\x00\x01\xc0Y\xdcc\xcb\x81s2@4\x91\x11'o\xb0\x92""","{'xmin': -103.443591, 'ymin': 20.566668, 'xmax': -103.443591, 'ymax': 20.566668}",dining and drinking > restaurant > mexican restaurant > taco restaurant,1
58163e7738fa4159e7e97ddc,Tacos Dorados Del Güero,20.667093,-103.2957,,Guadalajara,Jalisco,,,,,MX,2016-10-30,2021-08-16,,,,,,,,['4bf58dd8d48988d151941735'],['Dining and Drinking > Restaurant > Mexican Restaurant > Taco Restaurant'],b'\x00\x00\x00\x00\x01\xc0Y\xd2\xec\xbf\xb1[W@4\xaa\xc6\x9bZc\xfa',"{'xmin': -103.2957, 'ymin': 20.667093, 'xmax': -103.2957, 'ymax': 20.667093}",dining and drinking > restaurant > mexican restaurant > taco restaurant,1
532e5706498e42bfa0f7e6db,Don Alambre,21.920558495414948,-102.28117998444945,Paulino N Marti,Aguascalientes,Aguascalientes,20126,,,,MX,2014-03-23,2020-11-21,,,,,,,,['4bf58dd8d48988d1c1941735' '4bf58dd8d48988d151941735'],"['Dining and Drinking > Restaurant > Mexican Restaurant'
 'Dining and Drinking > Restaurant > Mexican Restaurant > Taco Restaurant']",b'\x00\x00\x00\x00\x01\xc0Y\x91\xfe\xdaU`\x03@5\xeb\xa9\xb8\xb7\xdc\xb7',"{'xmin': -102.28117998444945, 'ymin': 21.920558495414948, 'xmax': -102.28117998444945, 'ymax': 21.920558495414948}","dining and drinking > restaurant > mexican restaurant, dining and drinking > restaurant > mexican restaurant > taco restaurant",1
50b191ece4b07e0dfbd8c1bd,Tacos El Platano,21.09415303080005,-101.64196381619448,,,,,,,,MX,2012-11-25,2021-08-15,,,,,,,,['4bf58dd8d48988d151941735'],['Dining and Drinking > Restaurant > Mexican Restaurant > Taco Restaurant'],b'\x00\x00\x00\x00\x01\xc0Yi\x15\xeff\xf1R@5\x18\x1ai\xbc\x1b\x02',"{'xmin': -101.64196381619448, 'ymin': 21.09415303080005, 'xmax': -101.64196381619448, 'ymax': 21.09415303080005}",dining and drinking > restaurant > mexican restaurant > taco restaurant,1
669e7edfa008a762172f7f02,Super Taco Tors,20.685109,-103.373668,,Guadalajara,Jal.,44650,,,,MX,2024-07-22,2024-07-22,,,,,,,,['4bf58dd8d48988d151941735'],['Dining and Drinking > Restaurant > Mexican Restaurant > Taco Restaurant'],b'\x00\x00\x00\x00\x01\xc0Y\xd7\xea-/\xe3\xf3@4\xafcM\xad1\xfd',"{'xmin': -103.373668, 'ymin': 20.685109, 'xmax': -103.373668, 'ymax': 20.685109}",dining and drinking > restaurant > mexican restaurant > taco restaurant,1
50cd7841e4b0f94b372ee3b5,Taquería El Charco,22.149838881497885,-100.94638834717883,Av Colorines 417,Soledad de Graciano Sánchez,San Luis Potosí,,,,,MX,2012-12-16,2020-11-23,,,,,,,,['4bf58dd8d48988d1c1941735' '4bf58dd8d48988d151941735'],"['Dining and Drinking > Restaurant > Mexican Restaurant'
 'Dining and Drinking > Restaurant > Mexican Restaurant > Taco Restaurant']",b'\x00\x00\x00\x00\x01\xc0Y<\x91\xa0n\x1c\xb5@6&[\xd7G\xb3\xe0',"{'xmin': -100.94638834717883, 'ymin': 22.149838881497885, 'xmax': -100.94638834717883, 'ymax': 22.149838881497885}","dining and drinking > restaurant > mexican restaurant, dining and drinking > restaurant > mexican restaurant > taco restaurant",1
54df7c19498ef58d211471d7,RompeMadres,20.677678,-103.447202,,,,,,,,MX,2015-02-14,2021-08-16,,,,,,,,['4bf58dd8d48988d151941735'],['Dining and Drinking > Restaurant > Mexican Restaurant > Taco Restaurant'],"b'\x00\x00\x00\x00\x01\xc0Y\xdc\x9e\xf5#-,@4\xad|N/7\xfc'","{'xmin': -103.447202, 'ymin': 20.677678, 'xmax': -103.447202, 'ymax': 20.677678}",dining and drinking > restaurant > mexican restaurant > taco restaurant,1
50b04391e4b034c5d7dae6c1,Tacos El Compadrito,20.65384040799685,-103.36379691205897,,Guadalajara,Jalisco,,,,,MX,2012-11-24,2021-08-17,,,,,,,,['4bf58dd8d48988d151941735'],['Dining and Drinking > Restaurant > Mexican Restaurant > Taco Restaurant'],b'\x00\x00\x00\x00\x01\xc0Y\xd7Hr\xd7\xebv@4\xa7b\x15\xc1&W',"{'xmin': -103.36379691205897, 'ymin': 20.65384040799685, 'xmax': -103.36379691205897, 'ymax': 20.65384040799685}",dining and drinking > restaurant > mexican restaurant > taco restaurant,1
5ddc0b42c515cc000882e004,Tacos Mi Esperanza,20.604456,-105.23514,Calle Constitución,Puerto Vallarta,JAL,48380,,,,MX,2019-11-25,2020-11-25,,322 149 2905,,,1559084544129652.0,,,['4bf58dd8d48988d151941735'],['Dining and Drinking > Restaurant > Mexican Restaurant > Taco Restaurant'],b'\x00\x00\x00\x00\x01\xc0ZO\x0c\x88\xa4~\xd0@4\x9a\xbd\xa0\xdf\xde\xf8',"{'xmin': -105.23514, 'ymin': 20.604456, 'xmax': -105.23514, 'ymax': 20.604456}",dining and drinking > restaurant > mexican restaurant > taco restaurant,1
50f8409ee4b0a4e8970380b8,Tacos de Luis,21.120626,-101.691926,,,,,,,,MX,2013-01-17,2021-08-11,,,,,,,,['4bf58dd8d48988d151941735'],['Dining and Drinking > Restaurant > Mexican Restaurant > Taco Restaurant'],"b'\x00\x00\x00\x00\x01\xc0YlH\x83\xfdP""@5\x1e\xe1Xu\x0c\x1c'","{'xmin': -101.691926, 'ymin': 21.120626, 'xmax': -101.691926, 'ymax': 21.120626}",dining and drinking > restaurant > mexican restaurant > taco restaurant,1
643c2862e1de621b45ead368,Carnitas Juanito,22.142561,-100.95409,Tauro 196,San Luis Potosí,San Luis Potosí,78399,,,,MX,2023-04-16,2023-04-16,,,,,,,,['4bf58dd8d48988d151941735'],['Dining and Drinking > Restaurant > Mexican Restaurant > Taco Restaurant'],b'\x00\x00\x00\x00\x01\xc0Y=\x0f\xcf\x80\xdc3@6$~\xe0\xb0\xaf`',"{'xmin': -100.95409, 'ymin': 22.142561, 'xmax': -100.95409, 'ymax': 22.142561}",dining and drinking > restaurant > mexican restaurant > taco restaurant,1
4e643840483bd9a9751a0dcb,El Tabloncito,20.91442173140604,-100.75217020223857,calzada de la estación,San Miguel de Allende,Guanajuato,,,,,MX,2011-09-05,2020-11-23,,,,,,,,['4bf58dd8d48988d151941735'],['Dining and Drinking > Restaurant > Mexican Restaurant > Taco Restaurant'],b'\x00\x00\x00\x00\x01\xc0Y0#\x8e|\xe8\xfc@4\xea\x17\x8a\xe7$\x01',"{'xmin': -100.75217020223857, 'ymin': 20.91442173140604, 'xmax': -100.75217020223857, 'ymax': 20.91442173140604}",dining and drinking > restaurant > mexican restaurant > taco restaurant,1
54792cfb498ec574d65038a9,Pancho's Tacos,20.869497,-105.439961,Revolución 24D,Sayulita,Nayarit,,,,,MX,2014-11-29,2023-12-20,,322 193 7720,,,,,,['4bf58dd8d48988d151941735'],['Dining and Drinking > Restaurant > Mexican Restaurant > Taco Restaurant'],b'\x00\x00\x00\x00\x01\xc0Z\\(R.\xa0\xfd@4\xde\x97Z\xfa\xf8Y',"{'xmin': -105.439961, 'ymin': 20.869497, 'xmax': -105.439961, 'ymax': 20.869497}",dining and drinking > restaurant > mexican restaurant > taco restaurant,1
539a780d498ee5525ab27bf4,Tacos el Tronquito,22.194235,-101.002745,,,,,,,,MX,2014-06-13,2021-08-16,,,,,,,,['4bf58dd8d48988d151941735'],['Dining and Drinking > Restaurant > Mexican Restaurant > Taco Restaurant'],"b'\x00\x00\x00\x00\x01\xc0Y@,\xf9]N\x90@61\xb9b\x8c\xbd\x12'","{'xmin': -101.002745, 'ymin': 22.194235, 'xmax': -101.002745, 'ymax': 22.194235}",dining and drinking > restaurant > mexican restaurant > taco restaurant,1
4e6e3591c65b18875fb06f48,Quesadillas Doña Mari,20.67214032008245,-101.34078181720743,Pedro Moreno,Irapuato,Guanajuato,,,,,MX,2011-09-12,2020-11-23,,,,,,,,['4bf58dd8d48988d151941735'],['Dining and Drinking > Restaurant > Mexican Restaurant > Taco Restaurant'],b'\x00\x00\x00\x00\x01\xc0YU\xcf^\x89\xfe\x8d@4\xac\x11cU\x13\xbc',"{'xmin': -101.34078181720743, 'ymin': 20.67214032008245, 'xmax': -101.34078181720743, 'ymax': 20.67214032008245}",dining and drinking > restaurant > mexican restaurant > taco restaurant,1
500ba828e4b052b69f6af1b0,Tacos Luky's,20.6303039,-105.218211,Pitillal,Puerto vallarta,Jaliso,,,,,MX,2012-07-22,2021-08-14,,,,,,,,['4bf58dd8d48988d151941735'],['Dining and Drinking > Restaurant > Mexican Restaurant > Taco Restaurant'],b'\x00\x00\x00\x00\x01\xc0ZM\xf7+E((@4\xa1[\x98\xad\n\x90',"{'xmin': -105.218211, 'ymin': 20.6303039, 'xmax': -105.218211, 'ymax': 20.6303039}",dining and drinking > restaurant > mexican restaurant > taco restaurant,1
4c92e9bcd84a6dcbb41b3987,Los Faroles Taqueria,20.672969617604004,-103.34639391951917,Ramón Corona,Guadalajara,,,,,,MX,2010-09-17,2021-08-11,,,,,,,,['4bf58dd8d48988d151941735'],['Dining and Drinking > Restaurant > Mexican Restaurant > Taco Restaurant'],b'\x00\x00\x00\x00\x01\xc0Y\xd6+Qf\xf7\x8f@4\xacG\xbc\xa2\xcf\x92',"{'xmin': -103.34639391951917, 'ymin': 20.672969617604004, 'xmax': -103.34639391951917, 'ymax': 20.672969617604004}",dining and drinking > restaurant > mexican restaurant > taco restaurant,1
4ec60a5c93ad41338b1fcadb,Los Parados,21.15298736165945,-101.67877002855663,Alonso De Torres,Leon,GUANAJUATO,,,,,MX,2011-11-18,2020-11-23,,,,,,,,['4bf58dd8d48988d151941735'],['Dining and Drinking > Restaurant > Mexican Restaurant > Taco Restaurant'],"b""\x00\x00\x00\x00\x01\xc0Ykp\xf7\xd8\x89\xf7@5'*.\x03\x07V""","{'xmin': -101.67877002855663, 'ymin': 21.15298736165945, 'xmax': -101.67877002855663, 'ymax': 21.15298736165945}",dining and drinking > restaurant > mexican restaurant > taco restaurant,1
4f0510d80e61b14c27fdf1fb,Tacos Los Gueros,21.85278809441693,-102.26934187891476,,Aguascalientes,AGS,,,,,MX,2012-01-05,2020-11-25,,,,,,,,['4bf58dd8d48988d151941735'],['Dining and Drinking > Restaurant > Mexican Restaurant > Taco Restaurant'],b'\x00\x00\x00\x00\x01\xc0Y\x91<\xe5\xb8Xt@5\xdaPR\x0f\xf0Z',"{'xmin': -102.26934187891476, 'ymin': 21.85278809441693, 'xmax': -102.26934187891476, 'ymax': 21.85278809441693}",dining and drinking > restaurant > mexican restaurant > taco restaurant,1
59ab34d26f0aa26c3288f20a,"Tacos De Colores ""Tellez""",21.886491,-102.296335,,Aguascalientes,AGS,20000,,,,MX,2017-09-02,2020-11-23,,,,,,,,['4bf58dd8d48988d151941735' '56aa371be4b08b9a8d57350b'],"['Dining and Drinking > Restaurant > Mexican Restaurant > Taco Restaurant'
 'Dining and Drinking > Food Stand']","b""\x00\x00\x00\x00\x01\xc0Y\x92\xf7'\x13j@@5\xe2\xf1\x12\xfd2\xc6""","{'xmin': -102.296335, 'ymin': 21.886491, 'xmax': -102.296335, 'ymax': 21.886491}","dining and drinking > restaurant > mexican restaurant > taco restaurant, dining and drinking > food stand",1
5848d13f000bef670580d61c,taqueria el chato,21.155349,-101.652353,,,,,,,,MX,2016-12-08,2021-08-12,,,,,,,,['4bf58dd8d48988d151941735'],['Dining and Drinking > Restaurant > Mexican Restaurant > Taco Restaurant'],"b""\x00\x00\x00\x00\x01\xc0Yi\xc0&\xcc\x1c\xa4@5'\xc4\xf3\xbaw`""","{'xmin': -101.652353, 'ymin': 21.155349, 'xmax': -101.652353, 'ymax': 21.155349}",dining and drinking > restaurant > mexican restaurant > taco restaurant,1
63c2f1e345acf1276bc86fbf,Birrieria La Cabañita,20.758443,-103.392693,Cardenal #1524 D,Zapopan,JAL,45130,,,,MX,2023-01-14,2023-01-14,,,,,,,,['4bf58dd8d48988d151941735'],['Dining and Drinking > Restaurant > Mexican Restaurant > Taco Restaurant'],b'\x00\x00\x00\x00\x01\xc0Y\xd9!\xe1\xd2\x17\x8f@4\xc2)R\x08\xe1P',"{'xmin': -103.392693, 'ymin': 20.758443, 'xmax': -103.392693, 'ymax': 20.758443}",dining and drinking > restaurant > mexican restaurant > taco restaurant,1
51f6b122498e6e348e755a40,tacos kiko,21.508850940321388,-104.90493715352724,,,,,,,,MX,2013-07-29,2021-08-15,,,,,,,,['4bf58dd8d48988d151941735'],['Dining and Drinking > Restaurant > Mexican Restaurant > Taco Restaurant'],b'\x00\x00\x00\x00\x01\xc0Z9\xea}\x85\xd5n@5\x82D\x0e#8\x1e',"{'xmin': -104.90493715352724, 'ymin': 21.508850940321388, 'xmax': -104.90493715352724, 'ymax': 21.508850940321388}",dining and drinking > restaurant > mexican restaurant > taco restaurant,1
540689c6498e57e1e8a5877b,Tacos al Carbón El Negro,20.62677574157715,-103.4024429321289,,,,,,,,MX,2014-09-03,2021-08-15,,,,,,,,['4bf58dd8d48988d151941735'],['Dining and Drinking > Restaurant > Mexican Restaurant > Taco Restaurant'],b'\x00\x00\x00\x00\x01\xc0Y\xd9\xc1\xa0\x00\x00\x00@4\xa0t`\x00\x00\x00',"{'xmin': -103.4024429321289, 'ymin': 20.62677574157715, 'xmax': -103.4024429321289, 'ymax': 20.62677574157715}",dining and drinking > restaurant > mexican restaurant > taco restaurant,1
5781bdefcd1066b31fb87c9b,Tacos El Grillo,21.473091,-104.886838,,,,,,,,MX,2016-07-10,2021-08-14,,,,,,,,['4bf58dd8d48988d151941735'],['Dining and Drinking > Restaurant > Mexican Restaurant > Taco Restaurant'],b'\x00\x00\x00\x00\x01\xc0Z8\xc1\xf4+\xb6g@5y\x1c}\xe5\x08-',"{'xmin': -104.886838, 'ymin': 21.473091, 'xmax': -104.886838, 'ymax': 21.473091}",dining and drinking > restaurant > mexican restaurant > taco restaurant,1
51be882b498edaf057e2e0c4,La Flamita Mixe,19.244976,-103.712164,,,,,,,,MX,2013-06-17,2021-08-13,,,,,,,,['4bf58dd8d48988d151941735'],['Dining and Drinking > Restaurant > Mexican Restaurant > Taco Restaurant'],b'\x00\x00\x00\x00\x01\xc0Y\xed\x94\x18PX\xde@3>\xb6\xbfDN\x0e',"{'xmin': -103.712164, 'ymin': 19.244976, 'xmax': -103.712164, 'ymax': 19.244976}",dining and drinking > restaurant > mexican restaurant > taco restaurant,1
50077867e4b0acf3f336f876,"Tacos ""Mayk""",19.1136463110061,-104.33195371924363,,,,,,,,MX,2012-07-19,2021-08-16,,,,,,,,['4bf58dd8d48988d151941735'],['Dining and Drinking > Restaurant > Mexican Restaurant > Taco Restaurant'],b'\x00\x00\x00\x00\x01\xc0Z\x15>\xba\xcf\xfb\xf7@3\x1d\x17\xec\xb5\x15\x0e',"{'xmin': -104.33195371924363, 'ymin': 19.1136463110061, 'xmax': -104.33195371924363, 'ymax': 19.1136463110061}",dining and drinking > restaurant > mexican restaurant > taco restaurant,1
4ff79e6ce4b003534c342cf8,Tacos don lencho,20.65650177001953,-103.29124450683594,Isaac Albeniz 3326,Guadalajara,Jalisco,44810,,,,MX,2012-07-07,2021-08-11,,,,,,,,['4bf58dd8d48988d151941735'],['Dining and Drinking > Restaurant > Mexican Restaurant > Taco Restaurant'],b'\x00\x00\x00\x00\x01\xc0Y\xd2\xa3\xc0\x00\x00\x00@4\xa8\x10\x80\x00\x00\x00',"{'xmin': -103.29124450683594, 'ymin': 20.65650177001953, 'xmax': -103.29124450683594, 'ymax': 20.65650177001953}",dining and drinking > restaurant > mexican restaurant > taco restaurant,1
6352ca726c394d1934e8b508,Tacos De Barbacoa,20.649536,-103.31634,,Guadalajara,Jalisco,44840,,,,MX,2022-10-21,2022-10-21,,,,,,,,['4bf58dd8d48988d151941735'],['Dining and Drinking > Restaurant > Mexican Restaurant > Taco Restaurant'],b'\x00\x00\x00\x00\x01\xc0Y\xd4>\xea \x9a\xaa@4\xa6G\xfd\xc5\x93\x1d',"{'xmin': -103.31634, 'ymin': 20.649536, 'xmax': -103.31634, 'ymax': 20.649536}",dining and drinking > restaurant > mexican restaurant > taco restaurant,1
504f4c3de4b05f0233581db3,Tacos De Birria,20.697941,-105.23843,,,,,,,,MX,2012-09-11,2021-08-12,,,,,,,,['4bf58dd8d48988d151941735'],['Dining and Drinking > Restaurant > Mexican Restaurant > Taco Restaurant'],b'\x00\x00\x00\x00\x01\xc0ZOBo\xe7\x18\xa8@4\xb2\xacB\xe9\x89\x9c',"{'xmin': -105.23843, 'ymin': 20.697941, 'xmax': -105.23843, 'ymax': 20.697941}",dining and drinking > restaurant > mexican restaurant > taco restaurant,1
5675ce78498e00b4d4c03068,Carnitas Melitos,20.701561,-103.327519,,Guadalajara,,,,,,MX,2015-12-19,2021-08-12,,,,,,,,['4bf58dd8d48988d151941735'],['Dining and Drinking > Restaurant > Mexican Restaurant > Taco Restaurant'],b'\x00\x00\x00\x00\x01\xc0Y\xd4\xf6\x12@td@4\xb3\x99\x80o&)',"{'xmin': -103.327519, 'ymin': 20.701561, 'xmax': -103.327519, 'ymax': 20.701561}",dining and drinking > restaurant > mexican restaurant > taco restaurant,1
5709c4decd1027f1ef60d3ef,"El Pariente Carnes Asadas, Papas y Tacos",20.696939,-103.355716,Av. Plan De San Luis,Guadalajara,Jalisco,,,,,MX,2016-04-10,2021-08-15,,,,,,,,['4bf58dd8d48988d151941735'],['Dining and Drinking > Restaurant > Mexican Restaurant > Taco Restaurant'],b'\x00\x00\x00\x00\x01\xc0Y\xd6\xc4\r\n\xaa~@4\xb2j\x98$N\x94',"{'xmin': -103.355716, 'ymin': 20.696939, 'xmax': -103.355716, 'ymax': 20.696939}",dining and drinking > restaurant > mexican restaurant > taco restaurant,1
4e93389e93adf0b000a578f9,Tacos El Dorado,20.728579052871265,-103.43084533826706,,Valle Real,Jalisco,,,,,MX,2011-10-10,2021-08-16,,,,,,,,['4bf58dd8d48988d151941735'],['Dining and Drinking > Restaurant > Mexican Restaurant > Taco Restaurant'],b'\x00\x00\x00\x00\x01\xc0Y\xdb\x92\xf8S_n@4\xba\x84($\xa1\xfb',"{'xmin': -103.43084533826706, 'ymin': 20.728579052871265, 'xmax': -103.43084533826706, 'ymax': 20.728579052871265}",dining and drinking > restaurant > mexican restaurant > taco restaurant,1
6f353398ca2543b9520af692,Taquero Miguel Hidalgo,21.135036,-101.677018,Miguel Hidalgo 308,León,Guanajuato,37240,,,,MX,2013-03-24,2023-12-06,,477 713 4388,,,,,,['4bf58dd8d48988d151941735'],['Dining and Drinking > Restaurant > Mexican Restaurant > Taco Restaurant'],"b'\x00\x00\x00\x00\x01\xc0YkTCN3j@5""\x91\xb8#\xc8\\'","{'xmin': -101.677018, 'ymin': 21.135036, 'xmax': -101.677018, 'ymax': 21.135036}",dining and drinking > restaurant > mexican restaurant > taco restaurant,1
4f88dfe9e4b09efba103ae15,Taqueria San Francisco,21.056193,-104.482458,,,,,,,,MX,2012-04-14,2021-08-12,,,,,,,,['4bf58dd8d48988d151941735'],['Dining and Drinking > Restaurant > Mexican Restaurant > Taco Restaurant'],b'\x00\x00\x00\x00\x01\xc0Z\x1e\xe0\x97\x84\xecc@5\x0eb\xaa\x19C\x9e',"{'xmin': -104.482458, 'ymin': 21.056193, 'xmax': -104.482458, 'ymax': 21.056193}",dining and drinking > restaurant > mexican restaurant > taco restaurant,1
4e867d0f82315e9e62ce9b38,Tacos El Pata,20.680950496143144,-101.37592275236264,,Irapuato,Guanajuato,,,,,MX,2011-10-01,2024-01-03,,462 624 5555,http://tacoselpata.com.mx,,,,TacosElPata,['4bf58dd8d48988d151941735'],['Dining and Drinking > Restaurant > Mexican Restaurant > Taco Restaurant'],b'\x00\x00\x00\x00\x01\xc0YX\x0f\x1eM\xce\x12@4\xaeR\xc5\x8f!9',"{'xmin': -101.37592275236264, 'ymin': 20.680950496143144, 'xmax': -101.37592275236264, 'ymax': 20.680950496143144}",dining and drinking > restaurant > mexican restaurant > taco restaurant,1
63897c9d663c91771b7c85d6,Taqueria La Esquina,21.897222,-102.317265,Rio Nilo,Aguascalientes,Aguascalientes,20010,,,,MX,2022-12-02,2022-12-02,,,,,,,,['4bf58dd8d48988d151941735'],['Dining and Drinking > Restaurant > Mexican Restaurant > Taco Restaurant'],b'\x00\x00\x00\x00\x01\xc0Y\x94N\x11\xdb\xca\x97@5\xe5\xb0WK@p',"{'xmin': -102.317265, 'ymin': 21.897222, 'xmax': -102.317265, 'ymax': 21.897222}",dining and drinking > restaurant > mexican restaurant > taco restaurant,1
4daba7e36e81162ae7f25e3e,La Fragua Chapultepec,22.125584,-101.019768,Chapultepec 1200 (Libramiento Sur Anillo Periférico),San Luis Potosí,San Luis Potosí,,,,,MX,2011-04-18,2020-11-23,,,,,,,,['4bf58dd8d48988d151941735'],['Dining and Drinking > Restaurant > Mexican Restaurant > Taco Restaurant'],b'\x00\x00\x00\x00\x01\xc0YAC\xe1\x00`x@6 &E\xe4\xe6\x9f',"{'xmin': -101.019768, 'ymin': 22.125584, 'xmax': -101.019768, 'ymax': 22.125584}",dining and drinking > restaurant > mexican restaurant > taco restaurant,1
50df19a5498e2bcb19875ea5,Tacos Abonados,20.693726,-103.37293,,,,,,,,MX,2012-12-29,2021-08-14,,,,,,,,['4bf58dd8d48988d151941735'],['Dining and Drinking > Restaurant > Mexican Restaurant > Taco Restaurant'],b'\x00\x00\x00\x00\x01\xc0Y\xd7\xde\x15\xcal\xa0@4\xb1\x98\x06\xf2b\x89',"{'xmin': -103.37293, 'ymin': 20.693726, 'xmax': -103.37293, 'ymax': 20.693726}",dining and drinking > restaurant > mexican restaurant > taco restaurant,1
585a0697f595724dd51bf965,Tacos Los Primos,21.897987,-102.29762,Alfredo Lewis 604-c,Aguascalientes,Aguascalientes,,,,,MX,2016-12-21,2020-11-20,,,,,,,,['4bf58dd8d48988d151941735'],['Dining and Drinking > Restaurant > Mexican Restaurant > Taco Restaurant'],b'\x00\x00\x00\x00\x01\xc0Y\x93\x0c4\xc1\xa8\xac@5\xe5\xe2y\xdd;\xb0',"{'xmin': -102.29762, 'ymin': 21.897987, 'xmax': -102.29762, 'ymax': 21.897987}",dining and drinking > restaurant > mexican restaurant > taco restaurant,1
5976cc99c876c85f080fa79f,Tacos El Jaliciense,21.247469,-102.3317,centro,San Juan de los Lagos,Jalisco,,,,,MX,2017-07-25,2020-11-24,,,,,,,,['4bf58dd8d48988d151941735'],['Dining and Drinking > Restaurant > Mexican Restaurant > Taco Restaurant'],b'\x00\x00\x00\x00\x01\xc0Y\x95:\x92\xa3\x05S@5?Z \xdd\xc6\x19',"{'xmin': -102.3317, 'ymin': 21.247469, 'xmax': -102.3317, 'ymax': 21.247469}",dining and drinking > restaurant > mexican restaurant > taco restaurant,1
5352c317498e317fdaccb724,Huaraches Chuy,20.209291964686134,-101.14111959801751,,,,,,,,MX,2014-04-19,2021-08-13,,,,,,,,['4bf58dd8d48988d151941735'],['Dining and Drinking > Restaurant > Mexican Restaurant > Taco Restaurant'],b'\x00\x00\x00\x00\x01\xc0YI\x08\x1a~\x93\xd5@45\x94(\x7f\xa4}',"{'xmin': -101.14111959801751, 'ymin': 20.209291964686134, 'xmax': -101.14111959801751, 'ymax': 20.209291964686134}",dining and drinking > restaurant > mexican restaurant > taco restaurant,1
625f7ece7ad2f951b8daf821,El Regio Tacos,20.75001,-103.399092,,Zapopan,JAL,45130,,,,MX,2022-04-20,2022-04-20,,,,,,,,['4bf58dd8d48988d151941735'],['Dining and Drinking > Restaurant > Mexican Restaurant > Taco Restaurant'],"b'\x00\x00\x00\x00\x01\xc0Y\xd9\x8a\xb9,\x06\x18@4\xc0\x00\xa7\xc5\xacG'","{'xmin': -103.399092, 'ymin': 20.75001, 'xmax': -103.399092, 'ymax': 20.75001}",dining and drinking > restaurant > mexican restaurant > taco restaurant,1
4f9213d6e4b06cfe84adec0f,El Morelense Tacos,18.92604270029837,-99.23817238105332,,Cuernavaca,Morelos,,,,,MX,2012-04-21,2020-11-22,,,,,,,,['4bf58dd8d48988d151941735'],['Dining and Drinking > Restaurant > Mexican Restaurant > Taco Restaurant'],"b'\x00\x00\x00\x00\x01\xc0X\xcf>7^\xdb\xce@2\xed\x11""h{%'","{'xmin': -99.23817238105332, 'ymin': 18.92604270029837, 'xmax': -99.23817238105332, 'ymax': 18.92604270029837}",dining and drinking > restaurant > mexican restaurant > taco restaurant,1
50e4e063e4b06c5092ea75c0,Las Qks Zenaida,19.27426919734461,-99.2198196070635,,Tlalpan,,,,,,MX,2013-01-03,2020-11-22,2015-12-04,,,,,,,['4bf58dd8d48988d151941735'],['Dining and Drinking > Restaurant > Mexican Restaurant > Taco Restaurant'],b'\x00\x00\x00\x00\x01\xc0X\xce\x11\x86A\xd6\xde@3F6\x81\x90\xe50',"{'xmin': -99.2198196070635, 'ymin': 19.27426919734461, 'xmax': -99.2198196070635, 'ymax': 19.27426919734461}",dining and drinking > restaurant > mexican restaurant > taco restaurant,1
530a2c6711d25d8ad151ba4f,Antojitos Oaxaqueños,19.290967,-99.221332,,,,,,,,MX,2014-02-23,2021-08-10,,,,,,,,['4bf58dd8d48988d151941735'],['Dining and Drinking > Restaurant > Mexican Restaurant > Taco Restaurant'],b'\x00\x00\x00\x00\x01\xc0X\xce*M\xb1c\xbb@3J|\xd057\x19',"{'xmin': -99.221332, 'ymin': 19.290967, 'xmax': -99.221332, 'ymax': 19.290967}",dining and drinking > restaurant > mexican restaurant > taco restaurant,1
53319d0b498e12fb77890547,Gopi (Tacos al vapor),19.69500466585989,-101.16370154565034,Av. ventura pte.,Morelia,Michoacán,58260,,,,MX,2014-03-25,2020-11-25,,,,,,,,['4bf58dd8d48988d151941735'],['Dining and Drinking > Restaurant > Mexican Restaurant > Taco Restaurant'],b'\x00\x00\x00\x00\x01\xc0YJz\x16\x0c7\xdd@3\xb1\xeb\xd3fo\x86',"{'xmin': -101.16370154565034, 'ymin': 19.69500466585989, 'xmax': -101.16370154565034, 'ymax': 19.69500466585989}",dining and drinking > restaurant > mexican restaurant > taco restaurant,1
55ac3717498e25a5d1cc8e49,Tac-O's,19.09971,-96.153068,,,,,,,,MX,2015-07-19,2020-11-23,,,,,,,,['4bf58dd8d48988d151941735'],['Dining and Drinking > Restaurant > Mexican Restaurant > Taco Restaurant'],b'\x00\x00\x00\x00\x01\xc0X\t\xcb\xdd\xb9\x84\x1b@3\x19\x86\x985\x15\x8c',"{'xmin': -96.153068, 'ymin': 19.09971, 'xmax': -96.153068, 'ymax': 19.09971}",dining and drinking > restaurant > mexican restaurant > taco restaurant,1
5b63b5641cf2e1002cbf7a42,Los Klandestinos,18.925192,-99.226234,,Cuernavaca,Morelos,62410,,,,MX,2018-08-03,2020-11-23,,,,,,,,['4bf58dd8d48988d151941735'],['Dining and Drinking > Restaurant > Mexican Restaurant > Taco Restaurant'],b'\x00\x00\x00\x00\x01\xc0X\xcez\x9e+\xcf\x92@2\xec\xd9b\x06\x85U',"{'xmin': -99.226234, 'ymin': 18.925192, 'xmax': -99.226234, 'ymax': 18.925192}",dining and drinking > restaurant > mexican restaurant > taco restaurant,1
556e0b80498e82526da481ae,Tacos Mr. Froy,19.16701488368087,-96.11471977774094,Ruiz Cortinez,Boca Del Río,Veracruz,,,,,MX,2015-06-02,2020-11-25,,,,,,,,['4bf58dd8d48988d151941735'],['Dining and Drinking > Restaurant > Mexican Restaurant > Taco Restaurant'],b'\x00\x00\x00\x00\x01\xc0X\x07W\x91\x9ff\x83@3*\xc1|\xc7Z\xc6',"{'xmin': -96.11471977774094, 'ymin': 19.16701488368087, 'xmax': -96.11471977774094, 'ymax': 19.16701488368087}",dining and drinking > restaurant > mexican restaurant > taco restaurant,1
536fe65f498e93b033211d1b,Carnitas Saltillito,14.90235909028712,-92.21419482619508,,,,,,,,MX,2014-05-11,2020-11-24,,,,,,,,"['4bf58dd8d48988d151941735' '4bf58dd8d48988d1c1941735'
 '4bf58dd8d48988d1df931735']","['Dining and Drinking > Restaurant > Mexican Restaurant > Taco Restaurant'
 'Dining and Drinking > Restaurant > Mexican Restaurant'
 'Dining and Drinking > Restaurant > BBQ Joint']",b'\x00\x00\x00\x00\x01\xc0W\r\xb5^7^\xbd@-\xce\x02\x02\xbc\x10 ',"{'xmin': -92.21419482619508, 'ymin': 14.90235909028712, 'xmax': -92.21419482619508, 'ymax': 14.90235909028712}","dining and drinking > restaurant > mexican restaurant > taco restaurant, dining and drinking > restaurant > mexican restaurant, dining and drinking > restaurant > bbq joint",1
59f276e81acf113e70e76622,Cenaduria El Trompito,14.874967,-92.301681,,Tapachula de Córdova y Ordóñez,CHIS,30798,,,,MX,2017-10-26,2020-11-30,,,,,,,,['4bf58dd8d48988d151941735'],['Dining and Drinking > Restaurant > Mexican Restaurant > Taco Restaurant'],b'\x00\x00\x00\x00\x01\xc0W\x13N\xbd\xd34\xc6@-\xbf\xfb\xac\xb4(\x91',"{'xmin': -92.301681, 'ymin': 14.874967, 'xmax': -92.301681, 'ymax': 14.874967}",dining and drinking > restaurant > mexican restaurant > taco restaurant,1
53063f4011d2a2e2c8df6c8e,tacos don juan,19.917283,-103.022014,Allende 36,Mazamitla,Jalisco,,,,,MX,2014-02-20,2020-11-23,,,,,,,,['4bf58dd8d48988d151941735'],['Dining and Drinking > Restaurant > Mexican Restaurant > Taco Restaurant'],b'\x00\x00\x00\x00\x01\xc0Y\xc1h\xadh\x83w@3\xea\xd3\x0f\x06-A',"{'xmin': -103.022014, 'ymin': 19.917283, 'xmax': -103.022014, 'ymax': 19.917283}",dining and drinking > restaurant > mexican restaurant > taco restaurant,1
53053b5411d280b8de66e5fe,Gorditas Dona Sara,19.028804779052734,-99.56707763671875,,,,,,,,MX,2014-02-19,2020-11-22,,,,,,,,['4bf58dd8d48988d151941735'],['Dining and Drinking > Restaurant > Mexican Restaurant > Taco Restaurant'],b'\x00\x00\x00\x00\x01\xc0X\xe4K\x00\x00\x00\x00@3\x07_\xc0\x00\x00\x00',"{'xmin': -99.56707763671875, 'ymin': 19.028804779052734, 'xmax': -99.56707763671875, 'ymax': 19.028804779052734}",dining and drinking > restaurant > mexican restaurant > taco restaurant,1
4f4c56cfe4b0cb12b7f79429,Taqueria El Infierno Arriaga Rivera,19.689485990425094,-101.17247252921292,Arriaga Rivera,Morelia,Michoacan,,,,,MX,2012-02-28,2020-11-23,2016-07-23,,,,,,,['4bf58dd8d48988d151941735'],['Dining and Drinking > Restaurant > Mexican Restaurant > Taco Restaurant'],"b""\x00\x00\x00\x00\x01\xc0YK\t\xca8\x1bc@3\xb0\x82'c\xed\x0b""","{'xmin': -101.17247252921292, 'ymin': 19.689485990425094, 'xmax': -101.17247252921292, 'ymax': 19.689485990425094}",dining and drinking > restaurant > mexican restaurant > taco restaurant,1
5b33f9a7e727c40031b9a168,La Cuchara Tarasca,19.409503,-102.058369,,Uruapan,MICH,60080,,,,MX,2018-06-27,2020-11-24,,,,,,,,['4bf58dd8d48988d151941735'],['Dining and Drinking > Restaurant > Mexican Restaurant > Taco Restaurant'],b'\x00\x00\x00\x00\x01\xc0Y\x83\xbcQT\x86j@3h\xd50H\x9d(',"{'xmin': -102.058369, 'ymin': 19.409503, 'xmax': -102.058369, 'ymax': 19.409503}",dining and drinking > restaurant > mexican restaurant > taco restaurant,1
5abc6ebec62b49696328564c,No Que No,19.99146,-102.287254,,Zamora,Michoacán,59620,,,,MX,2018-03-29,2020-11-24,,,,,,,,['4bf58dd8d48988d151941735'],['Dining and Drinking > Restaurant > Mexican Restaurant > Taco Restaurant'],b'\x00\x00\x00\x00\x01\xc0Y\x92b^\x99\xe9K@3\xfd\xd0R\x93J\xcb',"{'xmin': -102.287254, 'ymin': 19.99146, 'xmax': -102.287254, 'ymax': 19.99146}",dining and drinking > restaurant > mexican restaurant > taco restaurant,1
51413d4de4b0e38bdead6c48,Taqueria Fede,20.11481955733161,-102.65302939433727,Porvenir,,,,,,,MX,2013-03-14,2021-08-13,,,,,,,,['4bf58dd8d48988d151941735'],['Dining and Drinking > Restaurant > Mexican Restaurant > Taco Restaurant'],b'\x00\x00\x00\x00\x01\xc0Y\xa9\xcb;\xcd\x00V@4\x1dd\xd0\x83\xae3',"{'xmin': -102.65302939433727, 'ymin': 20.11481955733161, 'xmax': -102.65302939433727, 'ymax': 20.11481955733161}",dining and drinking > restaurant > mexican restaurant > taco restaurant,1
4efb856c29c225f3822b0efe,"Parritacos ""El Cedral""",19.248995174136212,-99.16704622957079,,Méx.,D.F.,,,,,MX,2011-12-28,2020-11-24,,,,,,,,['4bf58dd8d48988d151941735'],['Dining and Drinking > Restaurant > Mexican Restaurant > Taco Restaurant'],b'\x00\x00\x00\x00\x01\xc0X\xca\xb0\xe2\xab;N@3?\xbe%\xd1\xc6\xe0',"{'xmin': -99.16704622957079, 'ymin': 19.248995174136212, 'xmax': -99.16704622957079, 'ymax': 19.248995174136212}",dining and drinking > restaurant > mexican restaurant > taco restaurant,1
522b43a911d2349c65000592,El cuerito de raton,20.0707,-102.7164,Blvd. Lazaro Cardenas,Sahuayo,Michoacán,59000,,,,MX,2013-09-07,2020-11-23,,,,,,,,['4bf58dd8d48988d151941735'],['Dining and Drinking > Restaurant > Mexican Restaurant > Taco Restaurant'],b'\x00\x00\x00\x00\x01\xc0Y\xad\xd9\x7fb\xb6\xae@4\x12\x19e+\xd3\xc3',"{'xmin': -102.7164, 'ymin': 20.0707, 'xmax': -102.7164, 'ymax': 20.0707}",dining and drinking > restaurant > mexican restaurant > taco restaurant,1
531ce7e5498eadd29a66b6e9,HashTaco,19.308401481028913,-99.12664327333648,Avenida del Iman,,,,,,,MX,2014-03-09,2021-08-12,,,,,,,,"['4bf58dd8d48988d151941735' '4bf58dd8d48988d16c941735'
 '4bf58dd8d48988d16f941735']","['Dining and Drinking > Restaurant > Mexican Restaurant > Taco Restaurant'
 'Dining and Drinking > Restaurant > Burger Joint'
 'Dining and Drinking > Restaurant > Hot Dog Joint']",b'\x00\x00\x00\x00\x01\xc0X\xc8\x1a\xeccOE@3N\xf3fC\x0e\xa1',"{'xmin': -99.12664327333648, 'ymin': 19.308401481028913, 'xmax': -99.12664327333648, 'ymax': 19.308401481028913}","dining and drinking > restaurant > mexican restaurant > taco restaurant, dining and drinking > restaurant > burger joint, dining and drinking > restaurant > hot dog joint",1
58d821ef89151d326432332a,La Exquisita,19.286741,-99.16744,Congreso 3,Ciudad de México,Ciudad de México,,,,,MX,2017-03-26,2020-11-22,,,,,,,,['4bf58dd8d48988d151941735'],['Dining and Drinking > Restaurant > Mexican Restaurant > Taco Restaurant'],b'\x00\x00\x00\x00\x01\xc0X\xca\xb7VC\x02\xb4@3Ig\xdb\xb1l\x1e',"{'xmin': -99.16744, 'ymin': 19.286741, 'xmax': -99.16744, 'ymax': 19.286741}",dining and drinking > restaurant > mexican restaurant > taco restaurant,1
508c0eafe4b0d2cf8b1bc288,Tacos(Carrito)  Matamoros,17.064057476317704,-96.72444634946977,Matamoros S/N,Oaxaca,Oaxaca de Juarez,68000,,,,MX,2012-10-27,2020-11-24,,,,,,,,['4bf58dd8d48988d151941735'],['Dining and Drinking > Restaurant > Mexican Restaurant > Taco Restaurant'],b'\x00\x00\x00\x00\x01\xc0X.]T8\xaby@1\x10f\x12\x1d\xd9M',"{'xmin': -96.72444634946977, 'ymin': 17.064057476317704, 'xmax': -96.72444634946977, 'ymax': 17.064057476317704}",dining and drinking > restaurant > mexican restaurant > taco restaurant,1
4f86561ce4b0f18937c0ff08,"Tacos Orientales de Cuernavaca, Ometepec, Gro.",16.691902404591858,-98.41572110500788,,,,,,,,MX,2012-04-12,2021-08-11,,,,,,,,['4bf58dd8d48988d151941735'],['Dining and Drinking > Restaurant > Mexican Restaurant > Taco Restaurant'],"b'\x00\x00\x00\x00\x01\xc0X\x9a\x9b,\xb1\x91\x03@0\xb1 \x84\x17\xbe\xec'","{'xmin': -98.41572110500788, 'ymin': 16.691902404591858, 'xmax': -98.41572110500788, 'ymax': 16.691902404591858}",dining and drinking > restaurant > mexican restaurant > taco restaurant,1
4c9a9aec80958cfa468544d4,Taquería Guelaguetza,18.885571303141333,-99.22872313893558,Estado de Puebla 20,Cuernavaca,Morelos,,,,,MX,2010-09-23,2020-11-25,,,,,,,,['4bf58dd8d48988d151941735'],['Dining and Drinking > Restaurant > Mexican Restaurant > Taco Restaurant'],b'\x00\x00\x00\x00\x01\xc0X\xce\xa3f`dF@2\xe2\xb4\xcd\tD\xa4',"{'xmin': -99.22872313893558, 'ymin': 18.885571303141333, 'xmax': -99.22872313893558, 'ymax': 18.885571303141333}",dining and drinking > restaurant > mexican restaurant > taco restaurant,1
50b08df9e4b00627540194d8,super tacos,19.26641845703125,-99.17078399658203,,,,,,,,MX,2012-11-24,2021-08-16,,,,,,,,['4bf58dd8d48988d151941735'],['Dining and Drinking > Restaurant > Mexican Restaurant > Taco Restaurant'],b'\x00\x00\x00\x00\x01\xc0X\xca\xee \x00\x00\x00@3D4\x00\x00\x00\x00',"{'xmin': -99.17078399658203, 'ymin': 19.26641845703125, 'xmax': -99.17078399658203, 'ymax': 19.26641845703125}",dining and drinking > restaurant > mexican restaurant > taco restaurant,1
5320a98f498ea567d80cc243,Del Tingo al Taco,19.255693093254877,-99.65178914043685,Antonio Albarrán 612,Toluca,México,50180,,,,MX,2014-03-12,2020-11-30,,,,,,,,['4bf58dd8d48988d151941735'],['Dining and Drinking > Restaurant > Mexican Restaurant > Taco Restaurant'],b'\x00\x00\x00\x00\x01\xc0X\xe9\xb6\xe9\xcc\x84\x1c@3Au\x1aAW\xc0',"{'xmin': -99.65178914043685, 'ymin': 19.255693093254877, 'xmax': -99.65178914043685, 'ymax': 19.255693093254877}",dining and drinking > restaurant > mexican restaurant > taco restaurant,1
5241cfac11d270c64356003c,Carnitas Michoacanas,17.080926,-96.71307,,,,,,,,MX,2013-09-24,2021-08-14,,,,,,,,['4bf58dd8d48988d151941735'],['Dining and Drinking > Restaurant > Mexican Restaurant > Taco Restaurant'],b'\x00\x00\x00\x00\x01\xc0X-\xa2\xf0Zp\x8f@1\x14\xb7\x90\xfbeg',"{'xmin': -96.71307, 'ymin': 17.080926, 'xmax': -96.71307, 'ymax': 17.080926}",dining and drinking > restaurant > mexican restaurant > taco restaurant,1
58bee0151d21ba4aef854e94,Tacos de Birria El Chino,19.688126,-101.16314,,Morelia,Michoacán,,,,,MX,2017-03-07,2020-11-24,,,,,,,,['4bf58dd8d48988d151941735'],['Dining and Drinking > Restaurant > Mexican Restaurant > Taco Restaurant'],b'\x00\x00\x00\x00\x01\xc0YJp\xe2\xc1*\xd8@3\xb0)\x06\x89\x86\xfd',"{'xmin': -101.16314, 'ymin': 19.688126, 'xmax': -101.16314, 'ymax': 19.688126}",dining and drinking > restaurant > mexican restaurant > taco restaurant,1
5201b6ee498ec3a18975e185,Tacos Y Quesadillas Doña Fily,19.714704,-101.175998,,Morelia,Michoacán,,,,,MX,2013-08-07,2024-10-15,,443 173 7772,,,,,,['4bf58dd8d48988d151941735'],['Dining and Drinking > Restaurant > Mexican Restaurant > Taco Restaurant'],b'\x00\x00\x00\x00\x01\xc0YKC\x8d\x1d\x8aU@3\xb6\xf6\xd7bR\x05',"{'xmin': -101.175998, 'ymin': 19.714704, 'xmax': -101.175998, 'ymax': 19.714704}",dining and drinking > restaurant > mexican restaurant > taco restaurant,1
4c8a850ce51e6dcb28bd69de,El Fogoncito,19.286907872704926,-99.47196084115325,Catrretera Mexico-Toluca,Lerma de Villada,MEX,,,,,MX,2010-09-10,2024-09-03,2024-09-03,,,,,,,['4bf58dd8d48988d151941735'],['Dining and Drinking > Restaurant > Mexican Restaurant > Taco Restaurant'],b'\x00\x00\x00\x00\x01\xc0X\xde4\x9b>o\xbc@3Ir\xcbZ;\x8b',"{'xmin': -99.47196084115325, 'ymin': 19.286907872704926, 'xmax': -99.47196084115325, 'ymax': 19.286907872704926}",dining and drinking > restaurant > mexican restaurant > taco restaurant,1
4c4a24d9c668e21e192b31f8,Cabaña Daniela,19.30195578920936,-99.36844745443291,Carretera México-Toluca,,Me,,,,,MX,2010-07-23,2020-11-24,,,,,,,,['4bf58dd8d48988d151941735'],['Dining and Drinking > Restaurant > Mexican Restaurant > Taco Restaurant'],b'\x00\x00\x00\x00\x01\xc0X\xd7\x94\xa4\xa1\xc5]@3ML\xf9\x7f}\xf8',"{'xmin': -99.36844745443291, 'ymin': 19.30195578920936, 'xmax': -99.36844745443291, 'ymax': 19.30195578920936}",dining and drinking > restaurant > mexican restaurant > taco restaurant,1
5ab85a35dab4b150b60d424e,La Herradura Tacos Y Cortes,16.247947,-92.141662,,Comitán de Domínguez,CHIS,30068,,,,MX,2018-03-26,2020-11-25,,,,,,,,['4bf58dd8d48988d151941735'],['Dining and Drinking > Restaurant > Mexican Restaurant > Taco Restaurant'],b'\x00\x00\x00\x00\x01\xc0W\t\x10\xfd~E\x80@0?yt`$-',"{'xmin': -92.141662, 'ymin': 16.247947, 'xmax': -92.141662, 'ymax': 16.247947}",dining and drinking > restaurant > mexican restaurant > taco restaurant,1
58f95683eb645b5ea00fb7d7,Tacos De Ruma,17.703684,-101.620419,,Barrio Viejo,GRO,40880,,,,MX,2017-04-21,2020-11-26,,,,,,,,['4bf58dd8d48988d151941735'],['Dining and Drinking > Restaurant > Mexican Restaurant > Taco Restaurant'],b'\x00\x00\x00\x00\x01\xc0Yg\xb4\xf1\xe4\xb4J@1\xb4$\xa2v\xb7\xed',"{'xmin': -101.620419, 'ymin': 17.703684, 'xmax': -101.620419, 'ymax': 17.703684}",dining and drinking > restaurant > mexican restaurant > taco restaurant,1
4fe6a88ce4b0c7d6bb5703dc,Tacos El Fede,19.253210067749023,-99.60009002685547,,"Metepec, MEX",,,,,,MX,2012-06-24,2020-11-23,,,,,,,,['4bf58dd8d48988d151941735'],['Dining and Drinking > Restaurant > Mexican Restaurant > Taco Restaurant'],b'\x00\x00\x00\x00\x01\xc0X\xe6g\xe0\x00\x00\x00@3@\xd2`\x00\x00\x00',"{'xmin': -99.60009002685547, 'ymin': 19.253210067749023, 'xmax': -99.60009002685547, 'ymax': 19.253210067749023}",dining and drinking > restaurant > mexican restaurant > taco restaurant,1
4e9c738d775b2c05ae9d1b47,"Tacos ""El Primo""",18.462882213902244,-97.40205300870089,8 Sur,Tehuacán,Puebla,,,,,MX,2011-10-17,2020-11-30,,,,,,,,['4bf58dd8d48988d151941735'],['Dining and Drinking > Restaurant > Mexican Restaurant > Taco Restaurant'],b'\x00\x00\x00\x00\x01\xc0XY\xbb<\x8a\xe8=@2v\x7fr\xe2\x9c7',"{'xmin': -97.40205300870089, 'ymin': 18.462882213902244, 'xmax': -97.40205300870089, 'ymax': 18.462882213902244}",dining and drinking > restaurant > mexican restaurant > taco restaurant,1
5a7550c3e1f228139d0b5842,Tacos Machomenos,19.170519,-96.16108,Laguna verde,Veracruz,Veracruz,91779,,,,MX,2018-02-03,2020-11-25,,,,,,,,['4bf58dd8d48988d151941735'],['Dining and Drinking > Restaurant > Mexican Restaurant > Taco Restaurant'],"b'\x00\x00\x00\x00\x01\xc0X\nO""}\x02\x8a@3+\xa7""\x18X\xbc'","{'xmin': -96.16108, 'ymin': 19.170519, 'xmax': -96.16108, 'ymax': 19.170519}",dining and drinking > restaurant > mexican restaurant > taco restaurant,1
5136f115e4b09421c129cd6e,El Pariente,19.196403228327007,-96.13005960073681,Xicoténcalt,Veracruz,veracruz,,,,,MX,2013-03-06,2020-11-25,,,,,240004342751820.0,,,['4bf58dd8d48988d151941735' '4bf58dd8d48988d1df931735'],"['Dining and Drinking > Restaurant > Mexican Restaurant > Taco Restaurant'
 'Dining and Drinking > Restaurant > BBQ Joint']",b'\x00\x00\x00\x00\x01\xc0X\x08R\xe5\x80\xec\x82@32G{b~J',"{'xmin': -96.13005960073681, 'ymin': 19.196403228327007, 'xmax': -96.13005960073681, 'ymax': 19.196403228327007}","dining and drinking > restaurant > mexican restaurant > taco restaurant, dining and drinking > restaurant > bbq joint",1
5cfad007fb8e59002c6a8ae6,Taquería Parrillero,18.955294,-99.25169,Calzada De Los Reyes 20,Cuernavaca,MOR,62130,,,,MX,2019-06-07,2020-11-22,,,,,,,,['4bf58dd8d48988d151941735'],['Dining and Drinking > Restaurant > Mexican Restaurant > Taco Restaurant'],b'\x00\x00\x00\x00\x01\xc0X\xd0\x1b\xb0_\xae\xbc@2\xf4\x8e%\xc8\x10\xa5',"{'xmin': -99.25169, 'ymin': 18.955294, 'xmax': -99.25169, 'ymax': 18.955294}",dining and drinking > restaurant > mexican restaurant > taco restaurant,1
5003935de4b09fa8c47cabff,Taqueria El Encierro,18.883961,-97.729073,,,,,,,,MX,2012-07-16,2021-08-11,,,,,,,,['4bf58dd8d48988d151941735'],['Dining and Drinking > Restaurant > Mexican Restaurant > Taco Restaurant'],b'\x00\x00\x00\x00\x01\xc0Xn\xa9!\xcc\xd9b@2\xe2KD\xa1\xf0\x80',"{'xmin': -97.729073, 'ymin': 18.883961, 'xmax': -97.729073, 'ymax': 18.883961}",dining and drinking > restaurant > mexican restaurant > taco restaurant,1
5181ba98498ef35894b6f374,Chelito Lindo,19.258811116200093,-99.66888940514767,Marcelino García Barragán,Toluca,Estado De México,50170,,,,MX,2013-05-02,2020-11-25,,,,,,,,['4bf58dd8d48988d151941735'],['Dining and Drinking > Restaurant > Mexican Restaurant > Taco Restaurant'],b'\x00\x00\x00\x00\x01\xc0X\xea\xcf\x15\x81\xf0\x02@3BAq\xff\xeb\xb0',"{'xmin': -99.66888940514767, 'ymin': 19.258811116200093, 'xmax': -99.66888940514767, 'ymax': 19.258811116200093}",dining and drinking > restaurant > mexican restaurant > taco restaurant,1
536ea4a3498e93b032f704e5,carnitas chaparrito,19.195870116598453,-99.4632548183714,5 De Mayo,Capulhuac,Edo De Mex,,,,,MX,2014-05-10,2024-01-20,,713 133 5755,,,467727076631329.0,,,['4bf58dd8d48988d151941735'],['Dining and Drinking > Restaurant > Mexican Restaurant > Taco Restaurant'],b'\x00\x00\x00\x00\x01\xc0X\xdd\xa5\xf7\x89\xa7\xa7@32$\x8bA\r\xd7',"{'xmin': -99.4632548183714, 'ymin': 19.195870116598453, 'xmax': -99.4632548183714, 'ymax': 19.195870116598453}",dining and drinking > restaurant > mexican restaurant > taco restaurant,1
4f77d549e4b04210832dadc8,El Farolito,19.160749098187043,-100.12295498039262,,,,,,,,MX,2012-04-01,2021-08-15,,,,,,,,['4bf58dd8d48988d151941735'],['Dining and Drinking > Restaurant > Mexican Restaurant > Taco Restaurant'],b'\x00\x00\x00\x00\x01\xc0Y\x07\xde~\x90\xea\xaa@3)&\xdaW\x93)',"{'xmin': -100.12295498039262, 'ymin': 19.160749098187043, 'xmax': -100.12295498039262, 'ymax': 19.160749098187043}",dining and drinking > restaurant > mexican restaurant > taco restaurant,1
5376c498498ecfd1a0158daf,Taqueria y Birriería Los Arandas,19.285350505666027,-99.49081346865694,,,,,,,,MX,2014-05-17,2020-11-21,,,,,,,,['4bf58dd8d48988d151941735'],['Dining and Drinking > Restaurant > Mexican Restaurant > Taco Restaurant'],b'\x00\x00\x00\x00\x01\xc0X\xdfi|\xe5\x14X@3I\x0c\xbb\x11\xbb\x8f',"{'xmin': -99.49081346865694, 'ymin': 19.285350505666027, 'xmax': -99.49081346865694, 'ymax': 19.285350505666027}",dining and drinking > restaurant > mexican restaurant > taco restaurant,1
55983db6498e20cc679464e4,barbacoa,19.276830102288137,-99.2223893933033,,,,,,,,MX,2015-07-04,2021-08-16,,,,,,,,['4bf58dd8d48988d151941735'],['Dining and Drinking > Restaurant > Mexican Restaurant > Taco Restaurant'],b'\x00\x00\x00\x00\x01\xc0X\xce;\xa0\xb8\xcd\xc2@3F\xdeVk\xe0:',"{'xmin': -99.2223893933033, 'ymin': 19.276830102288137, 'xmax': -99.2223893933033, 'ymax': 19.276830102288137}",dining and drinking > restaurant > mexican restaurant > taco restaurant,1
4e32df616284e269994bd04e,Quesadillas De Doña Luz-Maria,18.6225015225143,-99.32208716869354,Miguel Hidalgo,Puente de Ixtla,Morelos,,,,,MX,2011-07-29,2020-11-25,,,,,,,,['4bf58dd8d48988d151941735'],['Dining and Drinking > Restaurant > Mexican Restaurant > Taco Restaurant'],b'\x00\x00\x00\x00\x01\xc0X\xd4\x9d\x13\x80\x00\x00@2\x9f\\B\x80\xe8\xbc',"{'xmin': -99.32208716869354, 'ymin': 18.6225015225143, 'xmax': -99.32208716869354, 'ymax': 18.6225015225143}",dining and drinking > restaurant > mexican restaurant > taco restaurant,1
5076f2ede4b0e6ae4f278909,Taqueria Río Lerma (El Inutil),19.283880413511547,-99.52557607129916,,,,,,,,MX,2012-10-11,2021-08-12,,,,,,,,['4bf58dd8d48988d151941735'],['Dining and Drinking > Restaurant > Mexican Restaurant > Taco Restaurant'],b'\x00\x00\x00\x00\x01\xc0X\xe1\xa3\t\xd1r\x90@3H\xacc\x04\x01\xce',"{'xmin': -99.52557607129916, 'ymin': 19.283880413511547, 'xmax': -99.52557607129916, 'ymax': 19.283880413511547}",dining and drinking > restaurant > mexican restaurant > taco restaurant,1
549dfb55498e54b44033a8ed,"Tacos ""Los Cuñados""",20.445629044146166,-102.12959941567905,,,,,,,,MX,2014-12-27,2021-08-10,,,,,,,,['4bf58dd8d48988d151941735'],['Dining and Drinking > Restaurant > Mexican Restaurant > Taco Restaurant'],b'\x00\x00\x00\x00\x01\xc0Y\x88K[X\xfb\x06@4r\x14\xbe\xba\xc1j',"{'xmin': -102.12959941567905, 'ymin': 20.445629044146166, 'xmax': -102.12959941567905, 'ymax': 20.445629044146166}",dining and drinking > restaurant > mexican restaurant > taco restaurant,1
653ea35af5cffd1836c75984,Quesabirrias Doña Ale,17.55521,-99.521659,,Chilpancingo,Gro.,39038,,,,MX,2023-10-29,2023-10-29,,,,,,,,['4bf58dd8d48988d151941735' '56aa371be4b08b9a8d57350b'],"['Dining and Drinking > Restaurant > Mexican Restaurant > Taco Restaurant'
 'Dining and Drinking > Food Stand']","b'\x00\x00\x00\x00\x01\xc0X\xe1b\xdcn*\x80@1\x8e"">\x18i\x83'","{'xmin': -99.521659, 'ymin': 17.55521, 'xmax': -99.521659, 'ymax': 17.55521}","dining and drinking > restaurant > mexican restaurant > taco restaurant, dining and drinking > food stand",1
556f5424498e07f46963facf,Tacos Doña Maty,19.305142023653485,-99.18596559598636,Metro bus perisur,,DF,,,,,MX,2015-06-03,2021-08-14,,,,,,,,['4bf58dd8d48988d151941735'],['Dining and Drinking > Restaurant > Mexican Restaurant > Taco Restaurant'],b'\x00\x00\x00\x00\x01\xc0X\xcb\xe6\xdc><S@3N\x1d\xc9\xa4:\x1b',"{'xmin': -99.18596559598636, 'ymin': 19.305142023653485, 'xmax': -99.18596559598636, 'ymax': 19.305142023653485}",dining and drinking > restaurant > mexican restaurant > taco restaurant,1
5027297ee4b07a366c551400,Tacos De Mundo,19.088413,-102.362942,,,,,,,,MX,2012-08-12,2021-08-15,,,,,,,,['4bf58dd8d48988d151941735'],['Dining and Drinking > Restaurant > Mexican Restaurant > Taco Restaurant'],b'\x00\x00\x00\x00\x01\xc0Y\x97:q\x15\x16\x12@3\x16\xa2;\xff\x8a\x8f',"{'xmin': -102.362942, 'ymin': 19.088413, 'xmax': -102.362942, 'ymax': 19.088413}",dining and drinking > restaurant > mexican restaurant > taco restaurant,1
