fsq_place_id,name,latitude,longitude,address,locality,region,postcode,admin_region,post_town,po_box,country,date_created,date_refreshed,date_closed,tel,website,email,facebook_id,instagram,twitter,fsq_category_ids,fsq_category_labels,geom,bbox,labels_str,taco_restaurant
4ec875a5d3e3e131f37a9ea1,Paris Taco Stand,31.862547345312272,-116.62874860986501,,,,,,,,MX,2011-11-20,2021-08-16,2012-10-13,,,,,,,['4bf58dd8d48988d151941735'],['Dining and Drinking > Restaurant > Mexican Restaurant > Taco Restaurant'],b'\x00\x00\x00\x00\x01\xc0](=j\xcf1\xa5@?\xdc\xcf\xe7\x1f^*',"{'xmin': -116.62874860986501, 'ymin': 31.862547345312272, 'xmax': -116.62874860986501, 'ymax': 31.862547345312272}",dining and drinking > restaurant > mexican restaurant > taco restaurant,1
4e34491ba8092599edf840d1,Tacos de Birria Pacifico,32.47835587142051,-116.99339660448258,,Tijuana,Baja California,,,,,MX,2011-07-30,2020-11-25,,,,,,,,['4bf58dd8d48988d151941735'],['Dining and Drinking > Restaurant > Mexican Restaurant > Taco Restaurant'],b'\x00\x00\x00\x00\x01\xc0]?\x93\xcfZ\rs@@=:\xc3\xe3\xcc\xe3',"{'xmin': -116.99339660448258, 'ymin': 32.47835587142051, 'xmax': -116.99339660448258, 'ymax': 32.47835587142051}",dining and drinking > restaurant > mexican restaurant > taco restaurant,1
4de1c9d9d4c07044055dd0d4,Tacos La Pasadita,32.516136275560456,-117.05143699232757,,Tijuana,BC,,,,,MX,2011-05-29,2020-11-23,,,,,,,,['4bf58dd8d48988d151941735'],['Dining and Drinking > Restaurant > Mexican Restaurant > Taco Restaurant'],b'\x00\x00\x00\x00\x01\xc0]CJ\xbea\xf6\x7f@@B\x10\xc0\xe3\xe7\xdc',"{'xmin': -117.05143699232757, 'ymin': 32.516136275560456, 'xmax': -117.05143699232757, 'ymax': 32.516136275560456}",dining and drinking > restaurant > mexican restaurant > taco restaurant,1
57e72355498e9ab98ed127f5,K-Flautas,32.532406,-116.945969,,,Baja California,,,,,MX,2016-09-25,2021-08-12,,,,,,,,['4bf58dd8d48988d151941735'],['Dining and Drinking > Restaurant > Mexican Restaurant > Taco Restaurant'],b'\x00\x00\x00\x00\x01\xc0]<\x8a\xc1\x8f\x81\xe9@@D%\xe1;\x18\xdb',"{'xmin': -116.945969, 'ymin': 32.532406, 'xmax': -116.945969, 'ymax': 32.532406}",dining and drinking > restaurant > mexican restaurant > taco restaurant,1
5589e144498e042ac21a4840,Taqueria Súper Siete,31.866424560546875,-116.61922454833984,,,,,,,,MX,2015-06-23,2021-08-13,,,,,,,,['4bf58dd8d48988d151941735'],['Dining and Drinking > Restaurant > Mexican Restaurant > Taco Restaurant'],"b""\x00\x00\x00\x00\x01\xc0]'\xa1`\x00\x00\x00@?\xdd\xce\x00\x00\x00\x00""","{'xmin': -116.61922454833984, 'ymin': 31.866424560546875, 'xmax': -116.61922454833984, 'ymax': 31.866424560546875}",dining and drinking > restaurant > mexican restaurant > taco restaurant,1
51118b5ae4b00ee933c13eca,Tacos La Carreta,32.55820672711272,-115.41896446900645,,,,,,,,MX,2013-02-05,2021-08-11,,,,,,,,['4bf58dd8d48988d151941735'],['Dining and Drinking > Restaurant > Mexican Restaurant > Taco Restaurant'],b'\x00\x00\x00\x00\x01\xc0\\\xda\xd0PY$f@@GsQj\xad\x9c',"{'xmin': -115.41896446900645, 'ymin': 32.55820672711272, 'xmax': -115.41896446900645, 'ymax': 32.55820672711272}",dining and drinking > restaurant > mexican restaurant > taco restaurant,1
4ed5ac6af5b93be4f29db8b2,Tacos El Verdeño,32.490769,-116.922382,,Tijuana,Baja California,,,,,MX,2011-11-30,2020-11-23,,,,,,,,['4bf58dd8d48988d151941735'],['Dining and Drinking > Restaurant > Mexican Restaurant > Taco Restaurant'],b'\x00\x00\x00\x00\x01\xc0];\x08N\x83\x1a\xd2@@>\xd1\x84\xc2r\x00',"{'xmin': -116.922382, 'ymin': 32.490769, 'xmax': -116.922382, 'ymax': 32.490769}",dining and drinking > restaurant > mexican restaurant > taco restaurant,1
4ea8bb8c7ee5cc4193865e51,Tacos De Adobada En La Ermita,32.50684081013413,-116.97410949170056,,,,,,,,MX,2011-10-27,2021-08-13,,,,,,,,['4bf58dd8d48988d151941735'],['Dining and Drinking > Restaurant > Mexican Restaurant > Taco Restaurant'],b'\x00\x00\x00\x00\x01\xc0]>W\xcfVd\xef@@@\xe0(\xdf\xe6\xf1',"{'xmin': -116.97410949170056, 'ymin': 32.50684081013413, 'xmax': -116.97410949170056, 'ymax': 32.50684081013413}",dining and drinking > restaurant > mexican restaurant > taco restaurant,1
5aaec6fa4c954c318f5ac53d,Carnitas Don Lupe,32.451548,-116.923855,,Tijuana,BC,22125,,,,MX,2018-03-18,2020-11-23,,,,,,,,['4bf58dd8d48988d151941735'],['Dining and Drinking > Restaurant > Mexican Restaurant > Taco Restaurant'],b'\x00\x00\x00\x00\x01\xc0]; p\xb8\xcf\xc0@@9\xccS*I\x80',"{'xmin': -116.923855, 'ymin': 32.451548, 'xmax': -116.923855, 'ymax': 32.451548}",dining and drinking > restaurant > mexican restaurant > taco restaurant,1
4f9224f3e4b0f72e4ad20603,Tacos del Bosque,32.506431579589844,-116.84017944335938,"Paseo del Bosque, Tijuana Municipality, Baja California",Tijuana Municipality,Baja California,,,,,MX,2012-04-21,2020-11-30,,,,,,,,['4bf58dd8d48988d151941735'],['Dining and Drinking > Restaurant > Mexican Restaurant > Taco Restaurant'],b'\x00\x00\x00\x00\x01\xc0]5\xc5\x80\x00\x00\x00@@@\xd2\xc0\x00\x00\x00',"{'xmin': -116.84017944335938, 'ymin': 32.506431579589844, 'xmax': -116.84017944335938, 'ymax': 32.506431579589844}",dining and drinking > restaurant > mexican restaurant > taco restaurant,1
622834fad11c494c30147abb,La Fabrica Del Taco,32.536386,-117.024126,,Tijuana,BC,22010,,,,MX,2022-03-09,2022-03-09,,,,,,,,['4bf58dd8d48988d151941735'],['Dining and Drinking > Restaurant > Mexican Restaurant > Taco Restaurant'],b'\x00\x00\x00\x00\x01\xc0]A\x8bG\xc7>\xee@@D\xa8K\xe4\x04!',"{'xmin': -117.024126, 'ymin': 32.536386, 'xmax': -117.024126, 'ymax': 32.536386}",dining and drinking > restaurant > mexican restaurant > taco restaurant,1
4dfdbf8352b189230310b590,Taquitos El Tucan,32.525959,-117.029335,,Tijuana,BC,,,,,MX,2011-06-19,2022-05-25,,,,,,,,['4bf58dd8d48988d151941735'],['Dining and Drinking > Restaurant > Mexican Restaurant > Taco Restaurant'],b'\x00\x00\x00\x00\x01\xc0]A\xe0\x9f\xe8h4@@CR\x9f\xe0\x04\xb8',"{'xmin': -117.029335, 'ymin': 32.525959, 'xmax': -117.029335, 'ymax': 32.525959}",dining and drinking > restaurant > mexican restaurant > taco restaurant,1
5014d913e4b07c3cf32624b1,Tacos de Arrachera Estilo Perron,32.52128395623728,-117.1158039760836,,,,,,,,MX,2012-07-29,2021-08-13,,,,,,,,['4bf58dd8d48988d151941735'],['Dining and Drinking > Restaurant > Mexican Restaurant > Taco Restaurant'],b'\x00\x00\x00\x00\x01\xc0]GiU\x14\x81\xa7@@B\xb9n\xc3\xfb\xfc',"{'xmin': -117.1158039760836, 'ymin': 32.52128395623728, 'xmax': -117.1158039760836, 'ymax': 32.52128395623728}",dining and drinking > restaurant > mexican restaurant > taco restaurant,1
521f86a111d22241f2e1ae43,"Tacos De Guisado ""El Güero""",32.607297,-115.527728,,,,,,,,MX,2013-08-29,2020-11-25,,,,,,,,['4bf58dd8d48988d151941735'],['Dining and Drinking > Restaurant > Mexican Restaurant > Taco Restaurant'],b'\x00\x00\x00\x00\x01\xc0\\\xe1\xc6K\xa9K\xbe@@M\xbb\xe8x\xfa\xbe',"{'xmin': -115.527728, 'ymin': 32.607297, 'xmax': -115.527728, 'ymax': 32.607297}",dining and drinking > restaurant > mexican restaurant > taco restaurant,1
4d8c156f8b0aa1cd0fe38aff,Tacos Alteño,32.485037,-117.030936,,,,,,,,MX,2011-03-25,2021-08-13,,,,,,,,['4bf58dd8d48988d151941735'],['Dining and Drinking > Restaurant > Mexican Restaurant > Taco Restaurant'],"b'\x00\x00\x00\x00\x01\xc0]A\xfa\xda\xfd\x118@@>\x15\xb1B,\xcb'","{'xmin': -117.030936, 'ymin': 32.485037, 'xmax': -117.030936, 'ymax': 32.485037}",dining and drinking > restaurant > mexican restaurant > taco restaurant,1
4da7534ba86e21568177df51,Tacos de Guisado,31.871828,-116.616055,Riveroll,Ensenada,Baja California,22800,,,,MX,2011-04-14,2020-11-23,,,,,,,,['4bf58dd8d48988d151941735'],['Dining and Drinking > Restaurant > Mexican Restaurant > Taco Restaurant'],"b""\x00\x00\x00\x00\x01\xc0]'mq\xf3bc@?\xdf0\x1e\xab\xbc\xb2""","{'xmin': -116.616055, 'ymin': 31.871828, 'xmax': -116.616055, 'ymax': 31.871828}",dining and drinking > restaurant > mexican restaurant > taco restaurant,1
4faec9abe4b0e047b2268bed,Tacos el Sinaloense,32.60531039329076,-115.39655729120838,San Pedro Mezquital Y Calle 3ra,,,,,,,MX,2012-05-12,2021-08-11,,,,,,,,['4bf58dd8d48988d151941735'],['Dining and Drinking > Restaurant > Mexican Restaurant > Taco Restaurant'],b'\x00\x00\x00\x00\x01\xc0\\\xd9a1\xd5.\xbe@@Mz\xcf\x9b\x8em',"{'xmin': -115.39655729120838, 'ymin': 32.60531039329076, 'xmax': -115.39655729120838, 'ymax': 32.60531039329076}",dining and drinking > restaurant > mexican restaurant > taco restaurant,1
4cd473dafb5954814e60d850,Tacos Memos,32.520633968724965,-117.0202988169047,Río Bravo 9739,Tijuana,Baja California,,,,,MX,2010-11-05,2020-11-23,,,,,,,,['4bf58dd8d48988d151941735'],['Dining and Drinking > Restaurant > Mexican Restaurant > Taco Restaurant'],"b'\x00\x00\x00\x00\x01\xc0]AL\x93h\xb04@@B\xa4""Fn""'","{'xmin': -117.0202988169047, 'ymin': 32.520633968724965, 'xmax': -117.0202988169047, 'ymax': 32.520633968724965}",dining and drinking > restaurant > mexican restaurant > taco restaurant,1
5f82cc2c7a1eff27bfc09360,Tlacoalcalli,32.438339,-114.751707,Mexico B,San Luis Río Colorado,SON,83490,,,,MX,2020-10-11,2023-09-13,,,,,,,,['4bf58dd8d48988d1c1941735' '4bf58dd8d48988d151941735'],"['Dining and Drinking > Restaurant > Mexican Restaurant'
 'Dining and Drinking > Restaurant > Mexican Restaurant > Taco Restaurant']","b""\x00\x00\x00\x00\x01\xc0\\\xb0\x1b\xf7\xadK'@@8\x1b~\n\xc7\xda""","{'xmin': -114.751707, 'ymin': 32.438339, 'xmax': -114.751707, 'ymax': 32.438339}","dining and drinking > restaurant > mexican restaurant, dining and drinking > restaurant > mexican restaurant > taco restaurant",1
52dd796b498ed787491a8aa8,Tacos Sergio,32.505459,-116.977112,,,,,,,,MX,2014-01-20,2020-11-22,,,,,,,,['4bf58dd8d48988d151941735'],['Dining and Drinking > Restaurant > Mexican Restaurant > Taco Restaurant'],b'\x00\x00\x00\x00\x01\xc0]>\x89\x00\xc5!\xde@@@\xb2\xe1i<\x04',"{'xmin': -116.977112, 'ymin': 32.505459, 'xmax': -116.977112, 'ymax': 32.505459}",dining and drinking > restaurant > mexican restaurant > taco restaurant,1
58e4819cce66aa0d18a733cd,El Fogón,32.466999,-114.752625,Calle 26,San Luis Río Colorado,SON,83448,,,,MX,2017-04-05,2020-11-23,,,,,,,,['4bf58dd8d48988d151941735'],['Dining and Drinking > Restaurant > Mexican Restaurant > Taco Restaurant'],b'\x00\x00\x00\x00\x01\xc0\\\xb0+\x02\x0cI\xba@@;\xc6\x9f\x8c!\xe2',"{'xmin': -114.752625, 'ymin': 32.466999, 'xmax': -114.752625, 'ymax': 32.466999}",dining and drinking > restaurant > mexican restaurant > taco restaurant,1
55149449498e870a8f3de6ef,Comalli Taco Urbano,32.52149704438922,-117.0288561429501,,,,,,,,MX,2015-03-26,2021-08-11,,,,,,,,['4bf58dd8d48988d151941735'],['Dining and Drinking > Restaurant > Mexican Restaurant > Taco Restaurant'],b'\x00\x00\x00\x00\x01\xc0]A\xd8\xc7o\x90\x9a@@B\xc0jGNb',"{'xmin': -117.0288561429501, 'ymin': 32.52149704438922, 'xmax': -117.0288561429501, 'ymax': 32.52149704438922}",dining and drinking > restaurant > mexican restaurant > taco restaurant,1
4f944252e4b0c03d2b11d71a,Tacos Hernandez,22.152727,-100.94823,,,,,,,,MX,2012-04-22,2020-11-30,,,,,,,,['4bf58dd8d48988d151941735'],['Dining and Drinking > Restaurant > Mexican Restaurant > Taco Restaurant'],"b""\x00\x00\x00\x00\x01\xc0Y<\xaf\xcc\xe1\xc5\x82@6'\x19\x1d\xde7X""","{'xmin': -100.94823, 'ymin': 22.152727, 'xmax': -100.94823, 'ymax': 22.152727}",dining and drinking > restaurant > mexican restaurant > taco restaurant,1
66a1c4cd5b15e843c6761eee,Acá Las Tripas,20.614318,-103.436965,Camino A Santa Ana 70,Zapopan,Jal.,45236,,,,MX,2024-07-25,2024-07-25,,,,,,,,['4bf58dd8d48988d151941735'],['Dining and Drinking > Restaurant > Mexican Restaurant > Taco Restaurant'],b'\x00\x00\x00\x00\x01\xc0Y\xdb\xf7<\x0c\x1f\xc9@4\x9dC\xf1\xc7X\x19',"{'xmin': -103.436965, 'ymin': 20.614318, 'xmax': -103.436965, 'ymax': 20.614318}",dining and drinking > restaurant > mexican restaurant > taco restaurant,1
4d1164a3f6f3721e7d2694e9,Taqueria union,20.665222729852307,-103.32251536724631,Aldama,Guadalajara,Jalisco,,,,,MX,2010-12-22,2021-08-17,,,,,,,,['4bf58dd8d48988d151941735'],['Dining and Drinking > Restaurant > Mexican Restaurant > Taco Restaurant'],b'\x00\x00\x00\x00\x01\xc0Y\xd4\xa4\x17~\xb1\xf1@4\xaaL\tmE\x81',"{'xmin': -103.32251536724631, 'ymin': 20.665222729852307, 'xmax': -103.32251536724631, 'ymax': 20.665222729852307}",dining and drinking > restaurant > mexican restaurant > taco restaurant,1
5630dc0c498e30e444afe2a4,cazuelas marifer,19.210430079706583,-103.72137384130313,,,,,,,,MX,2015-10-28,2021-08-11,,,,,,,,['4bf58dd8d48988d151941735'],['Dining and Drinking > Restaurant > Mexican Restaurant > Taco Restaurant'],b'\x00\x00\x00\x00\x01\xc0Y\xee*\xfd0%\x8f@35\xde\xbe\xe6o8',"{'xmin': -103.72137384130313, 'ymin': 19.210430079706583, 'xmax': -103.72137384130313, 'ymax': 19.210430079706583}",dining and drinking > restaurant > mexican restaurant > taco restaurant,1
5a0f97e7898bdc199c5577cf,Taco Chef,20.58135,-103.38293,González Gallo,San Pedro Tlaquepaque,Jalisco,45610,,,,MX,2017-11-18,2020-11-30,,,,,,,,['4bf58dd8d48988d151941735'],['Dining and Drinking > Restaurant > Mexican Restaurant > Taco Restaurant'],b'\x00\x00\x00\x00\x01\xc0Y\xd8\x81\xec\xd4\xaa\x11@4\x94\xd3Z\x85\x87\x94',"{'xmin': -103.38293, 'ymin': 20.58135, 'xmax': -103.38293, 'ymax': 20.58135}",dining and drinking > restaurant > mexican restaurant > taco restaurant,1
55aa64e9498eb3b7b2f74d48,Tacos Galindo,19.2475303821266,-103.746672738343,Av Benito Juarez 1026,Villa de Alvarez,Colima,,,,,MX,2015-07-18,2020-11-26,,312 160 4926,,,,,,['4bf58dd8d48988d151941735'],['Dining and Drinking > Restaurant > Mexican Restaurant > Taco Restaurant'],b'\x00\x00\x00\x00\x01\xc0Y\xef\xc9|s\xff\xde@3?^&\xb0\x00\t',"{'xmin': -103.746672738343, 'ymin': 19.2475303821266, 'xmax': -103.746672738343, 'ymax': 19.2475303821266}",dining and drinking > restaurant > mexican restaurant > taco restaurant,1
59f298c7974617103aaec6b2,Taqueria El Flamazo,20.5441,-100.83529,,Celaya,Guanajuato,38022,,,,MX,2017-10-27,2020-11-30,,,,,,,,['4bf58dd8d48988d151941735'],['Dining and Drinking > Restaurant > Mexican Restaurant > Taco Restaurant'],b'\x00\x00\x00\x00\x01\xc0Y5ud0+A@4\x8bJ#9\xc0\xec',"{'xmin': -100.83529, 'ymin': 20.5441, 'xmax': -100.83529, 'ymax': 20.5441}",dining and drinking > restaurant > mexican restaurant > taco restaurant,1
56d7c70a498e58884b2690c4,La Fonda,21.013350016659455,-101.25125220980175,,,,,,,,MX,2016-03-03,2021-08-15,,,,,,,,['4bf58dd8d48988d151941735'],['Dining and Drinking > Restaurant > Mexican Restaurant > Taco Restaurant'],b'\x00\x00\x00\x00\x01\xc0YP\x14\x84&\t\\@5\x03j\xe8\x1c\xf4\x13',"{'xmin': -101.25125220980175, 'ymin': 21.013350016659455, 'xmax': -101.25125220980175, 'ymax': 21.013350016659455}",dining and drinking > restaurant > mexican restaurant > taco restaurant,1
5636b59d498eea69795fcd0b,tacos el nico,20.033403,-100.71658,Leona Vicario,Acambaro,Guanajuato,,,,,MX,2015-11-02,2020-11-24,,,,,,,,['4bf58dd8d48988d151941735'],['Dining and Drinking > Restaurant > Mexican Restaurant > Taco Restaurant'],b'\x00\x00\x00\x00\x01\xc0Y-\xdcr\\=\xee@4\x08\x8d\x19X\x96\x9a',"{'xmin': -100.71658, 'ymin': 20.033403, 'xmax': -100.71658, 'ymax': 20.033403}",dining and drinking > restaurant > mexican restaurant > taco restaurant,1
52d74380498e17702b93fafd,tacos migue,20.731108,-103.399265,Francisco Sarabia 434,Zapopan,Jalisco,,,,,MX,2014-01-16,2020-11-25,,,,,,,,['4bf58dd8d48988d151941735'],['Dining and Drinking > Restaurant > Mexican Restaurant > Taco Restaurant'],b'\x00\x00\x00\x00\x01\xc0Y\xd9\x8d\x8e\xc9[\xff@4\xbb)\xe4\xd5\xd8\x0e',"{'xmin': -103.399265, 'ymin': 20.731108, 'xmax': -103.399265, 'ymax': 20.731108}",dining and drinking > restaurant > mexican restaurant > taco restaurant,1
6024131bdf108c4eb321c7c2,Tacosmanías,21.895416,-102.31539,Mar del Norte 130,Aguascalientes,Aguascalientes,20010,,,,MX,2021-02-10,2021-02-10,,,,,,,,['4bf58dd8d48988d151941735'],['Dining and Drinking > Restaurant > Mexican Restaurant > Taco Restaurant'],b'\x00\x00\x00\x00\x01\xc0Y\x94/Y\x89\xdf\x11@5\xe59\xfb\xa4P\xad',"{'xmin': -102.31539, 'ymin': 21.895416, 'xmax': -102.31539, 'ymax': 21.895416}",dining and drinking > restaurant > mexican restaurant > taco restaurant,1
4df10ecb227193bb466e4344,Don Polo,21.876075462571542,-102.28119134902954,Av Heroe de Nacozari,Aguascalientes,AGS,20250,,,,MX,2011-06-09,2020-11-24,,,,,,,,['4bf58dd8d48988d151941735' '4bf58dd8d48988d1cb941735'],"['Dining and Drinking > Restaurant > Mexican Restaurant > Taco Restaurant'
 'Dining and Drinking > Food Truck']",b'\x00\x00\x00\x00\x01\xc0Y\x91\xff\n\x00\x00\x00@5\xe0F{D\x92\xa6',"{'xmin': -102.28119134902954, 'ymin': 21.876075462571542, 'xmax': -102.28119134902954, 'ymax': 21.876075462571542}","dining and drinking > restaurant > mexican restaurant > taco restaurant, dining and drinking > food truck",1
5359d52c498eb8eab0a5aed1,Asadero Los Nachos,30.5363,-115.934572,,,,,,,,MX,2014-04-25,2021-08-13,,,,,,,,['4bf58dd8d48988d151941735'],['Dining and Drinking > Restaurant > Mexican Restaurant > Taco Restaurant'],b'\x00\x00\x00\x00\x01\xc0\\\xfb\xd0\x07\x13\xf0x@>\x89J\xf4\xf0\xd8E',"{'xmin': -115.934572, 'ymin': 30.5363, 'xmax': -115.934572, 'ymax': 30.5363}",dining and drinking > restaurant > mexican restaurant > taco restaurant,1
51cdedc5498ee1b888d7118f,Tacos Saul & Hijos,20.678437128020686,-103.34221153607403,,Guadalajara,,,,,,MX,2013-06-28,2021-08-15,,,,,,,,['4bf58dd8d48988d151941735'],['Dining and Drinking > Restaurant > Mexican Restaurant > Taco Restaurant'],b'\x00\x00\x00\x00\x01\xc0Y\xd5\xe6\xcb6\xf0\x1f@4\xad\xae\x0e==\xb3',"{'xmin': -103.34221153607403, 'ymin': 20.678437128020686, 'xmax': -103.34221153607403, 'ymax': 20.678437128020686}",dining and drinking > restaurant > mexican restaurant > taco restaurant,1
509e67a7e4b04eb23d0b2761,tacos Don Luis,20.668576666171266,-103.34555598584946,San Fernardo,Guadalajara,,,,,,MX,2012-11-10,2021-08-14,,,,,,,,['4bf58dd8d48988d151941735'],['Dining and Drinking > Restaurant > Mexican Restaurant > Taco Restaurant'],"b""\x00\x00\x00\x00\x01\xc0Y\xd6\x1d\x96\xda\x8aE@4\xab'\xd7$\x13\x05""","{'xmin': -103.34555598584946, 'ymin': 20.668576666171266, 'xmax': -103.34555598584946, 'ymax': 20.668576666171266}",dining and drinking > restaurant > mexican restaurant > taco restaurant,1
4f5a4515e4b04edd0c15d07d,Tacos De Pescado y Camarón Saúl,21.521790403379285,-104.88174079110568,,,,,,,,MX,2012-03-09,2021-08-15,,,,,,,,['4bf58dd8d48988d151941735'],['Dining and Drinking > Restaurant > Mexican Restaurant > Taco Restaurant'],b'\x00\x00\x00\x00\x01\xc0Z8np\xedVG@5\x85\x94\x0eM\xe1t',"{'xmin': -104.88174079110568, 'ymin': 21.521790403379285, 'xmax': -104.88174079110568, 'ymax': 21.521790403379285}",dining and drinking > restaurant > mexican restaurant > taco restaurant,1
4d6702b7a800721e3ffa0ab8,Tacos Don Chava,20.665147355039327,-103.36799371044656,España,Guadalajara,JAL,44190,,,,MX,2011-02-25,2021-08-14,,,,,,,,['4bf58dd8d48988d151941735'],['Dining and Drinking > Restaurant > Mexican Restaurant > Taco Restaurant'],b'\x00\x00\x00\x00\x01\xc0Y\xd7\x8d5}\xe0\x1b@4\xaaG\x18\xd8\xea1',"{'xmin': -103.36799371044656, 'ymin': 20.665147355039327, 'xmax': -103.36799371044656, 'ymax': 20.665147355039327}",dining and drinking > restaurant > mexican restaurant > taco restaurant,1
61c94813ab92727e3de69814,Tacos Mendoza,19.590232,-105.125064,,Pérula,JAL,48869,,,,MX,2021-12-27,2021-12-27,,,,,,,,['4bf58dd8d48988d151941735'],['Dining and Drinking > Restaurant > Mexican Restaurant > Taco Restaurant'],b'\x00\x00\x00\x00\x01\xc0ZH\x01\x0coz\x0b@3\x97\x19q\xc1\r|',"{'xmin': -105.125064, 'ymin': 19.590232, 'xmax': -105.125064, 'ymax': 19.590232}",dining and drinking > restaurant > mexican restaurant > taco restaurant,1
522ca0ec11d239b3698004ae,Tacos Alvaro Jr.,20.5443,-100.8426,,,,,,,,MX,2013-09-08,2021-08-14,,,,,,,,['4bf58dd8d48988d151941735'],['Dining and Drinking > Restaurant > Mexican Restaurant > Taco Restaurant'],b'\x00\x00\x00\x00\x01\xc0Y5\xed(\x8c\xe7\x04@4\x8bW>\xab6z',"{'xmin': -100.8426, 'ymin': 20.5443, 'xmax': -100.8426, 'ymax': 20.5443}",dining and drinking > restaurant > mexican restaurant > taco restaurant,1
4eb0b0226da152b3a8fe9a9d,Sahuaros Grill - Ajusco,20.642621936566506,-103.42069162961965,Av. Patria 2610,Zapopan,Jalisco,45070,,,,MX,2011-11-02,2020-11-23,,,,,273798905991390.0,,,['4bf58dd8d48988d151941735' '4bf58dd8d48988d1c1941735'],"['Dining and Drinking > Restaurant > Mexican Restaurant > Taco Restaurant'
 'Dining and Drinking > Restaurant > Mexican Restaurant']",b'\x00\x00\x00\x00\x01\xc0Y\xda\xec\x9c\x95\xba\xb6@4\xa4\x82\xdf\t>\xce',"{'xmin': -103.42069162961965, 'ymin': 20.642621936566506, 'xmax': -103.42069162961965, 'ymax': 20.642621936566506}","dining and drinking > restaurant > mexican restaurant > taco restaurant, dining and drinking > restaurant > mexican restaurant",1
51d6183d498e518d6cd2559a,Tacos Don Richard,21.862019652984564,-102.2541296976337,,,,,,,,MX,2013-07-05,2021-08-16,,,,,,,,['4bf58dd8d48988d151941735'],['Dining and Drinking > Restaurant > Mexican Restaurant > Taco Restaurant'],b'\x00\x00\x00\x00\x01\xc0Y\x90C\xa95\x11\xdd@5\xdc\xadQ\xea\x13\xf6',"{'xmin': -102.2541296976337, 'ymin': 21.862019652984564, 'xmax': -102.2541296976337, 'ymax': 21.862019652984564}",dining and drinking > restaurant > mexican restaurant > taco restaurant,1
4dd5728ce4cd37c8937b59f2,Tacos Sahuayo El Paisa,20.672942,-103.333015,,Guadalajara,JAL,,,,,MX,2011-05-19,2021-08-16,,,,,,,,['4bf58dd8d48988d151941735'],['Dining and Drinking > Restaurant > Mexican Restaurant > Taco Restaurant'],b'\x00\x00\x00\x00\x01\xc0Y\xd5P\x1e%\x84\xf5@4\xacE\xedJ\x1a\xd6',"{'xmin': -103.333015, 'ymin': 20.672942, 'xmax': -103.333015, 'ymax': 20.672942}",dining and drinking > restaurant > mexican restaurant > taco restaurant,1
5575cc14498edad3a368b9d1,Las Ahogadictas,19.68639763953258,-101.20631879311381,Av universidad 1685,Morelia,Michoacán de Ocampo,58060,,,,MX,2015-06-08,2020-11-22,,,,,,,,['4bf58dd8d48988d151941735'],['Dining and Drinking > Restaurant > Mexican Restaurant > Taco Restaurant'],b'\x00\x00\x00\x00\x01\xc0YM4S\xbd>V@3\xaf\xb7\xc1u\xd8\x12',"{'xmin': -101.20631879311381, 'ymin': 19.68639763953258, 'xmax': -101.20631879311381, 'ymax': 19.68639763953258}",dining and drinking > restaurant > mexican restaurant > taco restaurant,1
51aab0ad498e4442631b9fdc,Tacos De Cabeza Cowboy,21.633844,-102.977044,Zaragoza,Jalpa,Zacatecas,,,,,MX,2013-06-02,2020-11-24,,,,,,,,['4bf58dd8d48988d151941735'],['Dining and Drinking > Restaurant > Mexican Restaurant > Taco Restaurant'],b'\x00\x00\x00\x00\x01\xc0Y\xbe\x87\xe3\x8e\xb02@5\xa2C\x99\xb2\xc4\r',"{'xmin': -102.977044, 'ymin': 21.633844, 'xmax': -102.977044, 'ymax': 21.633844}",dining and drinking > restaurant > mexican restaurant > taco restaurant,1
4f47061de4b0e4755b42db92,Los Pioneros,19.232651447785702,-103.72147912668541,Av. Pedro Galván,Colima,Colima,,,,,MX,2012-02-24,2020-11-24,,,,,,,,['4bf58dd8d48988d151941735'],['Dining and Drinking > Restaurant > Mexican Restaurant > Taco Restaurant'],"b'\x00\x00\x00\x00\x01\xc0Y\xee,\xb6\xc9w\x12@3;\x8f\x0b\x97\x9bM'","{'xmin': -103.72147912668541, 'ymin': 19.232651447785702, 'xmax': -103.72147912668541, 'ymax': 19.232651447785702}",dining and drinking > restaurant > mexican restaurant > taco restaurant,1
5741d7c1498eb6b88523cfce,Las Doradas,20.693975,-101.35983,Arandas,Irapuato,,,,,,MX,2016-05-22,2020-11-22,,,,,,,,['4bf58dd8d48988d151941735'],['Dining and Drinking > Restaurant > Mexican Restaurant > Taco Restaurant'],b'\x00\x00\x00\x00\x01\xc0YW\x07th\x87\xa9@4\xb1\xa8Xy=\xd9',"{'xmin': -101.35983, 'ymin': 20.693975, 'xmax': -101.35983, 'ymax': 20.693975}",dining and drinking > restaurant > mexican restaurant > taco restaurant,1
63556e18d7a58222f1ab6157,Birria El Gallo,21.11775,-101.633781,,León,Guanajuato,37280,,,,MX,2022-10-23,2022-10-23,,,,,,,,['4bf58dd8d48988d151941735'],['Dining and Drinking > Restaurant > Mexican Restaurant > Taco Restaurant'],b'\x00\x00\x00\x00\x01\xc0Yh\x8f\xde.\xf4\xe0@5\x1e$\xdd/\x1a\xa0',"{'xmin': -101.633781, 'ymin': 21.11775, 'xmax': -101.633781, 'ymax': 21.11775}",dining and drinking > restaurant > mexican restaurant > taco restaurant,1
520bd6f111d2c4998f992611,Tacos de Tripas Las Delicias,21.84997694559854,-102.29422683457781,Mahatma Gandhi,"Aguascalientes, AGS",AGS,,,,,MX,2013-08-14,2020-11-30,,,,,,,,['4bf58dd8d48988d151941735' '4bf58dd8d48988d1cb941735'],"['Dining and Drinking > Restaurant > Mexican Restaurant > Taco Restaurant'
 'Dining and Drinking > Food Truck']",b'\x00\x00\x00\x00\x01\xc0Y\x92\xd4\x9c\xca\x07\x82@5\xd9\x98\x16\xcf\xb3 ',"{'xmin': -102.29422683457781, 'ymin': 21.84997694559854, 'xmax': -102.29422683457781, 'ymax': 21.84997694559854}","dining and drinking > restaurant > mexican restaurant > taco restaurant, dining and drinking > food truck",1
528e4eb111d2740e10768d7d,Tacos Mario's,20.678342819213867,-103.33843231201172,,Guadalajara,,,,,,MX,2013-11-21,2021-08-11,,,,,,,,['4bf58dd8d48988d151941735'],['Dining and Drinking > Restaurant > Mexican Restaurant > Taco Restaurant'],b'\x00\x00\x00\x00\x01\xc0Y\xd5\xa8\xe0\x00\x00\x00@4\xad\xa7\xe0\x00\x00\x00',"{'xmin': -103.33843231201172, 'ymin': 20.678342819213867, 'xmax': -103.33843231201172, 'ymax': 20.678342819213867}",dining and drinking > restaurant > mexican restaurant > taco restaurant,1
52f1bed4498e9ffbd21a6217,Tacos Los Peque's,20.751531,-103.399865,,,,,,,,MX,2014-02-05,2021-08-14,,,,,,,,['4bf58dd8d48988d151941735'],['Dining and Drinking > Restaurant > Mexican Restaurant > Taco Restaurant'],b'\x00\x00\x00\x00\x01\xc0Y\xd9\x97c^t*@4\xc0dU\xea\xee ',"{'xmin': -103.399865, 'ymin': 20.751531, 'xmax': -103.399865, 'ymax': 20.751531}",dining and drinking > restaurant > mexican restaurant > taco restaurant,1
5fb43f92e3dfc2336f18aecf,Tacos Los Amigos De Jesús Ii,22.070395,-100.88335,,San Luis Potosí,San Luis Potosí,78395,,,,MX,2020-11-17,2020-11-17,,,,,,,,['4bf58dd8d48988d151941735'],['Dining and Drinking > Restaurant > Mexican Restaurant > Taco Restaurant'],b'\x00\x00\x00\x00\x01\xc0Y8\x88\xcep:\xfb@6\x12\x05h\x1e\xcdK',"{'xmin': -100.88335, 'ymin': 22.070395, 'xmax': -100.88335, 'ymax': 22.070395}",dining and drinking > restaurant > mexican restaurant > taco restaurant,1
4fa2df05e4b0083314c5d64a,Carnes Asadas Don Ramon Jr,20.66122,-103.313726,,,,,,,,MX,2012-05-03,2021-08-16,,,,,,,,['4bf58dd8d48988d151941735'],['Dining and Drinking > Restaurant > Mexican Restaurant > Taco Restaurant'],b'\x00\x00\x00\x00\x01\xc0Y\xd4\x14\x167y\xea@4\xa9E\xb6\xc3v\x0c',"{'xmin': -103.313726, 'ymin': 20.66122, 'xmax': -103.313726, 'ymax': 20.66122}",dining and drinking > restaurant > mexican restaurant > taco restaurant,1
56663b23498e876c39b8a152,Tacos alfredo,20.62318,-103.069152,,,,,,,,MX,2015-12-08,2021-08-10,,,,,,,,['4bf58dd8d48988d151941735'],['Dining and Drinking > Restaurant > Mexican Restaurant > Taco Restaurant'],b'\x00\x00\x00\x00\x01\xc0Y\xc4l\xfc\x82\x9c\xfe@4\x9f\x88\xb9w\x85s',"{'xmin': -103.069152, 'ymin': 20.62318, 'xmax': -103.069152, 'ymax': 20.62318}",dining and drinking > restaurant > mexican restaurant > taco restaurant,1
53bf4888498e434041744255,Tacos Patria,20.69827394498624,-103.41569457374263,,,,,,,,MX,2014-07-11,2021-08-14,,,,,,,,['4bf58dd8d48988d151941735'],['Dining and Drinking > Restaurant > Mexican Restaurant > Taco Restaurant'],b'\x00\x00\x00\x00\x01\xc0Y\xda\x9a\xbdi\xd6Z@4\xb2\xc2\x14\xcd]d',"{'xmin': -103.41569457374263, 'ymin': 20.69827394498624, 'xmax': -103.41569457374263, 'ymax': 20.69827394498624}",dining and drinking > restaurant > mexican restaurant > taco restaurant,1
51b53f59498ebff25322c2dc,"taquería ""Los Gueros""",20.68355369567871,-101.34923553466797,,,,,,,,MX,2013-06-10,2021-08-24,,,,,,,,['4bf58dd8d48988d151941735'],['Dining and Drinking > Restaurant > Mexican Restaurant > Taco Restaurant'],b'\x00\x00\x00\x00\x01\xc0YVY\xe0\x00\x00\x00@4\xae\xfd`\x00\x00\x00',"{'xmin': -101.34923553466797, 'ymin': 20.68355369567871, 'xmax': -101.34923553466797, 'ymax': 20.68355369567871}",dining and drinking > restaurant > mexican restaurant > taco restaurant,1
558dc126498e5be46c00246d,Juan Carnitas,20.670505,-103.405173,,,,,,,,MX,2015-06-26,2021-08-12,,,,,,,,['4bf58dd8d48988d151941735'],['Dining and Drinking > Restaurant > Mexican Restaurant > Taco Restaurant'],b'\x00\x00\x00\x00\x01\xc0Y\xd9\xeeZ\xbc\x0e9@4\xab\xa676\xcd\xf2',"{'xmin': -103.405173, 'ymin': 20.670505, 'xmax': -103.405173, 'ymax': 20.670505}",dining and drinking > restaurant > mexican restaurant > taco restaurant,1
506676f9e4b0e8655803e87c,El Compa Chuy,20.642447,-103.432691,Volcán De Baru,,,,,,,MX,2012-09-29,2021-08-12,,,,,,,,['4bf58dd8d48988d151941735'],['Dining and Drinking > Restaurant > Mexican Restaurant > Taco Restaurant'],b'\x00\x00\x00\x00\x01\xc0Y\xdb\xb15\x97\x91\x82@4\xa4wh\x16i\xcf',"{'xmin': -103.432691, 'ymin': 20.642447, 'xmax': -103.432691, 'ymax': 20.642447}",dining and drinking > restaurant > mexican restaurant > taco restaurant,1
4c1ee5bc8b3aa59351d19c5f,La Barra de Barry,22.145870846163376,-101.0082412428397,Himno Nacional 760-A,San Luis Potosí,San Luis Potosí,,,,,MX,2010-06-21,2023-12-20,,444 822 5508,,,,,,['4bf58dd8d48988d151941735'],['Dining and Drinking > Restaurant > Mexican Restaurant > Taco Restaurant'],b'\x00\x00\x00\x00\x01\xc0Y@\x87\x06G\x1ee@6%W\xca\xb1\xb6(',"{'xmin': -101.0082412428397, 'ymin': 22.145870846163376, 'xmax': -101.0082412428397, 'ymax': 22.145870846163376}",dining and drinking > restaurant > mexican restaurant > taco restaurant,1
5223709a11d261ae1f732bc6,Tacos El Torito,20.645288467407227,-103.28855895996094,,,,,,,,MX,2013-09-01,2021-08-14,,,,,,,,['4bf58dd8d48988d151941735'],['Dining and Drinking > Restaurant > Mexican Restaurant > Taco Restaurant'],b'\x00\x00\x00\x00\x01\xc0Y\xd2w\xc0\x00\x00\x00@4\xa51\xa0\x00\x00\x00',"{'xmin': -103.28855895996094, 'ymin': 20.645288467407227, 'xmax': -103.28855895996094, 'ymax': 20.645288467407227}",dining and drinking > restaurant > mexican restaurant > taco restaurant,1
5a09bf9e1f74407fd50b6277,Tacos Aida,20.630689,-101.678025,,Cuerámaro,GTO,36960,,,,MX,2017-11-13,2020-11-25,,,,,,,,['4bf58dd8d48988d151941735'],['Dining and Drinking > Restaurant > Mexican Restaurant > Taco Restaurant'],b'\x00\x00\x00\x00\x01\xc0Ykd\xc2\xf87\xb5@4\xa1t\xd5\x94\xf2k',"{'xmin': -101.678025, 'ymin': 20.630689, 'xmax': -101.678025, 'ymax': 20.630689}",dining and drinking > restaurant > mexican restaurant > taco restaurant,1
580e6d4438fa745900081f38,Takekas,20.666253,-103.384232,,,,,,,,MX,2016-10-24,2021-08-14,,,,,,,,['4bf58dd8d48988d151941735'],['Dining and Drinking > Restaurant > Mexican Restaurant > Taco Restaurant'],b'\x00\x00\x00\x00\x01\xc0Y\xd8\x97A\xd0\x84\xe8@4\xaa\x8f\x8e}\xdc\xa5',"{'xmin': -103.384232, 'ymin': 20.666253, 'xmax': -103.384232, 'ymax': 20.666253}",dining and drinking > restaurant > mexican restaurant > taco restaurant,1
542cb426498e157fe9daa18a,La Taqueria,20.666814638522542,-103.36736184063324,,,,,,,,MX,2014-10-02,2021-08-20,,,,,,,,['4bf58dd8d48988d151941735'],['Dining and Drinking > Restaurant > Mexican Restaurant > Taco Restaurant'],b'\x00\x00\x00\x00\x01\xc0Y\xd7\x82\xdb<\xd4\\@4\xaa\xb4]8\xf2\xc9',"{'xmin': -103.36736184063324, 'ymin': 20.666814638522542, 'xmax': -103.36736184063324, 'ymax': 20.666814638522542}",dining and drinking > restaurant > mexican restaurant > taco restaurant,1
52af6e7411d2d721bcfb437a,Tacos Los Primos,21.02623,-101.873572,Independencia,Purisima Del Rincon,Guanajuato,36400,,,,MX,2013-12-16,2020-11-25,,,,,,,,['4bf58dd8d48988d151941735'],['Dining and Drinking > Restaurant > Mexican Restaurant > Taco Restaurant'],"b'\x00\x00\x00\x00\x01\xc0Yw\xe8\x9a\x88\xac\xe2@5\x06\xb7\x02`,\x91'","{'xmin': -101.873572, 'ymin': 21.02623, 'xmax': -101.873572, 'ymax': 21.02623}",dining and drinking > restaurant > mexican restaurant > taco restaurant,1
57636a70498edc75f34081fe,Tacos Kikin,20.709024,-102.33949,Matamoros,Arandas,Jalisco,47180,,,,MX,2016-06-17,2020-11-23,,,,,,,,['4bf58dd8d48988d151941735'],['Dining and Drinking > Restaurant > Mexican Restaurant > Taco Restaurant'],b'\x00\x00\x00\x00\x01\xc0Y\x95\xba4C\xd4k@4\xb5\x82\x98\xcc\x14@',"{'xmin': -102.33949, 'ymin': 20.709024, 'xmax': -102.33949, 'ymax': 20.709024}",dining and drinking > restaurant > mexican restaurant > taco restaurant,1
639fcba9b9343e663dd356b3,Taquería El Rayito,21.931252,-102.320786,Av. Miguel de la Madrid,Aguascalientes,Aguascalientes,20119,,,,MX,2022-12-19,2023-08-11,,,,,,,,['4bf58dd8d48988d1c1941735' '4bf58dd8d48988d151941735'],"['Dining and Drinking > Restaurant > Mexican Restaurant'
 'Dining and Drinking > Restaurant > Mexican Restaurant > Taco Restaurant']",b'\x00\x00\x00\x00\x01\xc0Y\x94\x87\xc2\x00\xc0\xf0@5\xeef\x87\xf4U\xa8',"{'xmin': -102.320786, 'ymin': 21.931252, 'xmax': -102.320786, 'ymax': 21.931252}","dining and drinking > restaurant > mexican restaurant, dining and drinking > restaurant > mexican restaurant > taco restaurant",1
53ded8dd498ec77445e4c5a3,Lechón Aguascalientes,22.153997,-100.991945,Nicolás Zapata,San Luis Potosí,San Luis Potosí,,,,,MX,2014-08-04,2020-11-30,,,,,,,,['4bf58dd8d48988d151941735'],['Dining and Drinking > Restaurant > Mexican Restaurant > Taco Restaurant'],"b""\x00\x00\x00\x00\x01\xc0Y?|\x06\xe1\x9b\x91@6'lX\xee\xae\x9f""","{'xmin': -100.991945, 'ymin': 22.153997, 'xmax': -100.991945, 'ymax': 22.153997}",dining and drinking > restaurant > mexican restaurant > taco restaurant,1
5bb02dea3b8307002c08a1a8,Taqueria Polilla,19.243142,-103.763003,,Villa de Álvarez,COL,28983,,,,MX,2018-09-30,2020-11-22,,,,,,,,['4bf58dd8d48988d151941735'],['Dining and Drinking > Restaurant > Mexican Restaurant > Taco Restaurant'],b'\x00\x00\x00\x00\x01\xc0Y\xf0\xd5\n\x88\xef\xfe@3>>\x8d\xdaH\xb6',"{'xmin': -103.763003, 'ymin': 19.243142, 'xmax': -103.763003, 'ymax': 19.243142}",dining and drinking > restaurant > mexican restaurant > taco restaurant,1
5a0c619b2347240e6841b1e4,Taquitos Vaporosos,20.658661,-103.402865,,Zapopan,JAL,45040,,,,MX,2017-11-15,2020-11-25,,,,,,,,['4bf58dd8d48988d151941735'],['Dining and Drinking > Restaurant > Mexican Restaurant > Taco Restaurant'],b'\x00\x00\x00\x00\x01\xc0Y\xd9\xc8\x8aG\xec\xff@4\xa8\x9e\x01\xde&\x91',"{'xmin': -103.402865, 'ymin': 20.658661, 'xmax': -103.402865, 'ymax': 20.658661}",dining and drinking > restaurant > mexican restaurant > taco restaurant,1
54bd8329498e8e5ef255d74c,Rigo's Carniceria,20.691420190922237,-103.27899948027152,,,,,,,,MX,2015-01-19,2021-08-11,,,,,,,,['4bf58dd8d48988d151941735'],['Dining and Drinking > Restaurant > Mexican Restaurant > Taco Restaurant'],b'\x00\x00\x00\x00\x01\xc0Y\xd1\xdb \xa2\xd7\x80@4\xb1\x00\xe9\xe3\xce\x1a',"{'xmin': -103.27899948027152, 'ymin': 20.691420190922237, 'xmax': -103.27899948027152, 'ymax': 20.691420190922237}",dining and drinking > restaurant > mexican restaurant > taco restaurant,1
50792756e4b08ac08dafc3e4,Tacos Cúpulas,21.015056141253723,-101.25171719495836,Cantarranas,Guanajuato,GTO,36000,,,,MX,2012-10-13,2020-11-25,,,,,,,,['4bf58dd8d48988d151941735'],['Dining and Drinking > Restaurant > Mexican Restaurant > Taco Restaurant'],"b'\x00\x00\x00\x00\x01\xc0YP\x1c""p\x0b\xf8@5\x03\xda\xb8""I\xe8'","{'xmin': -101.25171719495836, 'ymin': 21.015056141253723, 'xmax': -101.25171719495836, 'ymax': 21.015056141253723}",dining and drinking > restaurant > mexican restaurant > taco restaurant,1
5705e324498e695430342127,Burros El Chino,21.878217,-102.318002,Av.Aguascalientes 305 A,,,,,,,MX,2016-04-07,2021-08-14,,,,,,,,['4bf58dd8d48988d151941735'],['Dining and Drinking > Restaurant > Mexican Restaurant > Taco Restaurant'],b'\x00\x00\x00\x00\x01\xc0Y\x94Z%\x0f\x84\x02@5\xe0\xd2\xd4M\xca\x8e',"{'xmin': -102.318002, 'ymin': 21.878217, 'xmax': -102.318002, 'ymax': 21.878217}",dining and drinking > restaurant > mexican restaurant > taco restaurant,1
541217be498e891114107777,Tortas Ahogadas Del Jicamo,20.705652076017508,-102.34716215964413,Alvaro Obregon,Arandas,Jalisco,47180,,,,MX,2014-09-11,2023-12-21,,348 783 0205,,,,,,['4bf58dd8d48988d151941735'],['Dining and Drinking > Restaurant > Mexican Restaurant > Taco Restaurant'],b'\x00\x00\x00\x00\x01\xc0Y\x967\xe7\xa2\x85#@4\xb4\xa5\x9dL\xd9\x86',"{'xmin': -102.34716215964413, 'ymin': 20.705652076017508, 'xmax': -102.34716215964413, 'ymax': 20.705652076017508}",dining and drinking > restaurant > mexican restaurant > taco restaurant,1
51572bd8e4b0940322c1307d,"tacos de barbacoa el ""misa""",20.624527872358843,-103.25590682355582,Paseo Lomas Del Sur Y Loma Tangancicuaro Oriente,Tonala,jalisco,,,,,MX,2013-03-30,2020-11-30,,,,,,,,['4bf58dd8d48988d151941735'],['Dining and Drinking > Restaurant > Mexican Restaurant > Taco Restaurant'],b'\x00\x00\x00\x00\x01\xc0Y\xd0`\xc7\x03\x7f\xb6@4\x9f\xe1\x0f\x038\xc1',"{'xmin': -103.25590682355582, 'ymin': 20.624527872358843, 'xmax': -103.25590682355582, 'ymax': 20.624527872358843}",dining and drinking > restaurant > mexican restaurant > taco restaurant,1
50058d3ee4b0a8ae9858e6c6,Tacos El Villano III,22.148928,-100.98374,,,,,,,,MX,2012-07-17,2021-08-14,,,,,,,,['4bf58dd8d48988d151941735'],['Dining and Drinking > Restaurant > Mexican Restaurant > Taco Restaurant'],b'\x00\x00\x00\x00\x01\xc0Y>\xf5\x98\x9d\xf1\x17@6& %9um',"{'xmin': -100.98374, 'ymin': 22.148928, 'xmax': -100.98374, 'ymax': 22.148928}",dining and drinking > restaurant > mexican restaurant > taco restaurant,1
5151bc8fe4b057ba6b18316f,Birria Los Gueros,20.60129165649414,-103.40044403076172,,,,,,,,MX,2013-03-26,2021-08-17,,,,,,,,['4bf58dd8d48988d151941735'],['Dining and Drinking > Restaurant > Mexican Restaurant > Taco Restaurant'],b'\x00\x00\x00\x00\x01\xc0Y\xd9\xa0\xe0\x00\x00\x00@4\x99\xee@\x00\x00\x00',"{'xmin': -103.40044403076172, 'ymin': 20.60129165649414, 'xmax': -103.40044403076172, 'ymax': 20.60129165649414}",dining and drinking > restaurant > mexican restaurant > taco restaurant,1
5477482a498ecfcbffb8683e,La Casita de Leo,20.671306,-103.359426,,,,,,,,MX,2014-11-27,2021-08-15,,,,,,,,['4bf58dd8d48988d151941735'],['Dining and Drinking > Restaurant > Mexican Restaurant > Taco Restaurant'],b'\x00\x00\x00\x00\x01\xc0Y\xd7\x00\xd5\xe8\xd5A@4\xab\xda\xb5\xc3\x9b\xcc',"{'xmin': -103.359426, 'ymin': 20.671306, 'xmax': -103.359426, 'ymax': 20.671306}",dining and drinking > restaurant > mexican restaurant > taco restaurant,1
52fd7c1c498e7e782d065387,Tacos el Pastorcito Mixto,20.546135628186796,-100.8191816041281,Av Manuel Orozco Y Berra,Celaya,Guanajuato,38010,,,,MX,2014-02-14,2020-11-24,,,,,,,,['4bf58dd8d48988d151941735'],['Dining and Drinking > Restaurant > Mexican Restaurant > Taco Restaurant'],"b'\x00\x00\x00\x00\x01\xc0Y4mx\xad\xcd\xc3@4\x8b\xcf\x8bf>""'","{'xmin': -100.8191816041281, 'ymin': 20.546135628186796, 'xmax': -100.8191816041281, 'ymax': 20.546135628186796}",dining and drinking > restaurant > mexican restaurant > taco restaurant,1
57c1c4bc498ec78d22dc3627,tacos el viejo,20.660547,-103.324068,,Guadalajara,,,,,,MX,2016-08-27,2021-08-12,,,,,,,,['4bf58dd8d48988d151941735'],['Dining and Drinking > Restaurant > Mexican Restaurant > Taco Restaurant'],b'\x00\x00\x00\x00\x01\xc0Y\xd4\xbd\x87\xb5k\x87@4\xa9\x19\x9b\xb2x\x8e',"{'xmin': -103.324068, 'ymin': 20.660547, 'xmax': -103.324068, 'ymax': 20.660547}",dining and drinking > restaurant > mexican restaurant > taco restaurant,1
52c8de93498ea660f7e9f58b,Tacos Mina,20.210259386567934,-100.88237774923121,Ocampo,Salvatierra,Guanajuato,38900,,,,MX,2014-01-05,2020-11-22,,,,,,,,['4bf58dd8d48988d151941735'],['Dining and Drinking > Restaurant > Mexican Restaurant > Taco Restaurant'],b'\x00\x00\x00\x00\x01\xc0Y8x\xe0\x85\xea\xa2@45\xd3\x8f$\xfc~',"{'xmin': -100.88237774923121, 'ymin': 20.210259386567934, 'xmax': -100.88237774923121, 'ymax': 20.210259386567934}",dining and drinking > restaurant > mexican restaurant > taco restaurant,1
4eeb0717b8f7029426812501,Tacos Y Tortas Manolo,21.114324727856157,-101.68043753770836,Mariano Escobedo 346,Leon,Guanajuato,,,,,MX,2011-12-16,2020-11-23,,,,,,,,['4bf58dd8d48988d151941735'],['Dining and Drinking > Restaurant > Mexican Restaurant > Taco Restaurant'],"b'\x00\x00\x00\x00\x01\xc0Yk\x8cI\xe2\xdbg@5\x1dDb\xa7D,'","{'xmin': -101.68043753770836, 'ymin': 21.114324727856157, 'xmax': -101.68043753770836, 'ymax': 21.114324727856157}",dining and drinking > restaurant > mexican restaurant > taco restaurant,1
572cb442498e7abea0579346,Tacos Chente,20.729987,-103.44019,,,,,,,,MX,2016-05-06,2021-08-11,,,,,,,,['4bf58dd8d48988d151941735'],['Dining and Drinking > Restaurant > Mexican Restaurant > Taco Restaurant'],"b'\x00\x00\x00\x00\x01\xc0Y\xdc,\x12\xad\x81\xae@4\xba\xe0m\x93\x81R'","{'xmin': -103.44019, 'ymin': 20.729987, 'xmax': -103.44019, 'ymax': 20.729987}",dining and drinking > restaurant > mexican restaurant > taco restaurant,1
5a84e249a4c39c5df414a517,Spartaco,20.62709,-103.416126,1974 Avenida 18 de Marzo,Zapopan,JAL,45080,,,,MX,2018-02-15,2023-12-20,,33 3801 8951,,,,,,['4bf58dd8d48988d151941735'],['Dining and Drinking > Restaurant > Mexican Restaurant > Taco Restaurant'],b'\x00\x00\x00\x00\x01\xc0Y\xda\xa1\xce\xf2@\xfb@4\xa0\x88\xf8a\xa6\r',"{'xmin': -103.416126, 'ymin': 20.62709, 'xmax': -103.416126, 'ymax': 20.62709}",dining and drinking > restaurant > mexican restaurant > taco restaurant,1
52eac835498ec7bcd0c72f25,Las Cucas Tortas Ahogadas Y Carne En Su Jugo,20.535251458812137,-100.82949185357721,Av. El Sauz,,,,,,,MX,2014-01-30,2021-08-15,,,,,,,,"['4bf58dd8d48988d151941735' '4bf58dd8d48988d1f9941735'
 '4bf58dd8d48988d16e941735']","['Dining and Drinking > Restaurant > Mexican Restaurant > Taco Restaurant'
 'Retail > Food and Beverage Retail'
 'Dining and Drinking > Restaurant > Fast Food Restaurant']",b'\x00\x00\x00\x00\x01\xc0Y5\x16d\xff\xdag@4\x89\x06=V\xbc\x03',"{'xmin': -100.82949185357721, 'ymin': 20.535251458812137, 'xmax': -100.82949185357721, 'ymax': 20.535251458812137}","dining and drinking > restaurant > mexican restaurant > taco restaurant, retail > food and beverage retail, dining and drinking > restaurant > fast food restaurant",1
59dec89814994649a3648249,Tacos El Chino,20.62725,-101.671765,,Cuerámaro,GTO,36960,,,,MX,2017-10-12,2020-11-25,,,,,,,,['4bf58dd8d48988d151941735'],['Dining and Drinking > Restaurant > Mexican Restaurant > Taco Restaurant'],b'\x00\x00\x00\x00\x01\xc0Yj\xfe2\xa0f<@4\xa0\x93t\xbcj\x7f',"{'xmin': -101.671765, 'ymin': 20.62725, 'xmax': -101.671765, 'ymax': 20.62725}",dining and drinking > restaurant > mexican restaurant > taco restaurant,1
4d14f3861356a093ea05cd82,Tacos Barbacoa Prepa 5,20.642525871179796,-103.372724039447,Fray Andres De Urdaneta,Guadalajara,Jalisco,,,,,MX,2010-12-24,2021-08-13,,,,,,,,['4bf58dd8d48988d151941735' '4bf58dd8d48988d1c1941735'],"['Dining and Drinking > Restaurant > Mexican Restaurant > Taco Restaurant'
 'Dining and Drinking > Restaurant > Mexican Restaurant']",b'\x00\x00\x00\x00\x01\xc0Y\xd7\xda\xb5\xed\xf6\xe7@4\xa4|\x93S\x8d\x17',"{'xmin': -103.372724039447, 'ymin': 20.642525871179796, 'xmax': -103.372724039447, 'ymax': 20.642525871179796}","dining and drinking > restaurant > mexican restaurant > taco restaurant, dining and drinking > restaurant > mexican restaurant",1
58e1b01cd25ded1a4f350ec0,Tacos Chayito,19.326007,-103.597202,Lateral Carretera Ciudad Guzman-Colima,Cuauhtémoc Cárdenas,COL,28506,,,,MX,2017-04-03,2020-11-30,,,,,,,,['4bf58dd8d48988d151941735'],['Dining and Drinking > Restaurant > Mexican Restaurant > Taco Restaurant'],b'\x00\x00\x00\x00\x01\xc0Y\xe68\x8e\xbc\xc6\xc5@3Su1\xdbD_',"{'xmin': -103.597202, 'ymin': 19.326007, 'xmax': -103.597202, 'ymax': 19.326007}",dining and drinking > restaurant > mexican restaurant > taco restaurant,1
5798d208498efefd95fde71a,"Tacos Al vapor ""El Tigre""",21.902397,-102.31258,Canal Interceptor,Aguascalientes,Aguascalientes,20010,,,,MX,2016-07-27,2020-11-23,,,,,,,,['4bf58dd8d48988d151941735'],['Dining and Drinking > Restaurant > Mexican Restaurant > Taco Restaurant'],b'\x00\x00\x00\x00\x01\xc0Y\x94\x01O\x8bX\x8e@5\xe7\x03}c\x02.',"{'xmin': -102.31258, 'ymin': 21.902397, 'xmax': -102.31258, 'ymax': 21.902397}",dining and drinking > restaurant > mexican restaurant > taco restaurant,1
5ecb6bbfece88100081de7c8,Taqueria “No Que No”,21.069468,-101.561893,255 Avenida Ladrilleras del Refugio,León,GTO,37544,,,,MX,2020-05-25,2021-02-11,,,,,,,,['4bf58dd8d48988d151941735'],['Dining and Drinking > Restaurant > Mexican Restaurant > Taco Restaurant'],b'\x00\x00\x00\x00\x01\xc0Yc\xf6\x0e\x0e\xb6|@5\x11\xc8\xa7\xa4\x1eX',"{'xmin': -101.561893, 'ymin': 21.069468, 'xmax': -101.561893, 'ymax': 21.069468}",dining and drinking > restaurant > mexican restaurant > taco restaurant,1
5113c661e4b097f5fb38a780,Tacos Ciber Tigger,20.714353635045512,-103.34139940642252,Experiencia #3155,Guadalajara,,,,,,MX,2013-02-07,2021-08-12,,,,,,,,['4bf58dd8d48988d151941735'],['Dining and Drinking > Restaurant > Mexican Restaurant > Taco Restaurant'],b'\x00\x00\x00\x00\x01\xc0Y\xd5\xd9|\xe5]Y@4\xb6\xdf\xe1<L\x98',"{'xmin': -103.34139940642252, 'ymin': 20.714353635045512, 'xmax': -103.34139940642252, 'ymax': 20.714353635045512}",dining and drinking > restaurant > mexican restaurant > taco restaurant,1
f3b2ab58c77b40fd449deaff,La Fogata,20.68397,-103.3376,Manuel Acuña 52Z,Guadalajara,Jalisco,44100,,,,MX,2010-10-15,2024-06-15,,33 3613 8565,http://guadalajara.infored.com.mx/289029/LA-FOGATA.html,,,,,['4bf58dd8d48988d151941735'],['Dining and Drinking > Restaurant > Mexican Restaurant > Taco Restaurant'],b'\x00\x00\x00\x00\x01\xc0Y\xd5\x9b=\x07\xc8K@4\xaf\x18\xa8mq\xf3',"{'xmin': -103.3376, 'ymin': 20.68397, 'xmax': -103.3376, 'ymax': 20.68397}",dining and drinking > restaurant > mexican restaurant > taco restaurant,1
4fd21d4de4b0d6a2d500e74d,Tacos Javier,21.117551803588867,-101.65190887451172,,,,,,,,MX,2012-06-08,2021-08-13,,,,,,,,['4bf58dd8d48988d151941735'],['Dining and Drinking > Restaurant > Mexican Restaurant > Taco Restaurant'],b'\x00\x00\x00\x00\x01\xc0Yi\xb8\xe0\x00\x00\x00@5\x1e\x17\xe0\x00\x00\x00',"{'xmin': -101.65190887451172, 'ymin': 21.117551803588867, 'xmax': -101.65190887451172, 'ymax': 21.117551803588867}",dining and drinking > restaurant > mexican restaurant > taco restaurant,1
59b4ab4816fa04346fd3ffff,Tacos Gonzalez,21.361231,-101.920359,,Lagos de Moreno,JAL,47440,,,,MX,2017-09-10,2020-11-22,,,,,,,,['4bf58dd8d48988d151941735'],['Dining and Drinking > Restaurant > Mexican Restaurant > Taco Restaurant'],"b""\x00\x00\x00\x00\x01\xc0Yz\xe7)oe\x13@5\\y\xa2\x83M'""","{'xmin': -101.920359, 'ymin': 21.361231, 'xmax': -101.920359, 'ymax': 21.361231}",dining and drinking > restaurant > mexican restaurant > taco restaurant,1
4ebdda515c5c3d470bd7062d,Tacos & Papas,20.634874,-105.226256,Av Los Tules,Puerto Vallarta,Jalisco,,,,,MX,2011-11-12,2020-11-30,,,,,,,,['4bf58dd8d48988d151941735'],['Dining and Drinking > Restaurant > Mexican Restaurant > Taco Restaurant'],b'\x00\x00\x00\x00\x01\xc0ZNz\xfar!\x86@4\xa2\x87\x1a;\x14\xa9',"{'xmin': -105.226256, 'ymin': 20.634874, 'xmax': -105.226256, 'ymax': 20.634874}",dining and drinking > restaurant > mexican restaurant > taco restaurant,1
51ec805f498edbbbb6350152,Frends Taco Sport,21.872972161524228,-102.31600293576312,Calle Roma 101 fracc. Del Valle,Aguascalientes,Ags.,20080,,,,MX,2013-07-22,2020-11-24,,449 994 0839,,,,,,['4bf58dd8d48988d151941735'],['Dining and Drinking > Restaurant > Mexican Restaurant > Taco Restaurant'],b'\x00\x00\x00\x00\x01\xc0Y\x949d`\xa2\xba@5\xdf{\x1a\x84\x10\xa3',"{'xmin': -102.31600293576312, 'ymin': 21.872972161524228, 'xmax': -102.31600293576312, 'ymax': 21.872972161524228}",dining and drinking > restaurant > mexican restaurant > taco restaurant,1
6619ecbad8b3ac73a2c33016,Don Miguelon Solares,20.72827,-103.470077,,Zapopan,Jal.,45019,,,,MX,2024-04-13,2024-04-15,,,,,,,,['4bf58dd8d48988d151941735'],['Dining and Drinking > Restaurant > Mexican Restaurant > Taco Restaurant'],b'\x00\x00\x00\x00\x01\xc0Y\xde\x15\xbd\xd7f\x84@4\xbao\xe7\x18\xa8m',"{'xmin': -103.470077, 'ymin': 20.72827, 'xmax': -103.470077, 'ymax': 20.72827}",dining and drinking > restaurant > mexican restaurant > taco restaurant,1
5564a66a498efe355a7e54ba,Tacos de birria el Centenario,20.722376377984805,-103.39625800703992,Avenida Hidalgo 375,Zapopan,Jalisco,,,,,MX,2015-05-26,2020-11-24,,33 1935 6467,,,,,,['4bf58dd8d48988d151941735'],['Dining and Drinking > Restaurant > Mexican Restaurant > Taco Restaurant'],b'\x00\x00\x00\x00\x01\xc0Y\xd9\\J\x8b@\xef@4\xb8\xed\xa8\x86\xd9\x01',"{'xmin': -103.39625800703992, 'ymin': 20.722376377984805, 'xmax': -103.39625800703992, 'ymax': 20.722376377984805}",dining and drinking > restaurant > mexican restaurant > taco restaurant,1
4fb1ccf4e4b0294add6d7ded,Taqueria el Carboncito,20.343221980729293,-102.03054895568174,,,,,,,,MX,2012-05-15,2021-08-14,,,,,,,,['4bf58dd8d48988d151941735'],['Dining and Drinking > Restaurant > Mexican Restaurant > Taco Restaurant'],b'\x00\x00\x00\x00\x01\xc0Y\x81\xf4\x83\x9be\x1f@4W\xddeN\x80+',"{'xmin': -102.03054895568174, 'ymin': 20.343221980729293, 'xmax': -102.03054895568174, 'ymax': 20.343221980729293}",dining and drinking > restaurant > mexican restaurant > taco restaurant,1
52ce0b2e498e20d98875b722,Tacos Pepe,21.12665558031252,-101.71441608333386,Nueva Galicia,León,Guanajuato,37353,,,,MX,2014-01-09,2020-11-25,,,,,,,,['4bf58dd8d48988d151941735'],['Dining and Drinking > Restaurant > Mexican Restaurant > Taco Restaurant'],b'\x00\x00\x00\x00\x01\xc0Ym\xb8\xfe<i\xf1@5 l\x80\x07LU',"{'xmin': -101.71441608333386, 'ymin': 21.12665558031252, 'xmax': -101.71441608333386, 'ymax': 21.12665558031252}",dining and drinking > restaurant > mexican restaurant > taco restaurant,1
4ed546757ee5ddf314e5991a,El Gran Taco,19.690757464586344,-101.20153709873931,"José Álvarez #87, Col. Felicitas Del Río",Morelia,Michoacan,,,,,MX,2011-11-29,2020-11-25,,443 320 1044,,,,,,['4bf58dd8d48988d151941735'],['Dining and Drinking > Restaurant > Mexican Restaurant > Taco Restaurant'],b'\x00\x00\x00\x00\x01\xc0YL\xe5\xfb\xdc\x01\x07@3\xb0\xd5{/\xdd\xc1',"{'xmin': -101.20153709873931, 'ymin': 19.690757464586344, 'xmax': -101.20153709873931, 'ymax': 19.690757464586344}",dining and drinking > restaurant > mexican restaurant > taco restaurant,1
50dbca9d498e09c6c6b4578a,Carnes Asadas Ponce,20.762475,-103.438489,Av. Aviacion,Zapopan,Jalisco,,,,,MX,2012-12-27,2020-11-25,,,,,,,,['4bf58dd8d48988d151941735'],['Dining and Drinking > Restaurant > Mexican Restaurant > Taco Restaurant'],b'\x00\x00\x00\x00\x01\xc0Y\xdc\x104*\xa9\xf8@4\xc31\x8f\xc5\x04\x81',"{'xmin': -103.438489, 'ymin': 20.762475, 'xmax': -103.438489, 'ymax': 20.762475}",dining and drinking > restaurant > mexican restaurant > taco restaurant,1
53489d90498ed70ddb2af496,Chalupas Doña Licha,22.141611,-100.982341,,,,,,,,MX,2014-04-12,2021-08-11,,,,,,,,['4bf58dd8d48988d151941735'],['Dining and Drinking > Restaurant > Mexican Restaurant > Taco Restaurant'],b'\x00\x00\x00\x00\x01\xc0Y>\xde\xac\xc9!G@6$@\x9eU\xc0\xfd',"{'xmin': -100.982341, 'ymin': 22.141611, 'xmax': -100.982341, 'ymax': 22.141611}",dining and drinking > restaurant > mexican restaurant > taco restaurant,1
2ce0c7d086574ff820c3b985,Birrierria Julio,21.148465,-101.638449,Agustin Tellez Cruces 3808,Guanajuato,Guanajuato,37235,,,,MX,2013-06-14,2023-12-06,,477 104 4752,,,,,,['4bf58dd8d48988d151941735'],['Dining and Drinking > Restaurant > Mexican Restaurant > Taco Restaurant'],b'\x00\x00\x00\x00\x01\xc0Yh\xdcY1\xca}@5&\x01\xcd_\x99\xc4',"{'xmin': -101.638449, 'ymin': 21.148465, 'xmax': -101.638449, 'ymax': 21.148465}",dining and drinking > restaurant > mexican restaurant > taco restaurant,1
50f18fbbe4b0b237bc789e81,Tacos de barbacoa Los Dorados de Villa,20.576906204223633,-103.36614990234375,Pedro moreno 16-A,Toluquilla,Jalisco,45610,,,,MX,2013-01-12,2020-11-25,,33 3601 0193,,,,,,['4bf58dd8d48988d151941735' '4bf58dd8d48988d1c1941735'],"['Dining and Drinking > Restaurant > Mexican Restaurant > Taco Restaurant'
 'Dining and Drinking > Restaurant > Mexican Restaurant']",b'\x00\x00\x00\x00\x01\xc0Y\xd7o\x00\x00\x00\x00@4\x93\xb0 \x00\x00\x00',"{'xmin': -103.36614990234375, 'ymin': 20.576906204223633, 'xmax': -103.36614990234375, 'ymax': 20.576906204223633}","dining and drinking > restaurant > mexican restaurant > taco restaurant, dining and drinking > restaurant > mexican restaurant",1
4f790f71e4b0eedfe796513e,Tacos al Pastor Fonseca,20.673795833792866,-103.36972549417713,"Interlingua Guadalajara Av. Mexico, zona6, 44690 Guadalajara, JAL",Guadalajara,Jalisco,44690,,,,MX,2012-04-02,2021-08-15,,,,,,,,['4bf58dd8d48988d151941735'],['Dining and Drinking > Restaurant > Mexican Restaurant > Taco Restaurant'],b'\x00\x00\x00\x00\x01\xc0Y\xd7\xa9\x95\x1e\x7f?@4\xac}\xe2>RH',"{'xmin': -103.36972549417713, 'ymin': 20.673795833792866, 'xmax': -103.36972549417713, 'ymax': 20.673795833792866}",dining and drinking > restaurant > mexican restaurant > taco restaurant,1
55a2acb0498e3763626b0758,ahogadas del rey,20.653057,-103.429105,,,,,,,,MX,2015-07-12,2021-08-17,,,,,,,,['4bf58dd8d48988d151941735'],['Dining and Drinking > Restaurant > Mexican Restaurant > Taco Restaurant'],b'\x00\x00\x00\x00\x01\xc0Y\xdbvt\xd1c5@4\xa7.\xbeYl\x83',"{'xmin': -103.429105, 'ymin': 20.653057, 'xmax': -103.429105, 'ymax': 20.653057}",dining and drinking > restaurant > mexican restaurant > taco restaurant,1
5080d072e4b0361f654fcecf,Tacos Chava,20.73083,-103.34733,Mariano Barcena,Guadalajara,Jalisco,,,,,MX,2012-10-19,2020-11-30,,,,,,,,['4bf58dd8d48988d151941735'],['Dining and Drinking > Restaurant > Mexican Restaurant > Taco Restaurant'],b'\x00\x00\x00\x00\x01\xc0Y\xd6:\xa7\x9b\xba\xdc@4\xbb\x17\xac\xc4\xef\x89',"{'xmin': -103.34733, 'ymin': 20.73083, 'xmax': -103.34733, 'ymax': 20.73083}",dining and drinking > restaurant > mexican restaurant > taco restaurant,1
4f6e7334e4b08a0bbb2ad995,"Tacos al Vapor ""Rafa""",20.689453255725756,-103.3010745048523,Francisco Villa,Guadalajara,Jalisco,44700,,,,MX,2012-03-25,2021-08-13,,33 1443 1170,,,,,El_Ra,['4bf58dd8d48988d151941735'],['Dining and Drinking > Restaurant > Mexican Restaurant > Taco Restaurant'],b'\x00\x00\x00\x00\x01\xc0Y\xd3D\xce\x00\x00\x00@4\xb0\x80\x021v}',"{'xmin': -103.3010745048523, 'ymin': 20.689453255725756, 'xmax': -103.3010745048523, 'ymax': 20.689453255725756}",dining and drinking > restaurant > mexican restaurant > taco restaurant,1
62bca30abf4d5b18c0727bc0,Taqueria Del Muro 2,21.782337,-103.303505,,Tlaltenango de Sánchez Román,Zacatecas,99700,,,,MX,2022-06-29,2022-06-29,,,,,,,,['4bf58dd8d48988d151941735'],['Dining and Drinking > Restaurant > Mexican Restaurant > Taco Restaurant'],b'\x00\x00\x00\x00\x01\xc0Y\xd3l\xa0<K\n@5\xc8G<\xd5sd',"{'xmin': -103.303505, 'ymin': 21.782337, 'xmax': -103.303505, 'ymax': 21.782337}",dining and drinking > restaurant > mexican restaurant > taco restaurant,1
5388c197498e7ba2b2858677,Los de Asada Camelinas,19.683822631835938,-101.17745208740234,,,,,,,,MX,2014-05-30,2021-08-12,,,,,,,,['4bf58dd8d48988d151941735'],['Dining and Drinking > Restaurant > Mexican Restaurant > Taco Restaurant'],b'\x00\x00\x00\x00\x01\xc0YK[`\x00\x00\x00@3\xaf\x0f\x00\x00\x00\x00',"{'xmin': -101.17745208740234, 'ymin': 19.683822631835938, 'xmax': -101.17745208740234, 'ymax': 19.683822631835938}",dining and drinking > restaurant > mexican restaurant > taco restaurant,1
5100c311e4b01ca9b3e9cbe6,Tacos La Wera,21.513766754672254,-104.90440111246164,,,,,,,,MX,2013-01-24,2021-08-11,,,,,,,,['4bf58dd8d48988d151941735'],['Dining and Drinking > Restaurant > Mexican Restaurant > Taco Restaurant'],b'\x00\x00\x00\x00\x01\xc0Z9\xe1\xb54\x1fH@5\x83\x867\xd1\x16\xe2',"{'xmin': -104.90440111246164, 'ymin': 21.513766754672254, 'xmax': -104.90440111246164, 'ymax': 21.513766754672254}",dining and drinking > restaurant > mexican restaurant > taco restaurant,1
54fd0d4e498e38ba3d60d0a0,El callejon del Taco,19.278766655870818,-103.73309978473979,Av. H. Ayuntamiento,,,,,,,MX,2015-03-09,2021-08-13,,,,,,,,['4bf58dd8d48988d151941735'],['Dining and Drinking > Restaurant > Mexican Restaurant > Taco Restaurant'],b'\x00\x00\x00\x00\x01\xc0Y\xee\xeb\x1b\\\n_@3G]@f.2',"{'xmin': -103.73309978473979, 'ymin': 19.278766655870818, 'xmax': -103.73309978473979, 'ymax': 19.278766655870818}",dining and drinking > restaurant > mexican restaurant > taco restaurant,1
4f6fdad7e4b01489bbd17439,Taqueria Danny,20.6972629040925,-103.36190117664239,Plan De San Luis,Guadalajara,Jalisco,,,,,MX,2012-03-26,2021-08-13,,,,,,,,['4bf58dd8d48988d151941735'],['Dining and Drinking > Restaurant > Mexican Restaurant > Taco Restaurant'],b'\x00\x00\x00\x00\x01\xc0Y\xd7)c\x8d\x84\x08@4\xb2\x7f\xd2Y\xca\x91',"{'xmin': -103.36190117664239, 'ymin': 20.6972629040925, 'xmax': -103.36190117664239, 'ymax': 20.6972629040925}",dining and drinking > restaurant > mexican restaurant > taco restaurant,1
53592c5d498eba766f14dfc1,Tacos De Asada De CARNE DE PERRO la Piedra,20.707688,-103.458435,,,,,,,,MX,2014-04-24,2021-08-14,,,,,,,,['4bf58dd8d48988d151941735'],['Dining and Drinking > Restaurant > Mexican Restaurant > Taco Restaurant'],b'\x00\x00\x00\x00\x01\xc0Y\xddV\xff\xc1\x15\xdf@4\xb5+\no\xc5\x8b',"{'xmin': -103.458435, 'ymin': 20.707688, 'xmax': -103.458435, 'ymax': 20.707688}",dining and drinking > restaurant > mexican restaurant > taco restaurant,1
56414f52498e65e77b2b2e0f,Taqueria La Chiquis,20.1344652560078,-101.18837953971035,Colegio Militar,Moroleon,guanajuato,38800,,,,MX,2015-11-10,2020-11-25,,,,,,,,['4bf58dd8d48988d151941735'],['Dining and Drinking > Restaurant > Mexican Restaurant > Taco Restaurant'],"b'\x00\x00\x00\x00\x01\xc0YL\x0ei\x0e\x92\xa8@4""lP\xa5\x00t'","{'xmin': -101.18837953971035, 'ymin': 20.1344652560078, 'xmax': -101.18837953971035, 'ymax': 20.1344652560078}",dining and drinking > restaurant > mexican restaurant > taco restaurant,1
4cf86bae5698a093f37605fc,Date Tu Taco (Las Lechuzas ),22.150640517067504,-100.99155882010625,Mariano Ávila 505,San Luis Potosí,San Luis Potosí,,,,,MX,2010-12-03,2020-11-23,,,,,,,,['4bf58dd8d48988d151941735'],['Dining and Drinking > Restaurant > Mexican Restaurant > Taco Restaurant'],b'\x00\x00\x00\x00\x01\xc0Y?u\xb3 \x1a\xab@6&\x90`~A\xe9',"{'xmin': -100.99155882010625, 'ymin': 22.150640517067504, 'xmax': -100.99155882010625, 'ymax': 22.150640517067504}",dining and drinking > restaurant > mexican restaurant > taco restaurant,1
6407564a8890211524529f9a,Tacos El Padrino,20.587685,-103.223027,Carr. Libre A Zapotlanejo #14,Tonalá,JAL,45428,,,,MX,2023-03-07,2023-03-07,,,,,,,,['4bf58dd8d48988d151941735'],['Dining and Drinking > Restaurant > Mexican Restaurant > Taco Restaurant'],b'\x00\x00\x00\x00\x01\xc0Y\xceF\x13\t\xc8\x00@4\x96r\x86/Y\x8a',"{'xmin': -103.223027, 'ymin': 20.587685, 'xmax': -103.223027, 'ymax': 20.587685}",dining and drinking > restaurant > mexican restaurant > taco restaurant,1
517c925de4b0347e21dc1afe,"Tacos Estilo Sinaloa ""el Costeño""",20.6429773676221,-103.379541260354,,,,,,,,MX,2013-04-28,2021-08-16,,,,,,,,['4bf58dd8d48988d151941735' '4bf58dd8d48988d1c1941735'],"['Dining and Drinking > Restaurant > Mexican Restaurant > Taco Restaurant'
 'Dining and Drinking > Restaurant > Mexican Restaurant']","b'\x00\x00\x00\x00\x01\xc0Y\xd8Jgm,\xff@4\xa4\x9a*.\x01M'","{'xmin': -103.379541260354, 'ymin': 20.6429773676221, 'xmax': -103.379541260354, 'ymax': 20.6429773676221}","dining and drinking > restaurant > mexican restaurant > taco restaurant, dining and drinking > restaurant > mexican restaurant",1
531549a7498e2e0d4cfad4d0,Que Tacos,20.646338729960988,-103.30107018210043,,,,,,,,MX,2014-03-04,2021-08-12,,,,,,,,['4bf58dd8d48988d151941735'],['Dining and Drinking > Restaurant > Mexican Restaurant > Taco Restaurant'],b'\x00\x00\x00\x00\x01\xc0Y\xd3D\xbb\xde{\x04@4\xa5vt{R\x14',"{'xmin': -103.30107018210043, 'ymin': 20.646338729960988, 'xmax': -103.30107018210043, 'ymax': 20.646338729960988}",dining and drinking > restaurant > mexican restaurant > taco restaurant,1
5a977088e65d0c69e90c08be,El Sonorita,20.710099,-105.285083,Blvd. Nuevo Vallarta #64,Nuevo Vallarta,NAY,,,,,MX,2018-03-01,2023-12-20,,322 297 0376,http://sonorita.com.mx,,,sonorita,,['4bf58dd8d48988d151941735'],['Dining and Drinking > Restaurant > Mexican Restaurant > Taco Restaurant'],b'\x00\x00\x00\x00\x01\xc0ZR>\xcc\xc4iQ@4\xb5\xc9\x0cM\xec\x1c',"{'xmin': -105.285083, 'ymin': 20.710099, 'xmax': -105.285083, 'ymax': 20.710099}",dining and drinking > restaurant > mexican restaurant > taco restaurant,1
562198d2498e71764f205143,Tacos Don Juanito,22.141993871881255,-101.032111322936,Cordillera Himalaya,San Luis Potosí,San Luis Potosí,,,,,MX,2015-10-17,2020-11-24,,,,,,,,['4bf58dd8d48988d151941735'],['Dining and Drinking > Restaurant > Mexican Restaurant > Taco Restaurant'],b'\x00\x00\x00\x00\x01\xc0YB\x0e\x1c\xa6u\xda@6$Y\xb5\xdb\xf6`',"{'xmin': -101.032111322936, 'ymin': 22.141993871881255, 'xmax': -101.032111322936, 'ymax': 22.141993871881255}",dining and drinking > restaurant > mexican restaurant > taco restaurant,1
529d0e0a11d274c9c4921194,Tacos Al Pastor Prepa 5,20.64186201846076,-103.3724557808359,,Guadalajara,Jalisco,,,,,MX,2013-12-02,2021-08-13,,,,,,,,['4bf58dd8d48988d151941735'],['Dining and Drinking > Restaurant > Mexican Restaurant > Taco Restaurant'],b'\x00\x00\x00\x00\x01\xc0Y\xd7\xd6P\xc5y^@4\xa4Q\x11\xb9\xd5a',"{'xmin': -103.3724557808359, 'ymin': 20.64186201846076, 'xmax': -103.3724557808359, 'ymax': 20.64186201846076}",dining and drinking > restaurant > mexican restaurant > taco restaurant,1
52d6ea2a11d2b20651e0ae4a,carbon y brasas,20.67584658229235,-103.3730255381155,Morelos 1882,,jalisco,,,,,MX,2014-01-15,2021-08-11,,,,,,,,['4bf58dd8d48988d151941735'],['Dining and Drinking > Restaurant > Mexican Restaurant > Taco Restaurant'],b'\x00\x00\x00\x00\x01\xc0Y\xd7\xdf\xa6\x81\xb1\xd9@4\xad\x04H\x18\x0f\x1c',"{'xmin': -103.3730255381155, 'ymin': 20.67584658229235, 'xmax': -103.3730255381155, 'ymax': 20.67584658229235}",dining and drinking > restaurant > mexican restaurant > taco restaurant,1
4e2ce87fb0fbc2edac319c96,La Ezquina,20.645846598292817,-105.21429419517517,Avenida Las Torres,Puerto Vallarta,Jalisco,,,,,MX,2011-07-25,2020-11-26,,,,,,,,['4bf58dd8d48988d151941735'],['Dining and Drinking > Restaurant > Mexican Restaurant > Taco Restaurant'],b'\x00\x00\x00\x00\x01\xc0ZM\xb6\xff\x00\x00\x00@4\xa5V3\xe1\xe6\x87',"{'xmin': -105.21429419517517, 'ymin': 20.645846598292817, 'xmax': -105.21429419517517, 'ymax': 20.645846598292817}",dining and drinking > restaurant > mexican restaurant > taco restaurant,1
55f5d4e0498eece8c201c2e9,taqueria cheto jr,19.939039,-103.764101,,,,,,,,MX,2015-09-13,2020-11-23,,,,,,,,['4bf58dd8d48988d151941735'],['Dining and Drinking > Restaurant > Mexican Restaurant > Taco Restaurant'],"b'\x00\x00\x00\x00\x01\xc0Y\xf0\xe7\x07\xe1u\xd1@3\xf0d\xdc""\xab&'","{'xmin': -103.764101, 'ymin': 19.939039, 'xmax': -103.764101, 'ymax': 19.939039}",dining and drinking > restaurant > mexican restaurant > taco restaurant,1
5219810b11d25620d1daed85,Tacos Isma,20.283696,-100.755473,Benito Juárez 105,,,,,,,MX,2013-08-25,2021-08-14,,,,,,,,['4bf58dd8d48988d151941735'],['Dining and Drinking > Restaurant > Mexican Restaurant > Taco Restaurant'],b'\x00\x00\x00\x00\x01\xc0Y0Y\xabm\x00\xb4@4H\xa0M\x12\x01\x8a',"{'xmin': -100.755473, 'ymin': 20.283696, 'xmax': -100.755473, 'ymax': 20.283696}",dining and drinking > restaurant > mexican restaurant > taco restaurant,1
5a61684e23a2e62015366fbd,Los Tacos Y Las Papas,21.1546,-101.67048,Blvd. Miguel Hidalgo,León,Guanajuato,37140,,,,MX,2018-01-19,2020-11-30,,,,,,,,['4bf58dd8d48988d1c1941735' '4bf58dd8d48988d151941735'],"['Dining and Drinking > Restaurant > Mexican Restaurant'
 'Dining and Drinking > Restaurant > Mexican Restaurant > Taco Restaurant']","b""\x00\x00\x00\x00\x01\xc0Yj\xe9$\xf2'\xd0@5'\x93\xdd\x97\xf6+""","{'xmin': -101.67048, 'ymin': 21.1546, 'xmax': -101.67048, 'ymax': 21.1546}","dining and drinking > restaurant > mexican restaurant, dining and drinking > restaurant > mexican restaurant > taco restaurant",1
5057d061e4b07e9d89e6ddca,Taqueria No Que No,21.121985085865578,-101.64961151822138,,,,,,,,MX,2012-09-18,2021-08-17,,,,,,,,['4bf58dd8d48988d151941735'],['Dining and Drinking > Restaurant > Mexican Restaurant > Taco Restaurant'],"b'\x00\x00\x00\x00\x01\xc0Yi\x93<0wh@5\x1f:j""du'","{'xmin': -101.64961151822138, 'ymin': 21.121985085865578, 'xmax': -101.64961151822138, 'ymax': 21.121985085865578}",dining and drinking > restaurant > mexican restaurant > taco restaurant,1
544f07af498ecb0abd0011c9,tacos pelonas,20.623239,-103.063493,,,,,,,,MX,2014-10-28,2021-08-12,,,,,,,,['4bf58dd8d48988d151941735'],['Dining and Drinking > Restaurant > Mexican Restaurant > Taco Restaurant'],b'\x00\x00\x00\x00\x01\xc0Y\xc4\x10D\xf1\xa1\x98@4\x9f\x8c\x97R\x97}',"{'xmin': -103.063493, 'ymin': 20.623239, 'xmax': -103.063493, 'ymax': 20.623239}",dining and drinking > restaurant > mexican restaurant > taco restaurant,1
4cb89914dd41a35de731dca0,Tacos El Primo,20.681195633419254,-103.41785253097304,Clemente Orozco,Zapopan,JAL,,,,,MX,2010-10-15,2020-11-22,,,,,,,,['4bf58dd8d48988d151941735' '4bf58dd8d48988d1cb941735'],"['Dining and Drinking > Restaurant > Mexican Restaurant > Taco Restaurant'
 'Dining and Drinking > Food Truck']",b'\x00\x00\x00\x00\x01\xc0Y\xda\xbe\x18\x8a\xc5\x1f@4\xaeb\xd6G\xb6\xb5',"{'xmin': -103.41785253097304, 'ymin': 20.681195633419254, 'xmax': -103.41785253097304, 'ymax': 20.681195633419254}","dining and drinking > restaurant > mexican restaurant > taco restaurant, dining and drinking > food truck",1
4e3b4a9845dd68e3271d1ddb,"Taqueria ""La Glorieta""",20.668772650493,-101.37317023612576,Mariano J. Garcia,Irapuato,Guanajuato,,,,,MX,2011-08-05,2020-11-30,,,,,,,,['4bf58dd8d48988d151941735'],['Dining and Drinking > Restaurant > Mexican Restaurant > Taco Restaurant'],b'\x00\x00\x00\x00\x01\xc0YW\xe2\x05j\x00\x0c@4\xab4\xaf6S\xa1',"{'xmin': -101.37317023612576, 'ymin': 20.668772650493, 'xmax': -101.37317023612576, 'ymax': 20.668772650493}",dining and drinking > restaurant > mexican restaurant > taco restaurant,1
555ff2eb498e4236bd6c23f3,tacos el pastorcito,20.554548,-101.199583,,,,,,,,MX,2015-05-23,2021-08-17,,,,,,,,['4bf58dd8d48988d151941735'],['Dining and Drinking > Restaurant > Mexican Restaurant > Taco Restaurant'],b'\x00\x00\x00\x00\x01\xc0YL\xc5\xf7\xc6u\x9b@4\x8d\xf6\xdb\x94\x0f\xed',"{'xmin': -101.199583, 'ymin': 20.554548, 'xmax': -101.199583, 'ymax': 20.554548}",dining and drinking > restaurant > mexican restaurant > taco restaurant,1
ae5402e8f8c24bde2d315cd3,Zapes,20.62833,-103.424043,Avenida Carnero N°5520,Zapopan,Jalisco,45070,,,,MX,2010-11-04,2023-12-06,,,,,,,,['4bf58dd8d48988d151941735'],['Dining and Drinking > Restaurant > Mexican Restaurant > Taco Restaurant'],b'\x00\x00\x00\x00\x01\xc0Y\xdb#\x85@FA@4\xa0\xda<!\x18~',"{'xmin': -103.424043, 'ymin': 20.62833, 'xmax': -103.424043, 'ymax': 20.62833}",dining and drinking > restaurant > mexican restaurant > taco restaurant,1
5203b4e0498e38b610f9fb56,Birrieria Oropeza,20.809009552001953,-104.40514373779297,,,,,,,,MX,2013-08-08,2021-08-10,,,,,,,,['4bf58dd8d48988d151941735'],['Dining and Drinking > Restaurant > Mexican Restaurant > Taco Restaurant'],b'\x00\x00\x00\x00\x01\xc0Z\x19\xed\xe0\x00\x00\x00@4\xcf\x1b@\x00\x00\x00',"{'xmin': -104.40514373779297, 'ymin': 20.809009552001953, 'xmax': -104.40514373779297, 'ymax': 20.809009552001953}",dining and drinking > restaurant > mexican restaurant > taco restaurant,1
4ef6542302d5abdcba948565,Tacos La Gloria,20.677718419625585,-103.3496901407732,Hidalgo,Guadalajara,Jalisco,,,,,MX,2011-12-24,2021-08-14,,,,,,,,['4bf58dd8d48988d151941735'],['Dining and Drinking > Restaurant > Mexican Restaurant > Taco Restaurant'],b'\x00\x00\x00\x00\x01\xc0Y\xd6aR\xc1\x96\xb1@4\xad~\xf4P0N',"{'xmin': -103.3496901407732, 'ymin': 20.677718419625585, 'xmax': -103.3496901407732, 'ymax': 20.677718419625585}",dining and drinking > restaurant > mexican restaurant > taco restaurant,1
5297a78b498e5448e6c581a4,Quesadillas el Roger,20.633197784423828,-103.388916015625,,,,,,,,MX,2013-11-28,2021-08-10,,,,,,,,['4bf58dd8d48988d151941735'],['Dining and Drinking > Restaurant > Mexican Restaurant > Taco Restaurant'],b'\x00\x00\x00\x00\x01\xc0Y\xd8\xe4\x00\x00\x00\x00@4\xa2\x19@\x00\x00\x00',"{'xmin': -103.388916015625, 'ymin': 20.633197784423828, 'xmax': -103.388916015625, 'ymax': 20.633197784423828}",dining and drinking > restaurant > mexican restaurant > taco restaurant,1
578108b5498e6f91f6575af3,Tacos De Cabeza Nano,21.631699,-102.978165,,Jalpa,Zacatecas,,,,,MX,2016-07-09,2020-11-30,,,,,,,,['4bf58dd8d48988d151941735'],['Dining and Drinking > Restaurant > Mexican Restaurant > Taco Restaurant'],b'\x00\x00\x00\x00\x01\xc0Y\xbe\x9aA_E\xe1@5\xa1\xb7\x06\x91\xeay',"{'xmin': -102.978165, 'ymin': 21.631699, 'xmax': -102.978165, 'ymax': 21.631699}",dining and drinking > restaurant > mexican restaurant > taco restaurant,1
53caf9c4498e31473d232fb9,Tacos El Rodeo,20.69590922251988,-101.3434908676765,,,,,,,,MX,2014-07-19,2021-08-16,,,,,,,,['4bf58dd8d48988d151941735'],['Dining and Drinking > Restaurant > Mexican Restaurant > Taco Restaurant'],"b""\x00\x00\x00\x00\x01\xc0YU\xfb\xc1\x1e\xc9K@4\xb2'\x1bW\xb5*""","{'xmin': -101.3434908676765, 'ymin': 20.69590922251988, 'xmax': -101.3434908676765, 'ymax': 20.69590922251988}",dining and drinking > restaurant > mexican restaurant > taco restaurant,1
5d201f5f06e5220023405185,Taqueria Machetes,20.662746,-103.42059,Av Guadalupe 4740,Zapopan,Jalisco,45030,,,,MX,2019-07-06,2020-11-23,,,,,,,,['4bf58dd8d48988d151941735'],['Dining and Drinking > Restaurant > Mexican Restaurant > Taco Restaurant'],b'\x00\x00\x00\x00\x01\xc0Y\xda\xea\xf2Q\xc1\x94@4\xa9\xa9\xb8\xcb\x8e\x08',"{'xmin': -103.42059, 'ymin': 20.662746, 'xmax': -103.42059, 'ymax': 20.662746}",dining and drinking > restaurant > mexican restaurant > taco restaurant,1
e000d6b18fb74d1fe5f2f6c0,La Kanasta,21.919773,-102.309873,Sierra Hermosa 301,Aguascalientes,Aguascalientes,20130,,,,MX,2013-04-07,2023-12-06,,449 912 0103,,,,,,['5454152e498ef71e2b9132c6' '4bf58dd8d48988d151941735'],"['Business and Professional Services > Event Service'
 'Dining and Drinking > Restaurant > Mexican Restaurant > Taco Restaurant']",b'\x00\x00\x00\x00\x01\xc0Y\x93\xd4\xf5\x90:u@5\xebv>J\xbej',"{'xmin': -102.309873, 'ymin': 21.919773, 'xmax': -102.309873, 'ymax': 21.919773}","business and professional services > event service, dining and drinking > restaurant > mexican restaurant > taco restaurant",1
57d81eab498e84d8edebc2e1,Tacos Al Pastor Juan,20.675213,-103.31259,industria,Guadalajara,Jalisco,44490,,,,MX,2016-09-13,2021-08-10,,,,,,,,['4bf58dd8d48988d151941735'],['Dining and Drinking > Restaurant > Mexican Restaurant > Taco Restaurant'],b'\x00\x00\x00\x00\x01\xc0Y\xd4\x01y|\xc3\xa0@4\xac\xda\xc2X\xd5\x84',"{'xmin': -103.31259, 'ymin': 20.675213, 'xmax': -103.31259, 'ymax': 20.675213}",dining and drinking > restaurant > mexican restaurant > taco restaurant,1
4f9245b2e4b0a1eabd6c3ad6,Tacos Manolo's,19.253867480242253,-103.72987547198673,,,,,,,,MX,2012-04-21,2021-08-14,,,,,,,,['4bf58dd8d48988d151941735'],['Dining and Drinking > Restaurant > Mexican Restaurant > Taco Restaurant'],b'\x00\x00\x00\x00\x01\xc0Y\xee\xb6G\x9c\x95z@3@\xfdu\x8d(\x8d',"{'xmin': -103.72987547198673, 'ymin': 19.253867480242253, 'xmax': -103.72987547198673, 'ymax': 19.253867480242253}",dining and drinking > restaurant > mexican restaurant > taco restaurant,1
56590756498efbd1a6045f13,Tacos La Mochila,20.741249,-103.429639,,,,,,,,MX,2015-11-28,2021-08-11,,,,,,,,['4bf58dd8d48988d151941735'],['Dining and Drinking > Restaurant > Mexican Restaurant > Taco Restaurant'],b'\x00\x00\x00\x00\x01\xc0Y\xdb\x7f4\x93\x85\x83@4\xbd\xc2~\x951U',"{'xmin': -103.429639, 'ymin': 20.741249, 'xmax': -103.429639, 'ymax': 20.741249}",dining and drinking > restaurant > mexican restaurant > taco restaurant,1
5260a77711d210da89137743,Taqueria Los Gorditos,20.688213832932803,-103.29745065423367,,,,,,,,MX,2013-10-18,2021-08-11,,,,,,,,['4bf58dd8d48988d151941735'],['Dining and Drinking > Restaurant > Mexican Restaurant > Taco Restaurant'],b'\x00\x00\x00\x00\x01\xc0Y\xd3\tnx\x06\xe0@4\xb0.\xc8!\x19\xe8',"{'xmin': -103.29745065423367, 'ymin': 20.688213832932803, 'xmax': -103.29745065423367, 'ymax': 20.688213832932803}",dining and drinking > restaurant > mexican restaurant > taco restaurant,1
57d2be93498eeafc45b6677a,Tacos De Ollita La 28,20.624401,-103.37674,concepción loy,,jalisco,,,,,MX,2016-09-09,2021-08-16,,,,,,,,['4bf58dd8d48988d151941735'],['Dining and Drinking > Restaurant > Mexican Restaurant > Taco Restaurant'],b'\x00\x00\x00\x00\x01\xc0Y\xd8\x1c\x82\x16\xc6\x15@4\x9f\xd8\xber\x96\xf6',"{'xmin': -103.37674, 'ymin': 20.624401, 'xmax': -103.37674, 'ymax': 20.624401}",dining and drinking > restaurant > mexican restaurant > taco restaurant,1
56875512498ecea146edd178,Tacos de la Esquina La Paz,20.66930692897088,-103.35663334204574,Av. La Paz Y Rayón,Guadalajara,Jalisco,44160,,,,MX,2016-01-02,2021-08-13,,,,,,,,['4bf58dd8d48988d151941735'],['Dining and Drinking > Restaurant > Mexican Restaurant > Taco Restaurant'],b'\x00\x00\x00\x00\x01\xc0Y\xd6\xd3\x14\xa7/\xfa@4\xabW\xb2\xea\xea\x87',"{'xmin': -103.35663334204574, 'ymin': 20.66930692897088, 'xmax': -103.35663334204574, 'ymax': 20.66930692897088}",dining and drinking > restaurant > mexican restaurant > taco restaurant,1
5ef62a3b7d243b000807be00,Carnitas Victoria,20.623062,-103.432846,Periférico Sur 65,Zapopan,Jalisco,45236,,,,MX,2020-06-26,2020-11-22,,,,,,,,['4bf58dd8d48988d151941735'],['Dining and Drinking > Restaurant > Mexican Restaurant > Taco Restaurant'],b'\x00\x00\x00\x00\x01\xc0Y\xdb\xb3\xbf\xb5\x8d\x15@4\x9f\x80\xfd\xc1a_',"{'xmin': -103.432846, 'ymin': 20.623062, 'xmax': -103.432846, 'ymax': 20.623062}",dining and drinking > restaurant > mexican restaurant > taco restaurant,1
5658b1f8498ef675be1d21a1,Birria Tatemada La Purisima,21.88102745910973,-102.28405865666741,,,,,,,,MX,2015-11-27,2021-08-13,,,,,,,,['4bf58dd8d48988d151941735'],['Dining and Drinking > Restaurant > Mexican Restaurant > Taco Restaurant'],"b'\x00\x00\x00\x00\x01\xc0Y\x92.\x04\\""\x10@5\xe1\x8b\x03\xfb\xc1\x18'","{'xmin': -102.28405865666741, 'ymin': 21.88102745910973, 'xmax': -102.28405865666741, 'ymax': 21.88102745910973}",dining and drinking > restaurant > mexican restaurant > taco restaurant,1
5270307111d29f57a51a4353,Tacos Alex,20.636173565307914,-103.45513096342393,Manganeso,Jalisco,Zapopan,45066,,,,MX,2013-10-29,2020-11-22,,,,,,,,['4bf58dd8d48988d151941735'],['Dining and Drinking > Restaurant > Mexican Restaurant > Taco Restaurant'],b'\x00\x00\x00\x00\x01\xc0Y\xdd \xdd\x9e\xd3`@4\xa2\xdcEQ\x93\xc4',"{'xmin': -103.45513096342393, 'ymin': 20.636173565307914, 'xmax': -103.45513096342393, 'ymax': 20.636173565307914}",dining and drinking > restaurant > mexican restaurant > taco restaurant,1
5bf03b03c8b2fb002c11f06d,Tacos Alex,20.626599,-103.402665,,Tlaquepaque,JAL,45085,,,,MX,2018-11-17,2020-11-25,,,,,,,,['4bf58dd8d48988d151941735'],['Dining and Drinking > Restaurant > Mexican Restaurant > Taco Restaurant'],b'\x00\x00\x00\x00\x01\xc0Y\xd9\xc5Ck\x8f\x9b@4\xa0h\xca\xc4\xb4\xd0',"{'xmin': -103.402665, 'ymin': 20.626599, 'xmax': -103.402665, 'ymax': 20.626599}",dining and drinking > restaurant > mexican restaurant > taco restaurant,1
528cf8dd11d24687c57cf2f8,Flautas Las Flores,21.507173538208008,-104.89456176757812,,,,,,,,MX,2013-11-20,2021-08-13,,,,,,,,['4bf58dd8d48988d151941735'],['Dining and Drinking > Restaurant > Mexican Restaurant > Taco Restaurant'],b'\x00\x00\x00\x00\x01\xc0Z9@\x80\x00\x00\x00@5\x81\xd6 \x00\x00\x00',"{'xmin': -104.89456176757812, 'ymin': 21.507173538208008, 'xmax': -104.89456176757812, 'ymax': 21.507173538208008}",dining and drinking > restaurant > mexican restaurant > taco restaurant,1
4eb8a0af6c2590eb89692b03,Tacos Maury,20.627696083086153,-103.2621628864786,,,,,,,,MX,2011-11-08,2021-08-11,,,,,,,,['4bf58dd8d48988d151941735'],['Dining and Drinking > Restaurant > Mexican Restaurant > Taco Restaurant'],b'\x00\x00\x00\x00\x01\xc0Y\xd0\xc7F\xd7\xe9\xa3@4\xa0\xb0\xb0\xc4\xae\xad',"{'xmin': -103.2621628864786, 'ymin': 20.627696083086153, 'xmax': -103.2621628864786, 'ymax': 20.627696083086153}",dining and drinking > restaurant > mexican restaurant > taco restaurant,1
597cf7222ebb345c3ce04d0a,"Taquería ""El Infierno""",19.668098,-101.223341,,Zimpaneo Norte,MICH,58087,,,,MX,2017-07-29,2020-11-23,,,,,,,,['4bf58dd8d48988d151941735'],['Dining and Drinking > Restaurant > Mexican Restaurant > Taco Restaurant'],b'\x00\x00\x00\x00\x01\xc0YNK8\x0c\xb6\xc8@3\xab\x08xt\x85\xe4',"{'xmin': -101.223341, 'ymin': 19.668098, 'xmax': -101.223341, 'ymax': 19.668098}",dining and drinking > restaurant > mexican restaurant > taco restaurant,1
4cdb59aa4006a1432a25d8b2,Tacos San Cayetano,21.89679799733687,-102.30936622569618,Carlos Sagredo S/N,Aguascalientes,AGS,20010,,,,MX,2010-11-11,2020-11-24,,,,,,,,['4bf58dd8d48988d1cb941735' '4bf58dd8d48988d151941735'],"['Dining and Drinking > Food Truck'
 'Dining and Drinking > Restaurant > Mexican Restaurant > Taco Restaurant']",b'\x00\x00\x00\x00\x01\xc0Y\x93\xcc\xa7\xffv\x88@5\xe5\x94\x8d\xb5\xae\x1e',"{'xmin': -102.30936622569618, 'ymin': 21.89679799733687, 'xmax': -102.30936622569618, 'ymax': 21.89679799733687}","dining and drinking > food truck, dining and drinking > restaurant > mexican restaurant > taco restaurant",1
505e09d6e4b05434c1477140,Barbacoa El paisano,21.12791,-100.840236,,,,,,,,MX,2012-09-22,2020-11-22,,,,,,,,['4bf58dd8d48988d151941735'],['Dining and Drinking > Restaurant > Mexican Restaurant > Taco Restaurant'],b'\x00\x00\x00\x00\x01\xc0Y5\xc6m7;\x00@5 \xbe\xb5\xb2\xd4\xd4',"{'xmin': -100.840236, 'ymin': 21.12791, 'xmax': -100.840236, 'ymax': 21.12791}",dining and drinking > restaurant > mexican restaurant > taco restaurant,1
51be5cf6498e4233971ef6fd,Tacos La Plazuela,20.676741,-101.345039,,,,,,,,MX,2013-06-17,2021-08-12,,,,,,,,['4bf58dd8d48988d151941735'],['Dining and Drinking > Restaurant > Mexican Restaurant > Taco Restaurant'],b'\x00\x00\x00\x00\x01\xc0YV\x15\x1eu6\r@4\xad>\xe5\xee\xdc\xc2',"{'xmin': -101.345039, 'ymin': 20.676741, 'xmax': -101.345039, 'ymax': 20.676741}",dining and drinking > restaurant > mexican restaurant > taco restaurant,1
565f5097498eb16eac12d5d5,Taquería Hermanos Razo,20.5118488070599,-100.95254069577062,Av. del Cuartel,Villagrán,Guanajuato,38270,,,,MX,2015-12-02,2020-11-25,,,,,,,,['4bf58dd8d48988d151941735'],['Dining and Drinking > Restaurant > Mexican Restaurant > Taco Restaurant'],b'\x00\x00\x00\x00\x01\xc0Y<\xf6m@\x1ci@4\x83\x08\x85\xfe\xd1\xa2',"{'xmin': -100.95254069577062, 'ymin': 20.5118488070599, 'xmax': -100.95254069577062, 'ymax': 20.5118488070599}",dining and drinking > restaurant > mexican restaurant > taco restaurant,1
5e47491850aa720008c934b0,Taqueria Los Parientes,31.867012,-112.846019,,Sonoyta,SON,83570,,,,MX,2020-02-15,2020-11-23,,,,,,,,['4bf58dd8d48988d151941735'],['Dining and Drinking > Restaurant > Mexican Restaurant > Taco Restaurant'],"b'\x00\x00\x00\x00\x01\xc0\\6%,\xe02\xdb@?\xdd\xf4\x7f\x99=S'","{'xmin': -112.846019, 'ymin': 31.867012, 'xmax': -112.846019, 'ymax': 31.867012}",dining and drinking > restaurant > mexican restaurant > taco restaurant,1
5019deb9e4b02cb410b8f759,tacos De Tripas De La Congreso,21.145546483973124,-101.66825422157098,,,,,,,,MX,2012-08-02,2021-08-11,,,,,,,,['4bf58dd8d48988d151941735'],['Dining and Drinking > Restaurant > Mexican Restaurant > Taco Restaurant'],b'\x00\x00\x00\x00\x01\xc0Yj\xc4\xadZ\xc3\xec@5%B\x88\xcc\xb6]',"{'xmin': -101.66825422157098, 'ymin': 21.145546483973124, 'xmax': -101.66825422157098, 'ymax': 21.145546483973124}",dining and drinking > restaurant > mexican restaurant > taco restaurant,1
5f75e71bc5d82017b0768216,Carnitas San Lorenzo,21.960129,-102.33673,Av. Alejandro de la Cruz,Jesús María,Aguascalientes,20926,,,,MX,2020-10-01,2020-11-24,,,,,,,,['4bf58dd8d48988d151941735'],['Dining and Drinking > Restaurant > Mexican Restaurant > Taco Restaurant'],b'\x00\x00\x00\x00\x01\xc0Y\x95\x8c\xfb\xfceA@5\xf5\xcb\x03\x9e\xf0\xf1',"{'xmin': -102.33673, 'ymin': 21.960129, 'xmax': -102.33673, 'ymax': 21.960129}",dining and drinking > restaurant > mexican restaurant > taco restaurant,1
4f6377cee4b09612ceacbf61,Tacos y Cecina de Yecapixtla,17.53323944700067,-99.49373178806319,,Chilpancingo de Los Bravo,Guerrero,,,,,MX,2012-03-16,2020-11-24,,,,,,,,['4bf58dd8d48988d151941735'],['Dining and Drinking > Restaurant > Mexican Restaurant > Taco Restaurant'],b'\x00\x00\x00\x00\x01\xc0X\xdf\x99M6\xae\x87@1\x88\x82aa\xce\x15',"{'xmin': -99.49373178806319, 'ymin': 17.53323944700067, 'xmax': -99.49373178806319, 'ymax': 17.53323944700067}",dining and drinking > restaurant > mexican restaurant > taco restaurant,1
4edd0ece61af8a14b97d8805,El Compadre,16.912860846163827,-96.71783670961963,Gerardo Pandalf,,Oaxaca,,,,,MX,2011-12-05,2020-11-30,,,,,,,,['4bf58dd8d48988d151941735'],['Dining and Drinking > Restaurant > Mexican Restaurant > Taco Restaurant'],b'\x00\x00\x00\x00\x01\xc0X-\xf1\ta\xeb\xd0@0\xe9\xb1?\x98\x12\x91',"{'xmin': -96.71783670961963, 'ymin': 16.912860846163827, 'xmax': -96.71783670961963, 'ymax': 16.912860846163827}",dining and drinking > restaurant > mexican restaurant > taco restaurant,1
51317a57e4b0ed892f453b63,El Parrilaje,19.31163,-99.221985,,,,,,,,MX,2013-03-02,2021-08-11,,,,,,,,['4bf58dd8d48988d151941735'],['Dining and Drinking > Restaurant > Mexican Restaurant > Taco Restaurant'],b'\x00\x00\x00\x00\x01\xc0X\xce5\x00\x92\xcc\xf7@3O\xc6\xfb\xd2s\xd6',"{'xmin': -99.221985, 'ymin': 19.31163, 'xmax': -99.221985, 'ymax': 19.31163}",dining and drinking > restaurant > mexican restaurant > taco restaurant,1
51e2d33a498ec69557fe06aa,Tacos De Cecina,19.287370682790325,-99.14001858262003,Transmisiones,Tlalpan,Ciudad De México,,,,,MX,2013-07-14,2020-11-30,,,,,,,,['4bf58dd8d48988d151941735'],['Dining and Drinking > Restaurant > Mexican Restaurant > Taco Restaurant'],b'\x00\x00\x00\x00\x01\xc0X\xc8\xf6\x10\x80K\xdc@3I\x91 \x04i\xe4',"{'xmin': -99.14001858262003, 'ymin': 19.287370682790325, 'xmax': -99.14001858262003, 'ymax': 19.287370682790325}",dining and drinking > restaurant > mexican restaurant > taco restaurant,1
524da70d11d2dc93a43282e0,Dorados Morelia,19.69832698485945,-101.17818744418098,Av. Ventura Puente,Morelia,Michoacán,,,,,MX,2013-10-03,2020-11-23,,,,,,,,['4bf58dd8d48988d151941735'],['Dining and Drinking > Restaurant > Mexican Restaurant > Taco Restaurant'],b'\x00\x00\x00\x00\x01\xc0YKglOT+@3\xb2\xc5\x8e\xa9\xe2\xb8',"{'xmin': -101.17818744418098, 'ymin': 19.69832698485945, 'xmax': -101.17818744418098, 'ymax': 19.69832698485945}",dining and drinking > restaurant > mexican restaurant > taco restaurant,1
522fd3a8498e8dc39054fa72,Florecita,17.554884,-99.50461,,,,,,,,MX,2013-09-11,2021-08-14,,,,,,,,['4bf58dd8d48988d151941735'],['Dining and Drinking > Restaurant > Mexican Restaurant > Taco Restaurant'],b'\x00\x00\x00\x00\x01\xc0X\xe0K\x87\xbd\xcf\x03@1\x8e\x0c\xe0\xb9\x12\xdc',"{'xmin': -99.50461, 'ymin': 17.554884, 'xmax': -99.50461, 'ymax': 17.554884}",dining and drinking > restaurant > mexican restaurant > taco restaurant,1
5a7b35cbccad6b68adbd1c5a,Tacos De Cabeza De Res La Güera,19.421081,-102.06106,,Uruapan,MICH,60000,,,,MX,2018-02-07,2020-11-30,,,,,,,,['4bf58dd8d48988d151941735' '4bf58dd8d48988d1c1941735'],"['Dining and Drinking > Restaurant > Mexican Restaurant > Taco Restaurant'
 'Dining and Drinking > Restaurant > Mexican Restaurant']",b'\x00\x00\x00\x00\x01\xc0Y\x83\xe8h3\xc6\x00@3k\xcb\xf6\xe3\xf7\x8c',"{'xmin': -102.06106, 'ymin': 19.421081, 'xmax': -102.06106, 'ymax': 19.421081}","dining and drinking > restaurant > mexican restaurant > taco restaurant, dining and drinking > restaurant > mexican restaurant",1
5c168534a6ec98002c9b75c8,Quesadillas Y Tacos Del Don,18.960636,-99.26068,ave al bosque de tetela,Fraccionamiento Lomas de Ahuatlán,Morelos,62130,,,,MX,2018-12-16,2020-11-30,,,,,,,,['4bf58dd8d48988d151941735'],['Dining and Drinking > Restaurant > Mexican Restaurant > Taco Restaurant'],b'\x00\x00\x00\x00\x01\xc0X\xd0\xae\xfb*\xae)@2\xf5\xec=\xab\\:',"{'xmin': -99.26068, 'ymin': 18.960636, 'xmax': -99.26068, 'ymax': 18.960636}",dining and drinking > restaurant > mexican restaurant > taco restaurant,1
5e0a626bce5ff30007828852,Los Originales,19.330729,-99.210129,,Ciudad de México,CDMX,01900,,,,MX,2019-12-30,2020-11-25,,,,,,,,['4bf58dd8d48988d151941735'],['Dining and Drinking > Restaurant > Mexican Restaurant > Taco Restaurant'],b'\x00\x00\x00\x00\x01\xc0X\xcdr\xc0\xe7\xbc<@3T\xaa\xa7\xde\xd6\xbb',"{'xmin': -99.210129, 'ymin': 19.330729, 'xmax': -99.210129, 'ymax': 19.330729}",dining and drinking > restaurant > mexican restaurant > taco restaurant,1
581f493296f4b6500b928129,El Coyote Inválido - Barbacoa Estilo Hidalgo,20.567598,-103.3649,,,Jalisco,,,,,MX,2016-11-06,2020-11-21,,,,,,,,['4bf58dd8d48988d151941735'],['Dining and Drinking > Restaurant > Mexican Restaurant > Taco Restaurant'],b'\x00\x00\x00\x00\x01\xc0Y\xd7Z\x85\x87\x93\xde@4\x91N\x1a?Fg',"{'xmin': -103.3649, 'ymin': 20.567598, 'xmax': -103.3649, 'ymax': 20.567598}",dining and drinking > restaurant > mexican restaurant > taco restaurant,1
518497de498e6f6018ce06b4,Tacos Del Pelucho,19.274769462667443,-99.2124623563635,Avenida Dos,Mexico,DF Tlalpan,14240,,,,MX,2013-05-04,2020-11-22,,,,,,,,['4bf58dd8d48988d151941735'],['Dining and Drinking > Restaurant > Mexican Restaurant > Taco Restaurant'],b'\x00\x00\x00\x00\x01\xc0X\xcd\x98\xfb\xb6\r\x97@3FWJ\xa0\x18\x9e',"{'xmin': -99.2124623563635, 'ymin': 19.274769462667443, 'xmax': -99.2124623563635, 'ymax': 19.274769462667443}",dining and drinking > restaurant > mexican restaurant > taco restaurant,1
55f1e88e498e7a4cc1436214,TacoAdictos S. A,18.926159608623426,-99.23075934896289,,,,,,,,MX,2015-09-10,2021-08-15,,,,,,,,['4bf58dd8d48988d151941735'],['Dining and Drinking > Restaurant > Mexican Restaurant > Taco Restaurant'],b'\x00\x00\x00\x00\x01\xc0X\xce\xc4\xc2\xdcB\xae@2\xed\x18\xcb\xcd\xe9\xed',"{'xmin': -99.23075934896289, 'ymin': 18.926159608623426, 'xmax': -99.23075934896289, 'ymax': 18.926159608623426}",dining and drinking > restaurant > mexican restaurant > taco restaurant,1
509fe48de4b08f34f953f05b,Barbacoa Gualupita,19.283074931261282,-99.16870613892068,,,,,,,,MX,2012-11-11,2021-08-12,,,,,,,,['4bf58dd8d48988d151941735' '4bf58dd8d48988d1cb941735'],"['Dining and Drinking > Restaurant > Mexican Restaurant > Taco Restaurant'
 'Dining and Drinking > Food Truck']",b'\x00\x00\x00\x00\x01\xc0X\xca\xcc\x14\xd5S\x1f@3Hw\x99D\x15\xac',"{'xmin': -99.16870613892068, 'ymin': 19.283074931261282, 'xmax': -99.16870613892068, 'ymax': 19.283074931261282}","dining and drinking > restaurant > mexican restaurant > taco restaurant, dining and drinking > food truck",1
59b3668295da0c3b7fbd9e3a,Taqueria Don Chalo,18.365458,-95.7962,Carranza,Cosamaloapan,Veracruz,95400,,,,MX,2017-09-09,2020-11-24,,,,,,,,['4bf58dd8d48988d151941735'],['Dining and Drinking > Restaurant > Mexican Restaurant > Taco Restaurant'],b'\x00\x00\x00\x00\x01\xc0W\xf2\xf4\xf0\xd8D\xd0@2]\x8e\xa7\xce\x0f\xc3',"{'xmin': -95.7962, 'ymin': 18.365458, 'xmax': -95.7962, 'ymax': 18.365458}",dining and drinking > restaurant > mexican restaurant > taco restaurant,1
5220d09a11d21cc0749d22c2,El Lechon,19.260901,-99.602155,,,,,,,,MX,2013-08-30,2021-08-14,,,,,,,,['4bf58dd8d48988d151941735'],['Dining and Drinking > Restaurant > Mexican Restaurant > Taco Restaurant'],b'\x00\x00\x00\x00\x01\xc0X\xe6\x89\xb5 \x07\xdd@3B\xcahn~c',"{'xmin': -99.602155, 'ymin': 19.260901, 'xmax': -99.602155, 'ymax': 19.260901}",dining and drinking > restaurant > mexican restaurant > taco restaurant,1
4fa15925e4b0c5623e26ac2f,Tacos poncho,17.076399439679882,-96.7167917692569,,,,,,,,MX,2012-05-02,2021-08-15,,,,,,,,['4bf58dd8d48988d151941735'],['Dining and Drinking > Restaurant > Mexican Restaurant > Taco Restaurant'],b'\x00\x00\x00\x00\x01\xc0X-\xdf\xea\x95\xc0\x06@1\x13\x8e\xe9\xe6\xdb\x9a',"{'xmin': -96.7167917692569, 'ymin': 17.076399439679882, 'xmax': -96.7167917692569, 'ymax': 17.076399439679882}",dining and drinking > restaurant > mexican restaurant > taco restaurant,1
55135fa2498e3f14b29775a1,Taqueria San Luis,19.315023537406677,-99.22770024381673,,,,,,,,MX,2015-03-26,2021-08-15,,,,,,,,['4bf58dd8d48988d151941735'],['Dining and Drinking > Restaurant > Mexican Restaurant > Taco Restaurant'],b'\x00\x00\x00\x00\x01\xc0X\xce\x92\xa4\x0b\x1e\xfb@3P\xa5a\xee\xa1\xc5',"{'xmin': -99.22770024381673, 'ymin': 19.315023537406677, 'xmax': -99.22770024381673, 'ymax': 19.315023537406677}",dining and drinking > restaurant > mexican restaurant > taco restaurant,1
51d9ab4d498e74fac3f29d79,El Chivo Kachondo,17.540360277462177,-99.48962475119916,,,,,,,,MX,2013-07-07,2021-08-12,,,,,,,,['4bf58dd8d48988d151941735'],['Dining and Drinking > Restaurant > Mexican Restaurant > Taco Restaurant'],b'\x00\x00\x00\x00\x01\xc0X\xdfV\x03\rm\x9a@1\x8aU\r\x17\xc1\xee',"{'xmin': -99.48962475119916, 'ymin': 17.540360277462177, 'xmax': -99.48962475119916, 'ymax': 17.540360277462177}",dining and drinking > restaurant > mexican restaurant > taco restaurant,1
4ff31e93e4b0afc11545c043,Tacos Ahogados,19.73623840921579,-101.19891188342321,,,,,,,,MX,2012-07-03,2021-08-17,,,,,,,,['4bf58dd8d48988d151941735'],['Dining and Drinking > Restaurant > Mexican Restaurant > Taco Restaurant'],b'\x00\x00\x00\x00\x01\xc0YL\xba\xf8\xe8\x85\xa9@3\xbcz\x1e\xd1\xa4\x11',"{'xmin': -101.19891188342321, 'ymin': 19.73623840921579, 'xmax': -101.19891188342321, 'ymax': 19.73623840921579}",dining and drinking > restaurant > mexican restaurant > taco restaurant,1
508c0826e4b04ae58fb98afd,Tacos Técnicos y Manuales,19.31812858581543,-99.08844757080078,,,,,,,,MX,2012-10-27,2021-08-12,,,,,,,,['4bf58dd8d48988d151941735'],['Dining and Drinking > Restaurant > Mexican Restaurant > Taco Restaurant'],b'\x00\x00\x00\x00\x01\xc0X\xc5\xa9 \x00\x00\x00@3Qp\xe0\x00\x00\x00',"{'xmin': -99.08844757080078, 'ymin': 19.31812858581543, 'xmax': -99.08844757080078, 'ymax': 19.31812858581543}",dining and drinking > restaurant > mexican restaurant > taco restaurant,1
4d0d7686257d6dcb74949c67,Taquería La Gringa,19.290589789482432,-99.12070505558965,Av. La Garita 857,Ciudad de México,CDMX,14390,,,,MX,2010-12-19,2023-09-13,,55 1447 9782,,,,,,['4bf58dd8d48988d151941735'],['Dining and Drinking > Restaurant > Mexican Restaurant > Taco Restaurant'],b'\x00\x00\x00\x00\x01\xc0X\xc7\xb9\xa1\xb2\x8e\x0b@3Jd\x17\xaa`\xea',"{'xmin': -99.12070505558965, 'ymin': 19.290589789482432, 'xmax': -99.12070505558965, 'ymax': 19.290589789482432}",dining and drinking > restaurant > mexican restaurant > taco restaurant,1
5994d7c18c35dc4d295b7f8d,Copacabanito,19.32963236304635,-99.12911067740725,,Ciudad de México,Ciudad de México,04470,,,,MX,2017-08-16,2020-11-30,,,,,,,,['4bf58dd8d48988d151941735'],['Dining and Drinking > Restaurant > Mexican Restaurant > Taco Restaurant'],b'\x00\x00\x00\x00\x01\xc0X\xc8CYnA\xd4@3Tb\xc9Z\xfc\xbe',"{'xmin': -99.12911067740725, 'ymin': 19.32963236304635, 'xmax': -99.12911067740725, 'ymax': 19.32963236304635}",dining and drinking > restaurant > mexican restaurant > taco restaurant,1
50f05d07e4b0b8da61ad6ac8,Taqueria Sugar,18.1592532267299,-95.18384450885043,,,,,,,,MX,2013-01-11,2021-08-16,,,,,,,,['4bf58dd8d48988d151941735'],['Dining and Drinking > Restaurant > Mexican Restaurant > Taco Restaurant'],b'\x00\x00\x00\x00\x01\xc0W\xcb\xc4\x1b\xc2C\xf4@2(\xc4\xd1\xc8\x96_',"{'xmin': -95.18384450885043, 'ymin': 18.1592532267299, 'xmax': -95.18384450885043, 'ymax': 18.1592532267299}",dining and drinking > restaurant > mexican restaurant > taco restaurant,1
4f0f9b04e4b019e98f550ed2,TACOS el compadre,19.28922719834343,-99.0369057206935,,,,,,,,MX,2012-01-13,2021-08-16,,,,,,,,['4bf58dd8d48988d151941735'],['Dining and Drinking > Restaurant > Mexican Restaurant > Taco Restaurant'],b'\x00\x00\x00\x00\x01\xc0X\xc2\\\xa9\xcf\xda}@3J\n\xcb-\xff\xad',"{'xmin': -99.0369057206935, 'ymin': 19.28922719834343, 'xmax': -99.0369057206935, 'ymax': 19.28922719834343}",dining and drinking > restaurant > mexican restaurant > taco restaurant,1
5660e651498ec6e76bec9dcb,Taquitos de la esquina,16.867379054059164,-99.91412195701413,Calle Diez,Acapulco,Guerrero,39550,,,,MX,2015-12-04,2020-11-30,,,,,,,,['4bf58dd8d48988d151941735'],['Dining and Drinking > Restaurant > Mexican Restaurant > Taco Restaurant'],b'\x00\x00\x00\x00\x01\xc0X\xfa\x80\xf9a{\x99@0\xde\x0c\x8d\xbekf',"{'xmin': -99.91412195701413, 'ymin': 16.867379054059164, 'xmax': -99.91412195701413, 'ymax': 16.867379054059164}",dining and drinking > restaurant > mexican restaurant > taco restaurant,1
4f9dfb27e4b0606430b9f12f,Super Taco,19.703361910022206,-101.17061429826794,Alfareros de Capula # 460,Morelia,,58230,,,,MX,2012-04-30,2020-11-22,,,,,,,,['4bf58dd8d48988d151941735'],['Dining and Drinking > Restaurant > Mexican Restaurant > Taco Restaurant'],"b""\x00\x00\x00\x00\x01\xc0YJ\xebX;\xd2\x9c@3\xb4\x0f\x86\xb0\xcc'""","{'xmin': -101.17061429826794, 'ymin': 19.703361910022206, 'xmax': -101.17061429826794, 'ymax': 19.703361910022206}",dining and drinking > restaurant > mexican restaurant > taco restaurant,1
667db17932620e6b4cecacab,El Ranchero Tacos De Barbacoa,20.476854,-103.451588,,Tlajomulco de Zúñiga,Jal.,45640,,,,MX,2024-06-27,2024-06-27,,,,,,,,['4bf58dd8d48988d151941735'],['Dining and Drinking > Restaurant > Mexican Restaurant > Taco Restaurant'],b'\x00\x00\x00\x00\x01\xc0Y\xdc\xe6\xd1Z\xd1\x07@4z\x13\x1a\x8e\xf7\x7f',"{'xmin': -103.451588, 'ymin': 20.476854, 'xmax': -103.451588, 'ymax': 20.476854}",dining and drinking > restaurant > mexican restaurant > taco restaurant,1
52a09b76498e6b6aa199d686,TACOS LOS CUÑADOS DE WALMART,19.292613197107418,-99.12461757659912,ACOXPA,,,,,,,MX,2013-12-05,2021-08-16,,,,,,,,['4bf58dd8d48988d151941735'],['Dining and Drinking > Restaurant > Mexican Restaurant > Taco Restaurant'],b'\x00\x00\x00\x00\x01\xc0X\xc7\xf9\xbc\x00\x00\x00@3J\xe8\xb2\xcf\xf4Q',"{'xmin': -99.12461757659912, 'ymin': 19.292613197107418, 'xmax': -99.12461757659912, 'ymax': 19.292613197107418}",dining and drinking > restaurant > mexican restaurant > taco restaurant,1
5cecaad0d807ee002cd23345,Baco's,19.27471,-99.16813,,Ciudad de México,Ciudad de México,14630,,,,MX,2019-05-28,2020-11-25,,,,,,,,['4bf58dd8d48988d151941735'],['Dining and Drinking > Restaurant > Mexican Restaurant > Taco Restaurant'],b'\x00\x00\x00\x00\x01\xc0X\xca\xc2\xa4T\xde\x7f@3FSe\x01\xe2X',"{'xmin': -99.16813, 'ymin': 19.27471, 'xmax': -99.16813, 'ymax': 19.27471}",dining and drinking > restaurant > mexican restaurant > taco restaurant,1
54777316498e955cf933bcdf,Tacontodo,19.697323747435284,-103.47710235595001,Tianguis,,,,,,,MX,2014-11-27,2021-08-12,,,,,,,,['4bf58dd8d48988d151941735'],['Dining and Drinking > Restaurant > Mexican Restaurant > Taco Restaurant'],b'\x00\x00\x00\x00\x01\xc0Y\xde\x88\xd8Q\xe9\x97@3\xb2\x83\xcf!\xf5n',"{'xmin': -103.47710235595001, 'ymin': 19.697323747435284, 'xmax': -103.47710235595001, 'ymax': 19.697323747435284}",dining and drinking > restaurant > mexican restaurant > taco restaurant,1
50bb7fcfe4b071d5312fb57c,"Carnitas ""El Redy""",19.220287,-99.201036,,,,,,,,MX,2012-12-02,2021-08-17,,,,,,,,['4bf58dd8d48988d151941735'],['Dining and Drinking > Restaurant > Mexican Restaurant > Taco Restaurant'],b'\x00\x00\x00\x00\x01\xc0X\xcc\xdd\xc6\x19Te@38d\xba\x94\xbb\xe4',"{'xmin': -99.201036, 'ymin': 19.220287, 'xmax': -99.201036, 'ymax': 19.220287}",dining and drinking > restaurant > mexican restaurant > taco restaurant,1
54bd69c8498eec46cfc74cb5,lerdo retro food,19.20088,-96.13792,,,,,,,,MX,2015-01-19,2021-08-12,,,,,,,,['4bf58dd8d48988d151941735'],['Dining and Drinking > Restaurant > Mexican Restaurant > Taco Restaurant'],b'\x00\x00\x00\x00\x01\xc0X\x08\xd3\xaeh]\xb7@33l\xdf&k\xa5',"{'xmin': -96.13792, 'ymin': 19.20088, 'xmax': -96.13792, 'ymax': 19.20088}",dining and drinking > restaurant > mexican restaurant > taco restaurant,1
4e3437ec1f6efba2411f8538,El Chivo De Oro,19.160266170545572,-96.13875147479499,,Veracruz,Veracruz-Llave,,,,,MX,2011-07-30,2020-11-24,,,,,,,,['4bf58dd8d48988d151941735'],['Dining and Drinking > Restaurant > Mexican Restaurant > Taco Restaurant'],b'\x00\x00\x00\x00\x01\xc0X\x08\xe1M\xdd\xa1\n@3)\x074)%\xfd',"{'xmin': -96.13875147479499, 'ymin': 19.160266170545572, 'xmax': -96.13875147479499, 'ymax': 19.160266170545572}",dining and drinking > restaurant > mexican restaurant > taco restaurant,1
50936223e4b0147d2ca079b8,Taquería El Gallo,18.936104,-99.200537,,,,,,,,MX,2012-11-02,2021-08-15,,,,,,,,['4bf58dd8d48988d151941735'],['Dining and Drinking > Restaurant > Mexican Restaurant > Taco Restaurant'],b'\x00\x00\x00\x00\x01\xc0X\xcc\xd5\x99$(\xd4@2\xef\xa4\x83\x01\xa7\xa0',"{'xmin': -99.200537, 'ymin': 18.936104, 'xmax': -99.200537, 'ymax': 18.936104}",dining and drinking > restaurant > mexican restaurant > taco restaurant,1
4d9b42563f785481f626dcd1,Carnitas Los Paisas,19.29472458768148,-99.64178328083007,Isidro Fabela,Toluca de Lerdo,MEX,,,,,MX,2011-04-05,2020-11-23,,,,,,,,['4bf58dd8d48988d151941735' '4bf58dd8d48988d1c1941735'],"['Dining and Drinking > Restaurant > Mexican Restaurant > Taco Restaurant'
 'Dining and Drinking > Restaurant > Mexican Restaurant']",b'\x00\x00\x00\x00\x01\xc0X\xe9\x12\xfa.\x929@3Ks\x12\x11kF',"{'xmin': -99.64178328083007, 'ymin': 19.29472458768148, 'xmax': -99.64178328083007, 'ymax': 19.29472458768148}","dining and drinking > restaurant > mexican restaurant > taco restaurant, dining and drinking > restaurant > mexican restaurant",1
4f348f68e4b0b80ede522e10,"Tacos ""La Güera""",19.276556715387112,-99.6720716127694,,,,,,,,MX,2012-02-10,2021-08-15,,,,,,,,['4bf58dd8d48988d151941735'],['Dining and Drinking > Restaurant > Mexican Restaurant > Taco Restaurant'],b'\x00\x00\x00\x00\x01\xc0X\xeb\x038\xa7Z\x88@3F\xcck\xc0\x13\xab',"{'xmin': -99.6720716127694, 'ymin': 19.276556715387112, 'xmax': -99.6720716127694, 'ymax': 19.276556715387112}",dining and drinking > restaurant > mexican restaurant > taco restaurant,1
4f1c4185e4b03543a221dc64,Carnitas El Indio,19.19894740477031,-100.13174248884567,Ave Benito Juárez,Valle de Bravo,México,51200,,,,MX,2012-01-22,2020-11-23,,,,,,,,['4bf58dd8d48988d151941735'],['Dining and Drinking > Restaurant > Mexican Restaurant > Taco Restaurant'],b'\x00\x00\x00\x00\x01\xc0Y\x08nx\x0cE~@32\xee7\x95\x1c\xd0',"{'xmin': -100.13174248884567, 'ymin': 19.19894740477031, 'xmax': -100.13174248884567, 'ymax': 19.19894740477031}",dining and drinking > restaurant > mexican restaurant > taco restaurant,1
4e77694faeb780be0b146c34,"Taquería ""Santos""",18.944351449640166,-99.19949127765325,,Cuernavaca,Morelos,,,,,MX,2011-09-19,2020-11-22,,,,,,,,['4bf58dd8d48988d151941735'],['Dining and Drinking > Restaurant > Mexican Restaurant > Taco Restaurant'],"b'\x00\x00\x00\x00\x01\xc0X\xcc\xc4w\x10V\xe9@2\xf1\xc1\x04@""|'","{'xmin': -99.19949127765325, 'ymin': 18.944351449640166, 'xmax': -99.19949127765325, 'ymax': 18.944351449640166}",dining and drinking > restaurant > mexican restaurant > taco restaurant,1
5382a505498efeb5b3d37f9b,"Tacos ""La cachetes""",15.135672250551494,-92.46109303700071,,Huixtla,,,,,,MX,2014-05-26,2020-11-30,,,,,,,,['4bf58dd8d48988d151941735'],['Dining and Drinking > Restaurant > Mexican Restaurant > Taco Restaurant'],b'\x00\x00\x00\x00\x01\xc0W\x1d\x82\x8c^\x955@.Ev\xd5N/\xd0',"{'xmin': -92.46109303700071, 'ymin': 15.135672250551494, 'xmax': -92.46109303700071, 'ymax': 15.135672250551494}",dining and drinking > restaurant > mexican restaurant > taco restaurant,1
4c4c609bbad7a59313172aad,Tacos El Jefe,19.278476844312973,-99.57468927738307,Av Solidaridad Las Torres,Metepec,México,,,,,MX,2010-07-25,2020-11-24,,,,,,,,['4bf58dd8d48988d151941735' '4bf58dd8d48988d107941735'],"['Dining and Drinking > Restaurant > Mexican Restaurant > Taco Restaurant'
 'Dining and Drinking > Restaurant > Latin American Restaurant > South American Restaurant > Argentinian Restaurant']",b'\x00\x00\x00\x00\x01\xc0X\xe4\xc7\xb5\x88\xee8@3GJB+\x04{',"{'xmin': -99.57468927738307, 'ymin': 19.278476844312973, 'xmax': -99.57468927738307, 'ymax': 19.278476844312973}","dining and drinking > restaurant > mexican restaurant > taco restaurant, dining and drinking > restaurant > latin american restaurant > south american restaurant > argentinian restaurant",1
4f9d8865e4b020e6108d8d07,Carnitas Manriquez,19.874070431088732,-100.9405996852984,,,,,,,,MX,2012-04-29,2020-11-25,,,,,,,,['4bf58dd8d48988d151941735' '4bf58dd8d48988d1c1941735'],"['Dining and Drinking > Restaurant > Mexican Restaurant > Taco Restaurant'
 'Dining and Drinking > Restaurant > Mexican Restaurant']",b'\x00\x00\x00\x00\x01\xc0Y<2\xc9\x05\xbf\x02@3\xdf\xc3\x14k\xed>',"{'xmin': -100.9405996852984, 'ymin': 19.874070431088732, 'xmax': -100.9405996852984, 'ymax': 19.874070431088732}","dining and drinking > restaurant > mexican restaurant > taco restaurant, dining and drinking > restaurant > mexican restaurant",1
