fsq_place_id,name,latitude,longitude,address,locality,region,postcode,admin_region,post_town,po_box,country,date_created,date_refreshed,date_closed,tel,website,email,facebook_id,instagram,twitter,fsq_category_ids,fsq_category_labels,geom,bbox,labels_str,taco_restaurant
4eee60b29a52993fb854f2a2,Tacos Brother's,32.64093357877173,-115.48419406303529,,,,,,,,MX,2011-12-18,2024-04-10,,686 558 3413,http://www.mismenus.com/brothers,,249644291732562.0,,,['4bf58dd8d48988d151941735'],['Dining and Drinking > Restaurant > Mexican Restaurant > Taco Restaurant'],b'\x00\x00\x00\x00\x01\xc0\\\xde\xfd\t\x18i\xda@@R\n\x1c\x8b\xdd\xcd',"{'xmin': -115.48419406303529, 'ymin': 32.64093357877173, 'xmax': -115.48419406303529, 'ymax': 32.64093357877173}",dining and drinking > restaurant > mexican restaurant > taco restaurant,1
5a12ef03bfc6d02beab3f198,Puesto De Carnitas,32.543987,-116.929776,,Tijuana,BC,22435,,,,MX,2017-11-20,2020-11-25,,,,,,,,['4bf58dd8d48988d151941735'],['Dining and Drinking > Restaurant > Mexican Restaurant > Taco Restaurant'],b'\x00\x00\x00\x00\x01\xc0];\x81s2&\xc4@@E\xa1]\xb39~',"{'xmin': -116.929776, 'ymin': 32.543987, 'xmax': -116.929776, 'ymax': 32.543987}",dining and drinking > restaurant > mexican restaurant > taco restaurant,1
4ee3c8e39911944900715df7,Tacos de Cabeza Javi,32.643925985483165,-115.43199997011817,Río culiacán,Mexicali,B.C.,,,,,MX,2011-12-10,2020-11-22,,,,,,,,['4bf58dd8d48988d151941735'],['Dining and Drinking > Restaurant > Mexican Restaurant > Taco Restaurant'],b'\x00\x00\x00\x00\x01\xc0\\\xdb\xa5\xe33\xe1\xf4@@Rl*\xacX\xee',"{'xmin': -115.43199997011817, 'ymin': 32.643925985483165, 'xmax': -115.43199997011817, 'ymax': 32.643925985483165}",dining and drinking > restaurant > mexican restaurant > taco restaurant,1
5116a637e4b06e75de6b8f7b,Tacos chary,31.829571294349726,-116.6011079949286,,,,,,,,MX,2013-02-09,2021-08-14,,,,,,,,['4bf58dd8d48988d151941735'],['Dining and Drinking > Restaurant > Mexican Restaurant > Taco Restaurant'],b'\x00\x00\x00\x00\x01\xc0]&x\x8d\xaa\xe5G@?\xd4^\xc8\xca\xee\xb6',"{'xmin': -116.6011079949286, 'ymin': 31.829571294349726, 'xmax': -116.6011079949286, 'ymax': 31.829571294349726}",dining and drinking > restaurant > mexican restaurant > taco restaurant,1
615f40896a4d0c583ec4de41,Taqueria Sr. Poblano,31.864165,-116.62823,475 Calle Primera,Ensenada,BC,22810,,,,MX,2021-10-07,2021-10-07,,,,,,,,['4bf58dd8d48988d151941735'],['Dining and Drinking > Restaurant > Mexican Restaurant > Taco Restaurant'],b'\x00\x00\x00\x00\x01\xc0](4\xeb\x9a\x17n@?\xdd9\xea\xddY\x0c',"{'xmin': -116.62823, 'ymin': 31.864165, 'xmax': -116.62823, 'ymax': 31.864165}",dining and drinking > restaurant > mexican restaurant > taco restaurant,1
4e8d1c750aaf409343d48dba,Tacos El Poblano,32.510678,-116.85843,,Tijuana,Baja California,,,,,MX,2011-10-06,2020-11-26,,,,,,,,['4bf58dd8d48988d151941735'],['Dining and Drinking > Restaurant > Mexican Restaurant > Taco Restaurant'],b'\x00\x00\x00\x00\x01\xc0]6\xf0\x84a\xf9\xf0@@A]\xe5\x8ed\xb2',"{'xmin': -116.85843, 'ymin': 32.510678, 'xmax': -116.85843, 'ymax': 32.510678}",dining and drinking > restaurant > mexican restaurant > taco restaurant,1
4ef437dc2c5b6efc36d2fdea,El Franc,32.54067,-117.02789,,,,,,,,MX,2011-12-23,2021-08-14,,,,,,,,['4bf58dd8d48988d151941735'],['Dining and Drinking > Restaurant > Mexican Restaurant > Taco Restaurant'],b'\x00\x00\x00\x00\x01\xc0]A\xc8\xf3#x\xab@@E4\xac\xaf\xf6\xd3',"{'xmin': -117.02789, 'ymin': 32.54067, 'xmax': -117.02789, 'ymax': 32.54067}",dining and drinking > restaurant > mexican restaurant > taco restaurant,1
5924f45e9e3b650ebf0f57ec,Taquería Delante,31.852791,-116.593857,,Ensenada,BC,22880,,,,MX,2017-05-24,2020-11-26,,,,,,,,['4bf58dd8d48988d151941735'],['Dining and Drinking > Restaurant > Mexican Restaurant > Taco Restaurant'],b'\x00\x00\x00\x00\x01\xc0]&\x01\xc0\xca`\x0b@?\xdaP\x82\xcfR\xb9',"{'xmin': -116.593857, 'ymin': 31.852791, 'xmax': -116.593857, 'ymax': 31.852791}",dining and drinking > restaurant > mexican restaurant > taco restaurant,1
4eeffb5377c8053fbc706f15,Tacos El Paisano,32.519392821010285,-117.02065424942029,,,,,,,,MX,2011-12-20,2021-08-12,,,,,,,,['4bf58dd8d48988d151941735'],['Dining and Drinking > Restaurant > Mexican Restaurant > Taco Restaurant'],b'\x00\x00\x00\x00\x01\xc0]ARf3r&@@B{v\xc6\x02\x18',"{'xmin': -117.02065424942029, 'ymin': 32.519392821010285, 'xmax': -117.02065424942029, 'ymax': 32.519392821010285}",dining and drinking > restaurant > mexican restaurant > taco restaurant,1
51fdcf87498e098ec715acb9,Tacos Lisette,32.47224,-116.79084,,,,,,,,MX,2013-08-04,2020-11-23,,,,,,,,['4bf58dd8d48988d151941735'],['Dining and Drinking > Restaurant > Mexican Restaurant > Taco Restaurant'],b'\x00\x00\x00\x00\x01\xc0]2\x9d\x1f`\x17\x98@@<r\\=\xeex',"{'xmin': -116.79084, 'ymin': 32.47224, 'xmax': -116.79084, 'ymax': 32.47224}",dining and drinking > restaurant > mexican restaurant > taco restaurant,1
52b9e247498e6ac734e3052f,Asadero El Hijo Del Campas 2,32.45065511356796,-114.73838343729399,Tamaulipas,San Luis Rio Colorado,Sonora,83400,,,,MX,2013-12-24,2020-11-24,,,,,,,,['4bf58dd8d48988d151941735'],['Dining and Drinking > Restaurant > Mexican Restaurant > Taco Restaurant'],b'\x00\x00\x00\x00\x01\xc0\\\xafA\xac\x9a\xc5}@@9\xaf\x11\x17FX',"{'xmin': -114.73838343729399, 'ymin': 32.45065511356796, 'xmax': -114.73838343729399, 'ymax': 32.45065511356796}",dining and drinking > restaurant > mexican restaurant > taco restaurant,1
023306da17df40c9fcbb0828,Tacos de Guisado los Buenos,31.849731,-116.585284,Andador 3 13,Ensenada,Baja California,22898,,,,MX,2013-04-07,2023-12-06,,646 172 2772,,,,,,"['5454152e498ef71e2b9132c6' '4bf58dd8d48988d151941735'
 '4bf58dd8d48988d1f9941735']","['Business and Professional Services > Event Service'
 'Dining and Drinking > Restaurant > Mexican Restaurant > Taco Restaurant'
 'Retail > Food and Beverage Retail']",b'\x00\x00\x00\x00\x01\xc0]%uK\x05\xb7\xd0@?\xd9\x87\xf8\x87e\xba',"{'xmin': -116.585284, 'ymin': 31.849731, 'xmax': -116.585284, 'ymax': 31.849731}","business and professional services > event service, dining and drinking > restaurant > mexican restaurant > taco restaurant, retail > food and beverage retail",1
58cb629dd2433251d93cdb9c,Arrabal,32.527552,-117.023241,Plaza del Zapato,,,,,,,MX,2017-03-17,2021-08-11,,,,,,,,['4bf58dd8d48988d151941735'],['Dining and Drinking > Restaurant > Mexican Restaurant > Taco Restaurant'],b'\x00\x00\x00\x00\x01\xc0]A|\xc7\xd1\xbbI@@C\x86\xd2\xedx>',"{'xmin': -117.023241, 'ymin': 32.527552, 'xmax': -117.023241, 'ymax': 32.527552}",dining and drinking > restaurant > mexican restaurant > taco restaurant,1
567b05a6498e639d168d1e29,Birria Don Goyo,32.546087,-116.933487,,,,,,,,MX,2015-12-23,2021-08-15,,,,,,,,['4bf58dd8d48988d151941735'],['Dining and Drinking > Restaurant > Mexican Restaurant > Taco Restaurant'],b'\x00\x00\x00\x00\x01\xc0];\xbe@B\x0fo@@E\xe6-\xc6\xe2\xa8',"{'xmin': -116.933487, 'ymin': 32.546087, 'xmax': -116.933487, 'ymax': 32.546087}",dining and drinking > restaurant > mexican restaurant > taco restaurant,1
e49188e1eb9b4639f4ed70ba,Maru -restaurante Tacos,31.627448,-116.524789,Cuarta 1030,Ensenada,Baja California,22760,,,,MX,2013-06-15,2023-12-08,,646 178 2811,,,,,,['4bf58dd8d48988d151941735'],['Dining and Drinking > Restaurant > Mexican Restaurant > Taco Restaurant'],b'\x00\x00\x00\x00\x01\xc0]!\x96$\x9a\x13<@?\xa0\xa0n\x9f\xf0\xcc',"{'xmin': -116.524789, 'ymin': 31.627448, 'xmax': -116.524789, 'ymax': 31.627448}",dining and drinking > restaurant > mexican restaurant > taco restaurant,1
543da1cd498e65a9a149cd88,Tacos el rey,31.86150547296751,-116.59596651792526,cortez,Ensenada,baja california,22880,,,,MX,2014-10-14,2020-11-24,,646 203 9368,,,,,,['4bf58dd8d48988d151941735'],['Dining and Drinking > Restaurant > Mexican Restaurant > Taco Restaurant'],b'\x00\x00\x00\x00\x01\xc0]&$P\xc0\x00\x00@?\xdc\x8b\x9fg\xb8q',"{'xmin': -116.59596651792526, 'ymin': 31.86150547296751, 'xmax': -116.59596651792526, 'ymax': 31.86150547296751}",dining and drinking > restaurant > mexican restaurant > taco restaurant,1
5002bfd3e4b0d5040ef8e844,Asadero el torito,32.62336585431961,-115.47102729240632,Anahuac,,,,,,,MX,2012-07-15,2021-08-16,,,,,,,,['4bf58dd8d48988d151941735'],['Dining and Drinking > Restaurant > Mexican Restaurant > Taco Restaurant'],b'\x00\x00\x00\x00\x01\xc0\\\xde%O\xa8\x1a&@@O\xcas\xca\xdfw',"{'xmin': -115.47102729240632, 'ymin': 32.62336585431961, 'xmax': -115.47102729240632, 'ymax': 32.62336585431961}",dining and drinking > restaurant > mexican restaurant > taco restaurant,1
50fb9e6ee4b06b7fe29d1f57,tacos ivan,32.60480880737305,-115.47418975830078,,,,,,,,MX,2013-01-20,2021-08-11,,,,,,,,['4bf58dd8d48988d151941735'],['Dining and Drinking > Restaurant > Mexican Restaurant > Taco Restaurant'],b'\x00\x00\x00\x00\x01\xc0\\\xdeY \x00\x00\x00@@Mj`\x00\x00\x00',"{'xmin': -115.47418975830078, 'ymin': 32.60480880737305, 'xmax': -115.47418975830078, 'ymax': 32.60480880737305}",dining and drinking > restaurant > mexican restaurant > taco restaurant,1
4d622c14149637044e36fb94,Tacos El Güero,32.63917916559476,-115.43276278028394,Independencia S,Mexicali,BC,,,,,MX,2011-02-21,2023-12-19,,686 140 6632,,,,,,['4bf58dd8d48988d151941735'],['Dining and Drinking > Restaurant > Mexican Restaurant > Taco Restaurant'],b'\x00\x00\x00\x00\x01\xc0\\\xdb\xb2b\xa9\x0f\xb7@@Q\xd0\x9fvA\xcd',"{'xmin': -115.43276278028394, 'ymin': 32.63917916559476, 'xmax': -115.43276278028394, 'ymax': 32.63917916559476}",dining and drinking > restaurant > mexican restaurant > taco restaurant,1
5a14f22069e77b5744dfcf22,Birria El Güero,32.496696,-116.9529,Santa Elena 9,Tijuana,Baja California,22600,,,,MX,2017-11-22,2020-11-22,,,,,,,,['4bf58dd8d48988d151941735'],['Dining and Drinking > Restaurant > Mexican Restaurant > Taco Restaurant'],b'\x00\x00\x00\x00\x01\xc0]<\xfcPH\x16\xf0@@?\x93\xbc\n\x06\xea',"{'xmin': -116.9529, 'ymin': 32.496696, 'xmax': -116.9529, 'ymax': 32.496696}",dining and drinking > restaurant > mexican restaurant > taco restaurant,1
4cd228709d87224bb0375f3b,Taqueria Guanajuato,32.53658846736926,-117.05102741718291,Arias Bernal 570,Tijuana,,22000,,,,MX,2010-11-04,2023-12-21,,664 113 9530,,,,,,['4bf58dd8d48988d151941735'],['Dining and Drinking > Restaurant > Mexican Restaurant > Taco Restaurant'],b'\x00\x00\x00\x00\x01\xc0]CD\x08\x7f\xff\xff@@D\xae\xeeOa\x81',"{'xmin': -117.05102741718291, 'ymin': 32.53658846736926, 'xmax': -117.05102741718291, 'ymax': 32.53658846736926}",dining and drinking > restaurant > mexican restaurant > taco restaurant,1
5468083e498e524c1661ba36,Tacos Doña Mago,21.333131,-104.587133,Av. Juárez S/N (Plaza principal),Santa María Del Oro,Nayarit,,,,,MX,2014-11-16,2020-11-22,,,,,,,,['4bf58dd8d48988d151941735'],['Dining and Drinking > Restaurant > Mexican Restaurant > Taco Restaurant'],b'\x00\x00\x00\x00\x01\xc0Z%\x93\x96JY\xc0@5UH\x12\xbeH\xa6',"{'xmin': -104.587133, 'ymin': 21.333131, 'xmax': -104.587133, 'ymax': 21.333131}",dining and drinking > restaurant > mexican restaurant > taco restaurant,1
517351c3e4b041839965c4c8,Tacos Laura,19.134306,-104.343237,,Manzanillo,COL,,,,,MX,2013-04-21,2020-11-22,,,,,,,,['4bf58dd8d48988d151941735'],['Dining and Drinking > Restaurant > Mexican Restaurant > Taco Restaurant'],"b'\x00\x00\x00\x00\x01\xc0Z\x15\xf7\x98Rq\xbd@3""a\xe0\xc5\xa8\x15'","{'xmin': -104.343237, 'ymin': 19.134306, 'xmax': -104.343237, 'ymax': 19.134306}",dining and drinking > restaurant > mexican restaurant > taco restaurant,1
57117988498eaa8b75306c4b,"taqueria ""Mixe""",20.513723,-100.812204,,,,,,,,MX,2016-04-15,2021-08-16,,,,,,,,['4bf58dd8d48988d151941735'],['Dining and Drinking > Restaurant > Mexican Restaurant > Taco Restaurant'],b'\x00\x00\x00\x00\x01\xc0Y3\xfb&|k\x8b@4\x83\x83Y\xbc3\xf8',"{'xmin': -100.812204, 'ymin': 20.513723, 'xmax': -100.812204, 'ymax': 20.513723}",dining and drinking > restaurant > mexican restaurant > taco restaurant,1
4cf2bb9f88de370489df7a2b,El Taco Shop!,20.634149775069886,-103.42692375183105,Araceli Souza 5478-A,Zapopan,Jalisco,,,,,MX,2010-11-28,2020-11-23,,,,,,,,['4bf58dd8d48988d151941735'],['Dining and Drinking > Restaurant > Mexican Restaurant > Taco Restaurant'],b'\x00\x00\x00\x00\x01\xc0Y\xdbR\xb8\x00\x00\x00@4\xa2W\xa3\xc0\xb0\xe0',"{'xmin': -103.42692375183105, 'ymin': 20.634149775069886, 'xmax': -103.42692375183105, 'ymax': 20.634149775069886}",dining and drinking > restaurant > mexican restaurant > taco restaurant,1
4dcaac1bae607b31c0c60505,Tacos juan,20.677675,-103.360138,,Guadalajara,Jalisco,,,,,MX,2011-05-11,2021-08-12,,,,,,,,['4bf58dd8d48988d151941735'],['Dining and Drinking > Restaurant > Mexican Restaurant > Taco Restaurant'],b'\x00\x00\x00\x00\x01\xc0Y\xd7\x0c\x80A\x03\x00@4\xad|\x1b\xdaQ\x1a',"{'xmin': -103.360138, 'ymin': 20.677675, 'xmax': -103.360138, 'ymax': 20.677675}",dining and drinking > restaurant > mexican restaurant > taco restaurant,1
4f3c7ae6e4b00d955e728f2d,Tacos JM,20.721604776947476,-105.26951368138045,,,,,,,,MX,2012-02-16,2021-08-21,,,,,,,,['4bf58dd8d48988d151941735'],['Dining and Drinking > Restaurant > Mexican Restaurant > Taco Restaurant'],b'\x00\x00\x00\x00\x01\xc0ZQ?\xb6O\xd6\xa1@4\xb8\xbb\x175\xa0u',"{'xmin': -105.26951368138045, 'ymin': 20.721604776947476, 'xmax': -105.26951368138045, 'ymax': 20.721604776947476}",dining and drinking > restaurant > mexican restaurant > taco restaurant,1
5033c19ee4b09f23f13ffe63,"Super Tacos ""Los Socios""",20.678274504454645,-103.34338462141054,,Guadalajara,,,,,,MX,2012-08-21,2021-08-13,,,,,,,,['4bf58dd8d48988d151941735'],['Dining and Drinking > Restaurant > Mexican Restaurant > Taco Restaurant'],b'\x00\x00\x00\x00\x01\xc0Y\xd5\xfa\x03}\xba\x16@4\xad\xa3e\xdeW\xe3',"{'xmin': -103.34338462141054, 'ymin': 20.678274504454645, 'xmax': -103.34338462141054, 'ymax': 20.678274504454645}",dining and drinking > restaurant > mexican restaurant > taco restaurant,1
52d93ff9498ef31bfa5dcc06,Gorditas los portales,20.636727396866075,-103.32553572215203,,,,,,,,MX,2014-01-17,2021-08-13,,,,,,,,['4bf58dd8d48988d151941735'],['Dining and Drinking > Restaurant > Mexican Restaurant > Taco Restaurant'],b'\x00\x00\x00\x00\x01\xc0Y\xd4\xd5\x93\xc8\x14\xa7@4\xa3\x00\x91\x12\x01\xcb',"{'xmin': -103.32553572215203, 'ymin': 20.636727396866075, 'xmax': -103.32553572215203, 'ymax': 20.636727396866075}",dining and drinking > restaurant > mexican restaurant > taco restaurant,1
4fda1669e4b0b95600d0e254,Tacos Juve,20.522099416641993,-100.8123105656079,Calzada Independencia,Celaya,Gto,,,,,MX,2012-06-14,2020-11-23,,,,,,,,"['4bf58dd8d48988d151941735' '4bf58dd8d48988d16e941735'
 '4bf58dd8d48988d1f9941735']","['Dining and Drinking > Restaurant > Mexican Restaurant > Taco Restaurant'
 'Dining and Drinking > Restaurant > Fast Food Restaurant'
 'Retail > Food and Beverage Retail']",b'\x00\x00\x00\x00\x01\xc0Y3\xfc\xe5t^\xcc@4\x85\xa8N\xaf\xbc\xf0',"{'xmin': -100.8123105656079, 'ymin': 20.522099416641993, 'xmax': -100.8123105656079, 'ymax': 20.522099416641993}","dining and drinking > restaurant > mexican restaurant > taco restaurant, dining and drinking > restaurant > fast food restaurant, retail > food and beverage retail",1
4f4ffddfe4b0fb02d2c1ebeb,Taquería Trejo,21.1137505369467,-101.64604225346386,,,,,,,,MX,2012-03-01,2021-08-15,,,,,,,,['4bf58dd8d48988d151941735'],['Dining and Drinking > Restaurant > Mexican Restaurant > Taco Restaurant'],b'\x00\x00\x00\x00\x01\xc0YiX\xc1\x9b\x9d\x88@5\x1d\x1e\xc1T\x16\xa9',"{'xmin': -101.64604225346386, 'ymin': 21.1137505369467, 'xmax': -101.64604225346386, 'ymax': 21.1137505369467}",dining and drinking > restaurant > mexican restaurant > taco restaurant,1
56a41607498e1b60caf1bb15,Tortas Ahogadas El Torito,20.624039,-103.25554,,,,,,,,MX,2016-01-24,2021-08-14,,,,,,,,['4bf58dd8d48988d151941735'],['Dining and Drinking > Restaurant > Mexican Restaurant > Taco Restaurant'],b'\x00\x00\x00\x00\x01\xc0Y\xd0Z\xc4q\xb4x@4\x9f\xc1\x05\x18m\xb5',"{'xmin': -103.25554, 'ymin': 20.624039, 'xmax': -103.25554, 'ymax': 20.624039}",dining and drinking > restaurant > mexican restaurant > taco restaurant,1
5567d612498e410646a64bcb,Tacos Ray,20.988710403442383,-101.28023529052734,,,,,,,,MX,2015-05-29,2021-08-12,,,,,,,,['4bf58dd8d48988d151941735'],['Dining and Drinking > Restaurant > Mexican Restaurant > Taco Restaurant'],b'\x00\x00\x00\x00\x01\xc0YQ\xef`\x00\x00\x00@4\xfd\x1c \x00\x00\x00',"{'xmin': -101.28023529052734, 'ymin': 20.988710403442383, 'xmax': -101.28023529052734, 'ymax': 20.988710403442383}",dining and drinking > restaurant > mexican restaurant > taco restaurant,1
65388683a9eb296c3335bb29,Mi Pueblito Taqueria,20.653904,-103.432589,,Zapopan,Jal.,45070,,,,MX,2023-10-25,2023-10-25,,,,,,,,['4bf58dd8d48988d151941735'],['Dining and Drinking > Restaurant > Mexican Restaurant > Taco Restaurant'],b'\x00\x00\x00\x00\x01\xc0Y\xdb\xaf\x89\xc5\xe6\xff@4\xa7f@\xa6\xb9=',"{'xmin': -103.432589, 'ymin': 20.653904, 'xmax': -103.432589, 'ymax': 20.653904}",dining and drinking > restaurant > mexican restaurant > taco restaurant,1
56c0ff70498e0190cf52ce8a,Pollos Al Pastor Los AMIGOS,20.58279135151644,-103.38671740191218,,,,,,,,MX,2016-02-14,2021-08-13,,,,,,,,['4bf58dd8d48988d151941735'],['Dining and Drinking > Restaurant > Mexican Restaurant > Taco Restaurant'],"b""\x00\x00\x00\x00\x01\xc0Y\xd8\xbf\xfaX\x80q@4\x951\xd0c'\x9e""","{'xmin': -103.38671740191218, 'ymin': 20.58279135151644, 'xmax': -103.38671740191218, 'ymax': 20.58279135151644}",dining and drinking > restaurant > mexican restaurant > taco restaurant,1
56593ac2498efbd1a65deda5,Tacos Garita,22.137412,-101.01341,Niño Artillero 396,San Luis Potosí,San Luis Potosí,,,,,MX,2015-11-28,2020-11-22,,,,,,,,['4bf58dd8d48988d151941735'],['Dining and Drinking > Restaurant > Mexican Restaurant > Taco Restaurant'],b'\x00\x00\x00\x00\x01\xc0Y@\xdb\xb5\x9d\xdc\x1e@6#-n\xce\x13\xf5',"{'xmin': -101.01341, 'ymin': 22.137412, 'xmax': -101.01341, 'ymax': 22.137412}",dining and drinking > restaurant > mexican restaurant > taco restaurant,1
4f50e644e4b08836fefcc7c6,Tacos de Canasta STV,20.67570526158114,-103.3473889847306,,Guadalajara,,,,,,MX,2012-03-02,2023-12-20,,33 3618 0818,,,,,,['4bf58dd8d48988d151941735'],['Dining and Drinking > Restaurant > Mexican Restaurant > Taco Restaurant'],b'\x00\x00\x00\x00\x01\xc0Y\xd6;\x9f\x02\x1a&@4\xac\xfb\x05 9\xe3',"{'xmin': -103.3473889847306, 'ymin': 20.67570526158114, 'xmax': -103.3473889847306, 'ymax': 20.67570526158114}",dining and drinking > restaurant > mexican restaurant > taco restaurant,1
53607099498efd012cf3c334,tacos tio carlos,20.906967,-100.752279,,,,,,,,MX,2014-04-30,2021-08-12,,,,,,,,['4bf58dd8d48988d151941735'],['Dining and Drinking > Restaurant > Mexican Restaurant > Taco Restaurant'],b'\x00\x00\x00\x00\x01\xc0Y0%V\xd1\x9d\xed@4\xe8.\xfdC\x8d\x1e',"{'xmin': -100.752279, 'ymin': 20.906967, 'xmax': -100.752279, 'ymax': 20.906967}",dining and drinking > restaurant > mexican restaurant > taco restaurant,1
522bea0811d2be371d707217,Tacos Rojos del Arbol,22.142621712958224,-100.98250247655896,,,,,,,,MX,2013-09-08,2021-08-15,,,,,,,,['4bf58dd8d48988d151941735'],['Dining and Drinking > Restaurant > Mexican Restaurant > Taco Restaurant'],b'\x00\x00\x00\x00\x01\xc0Y>\xe1R\x11C\xd3@6$\x82\xdbH\xda\xe6',"{'xmin': -100.98250247655896, 'ymin': 22.142621712958224, 'xmax': -100.98250247655896, 'ymax': 22.142621712958224}",dining and drinking > restaurant > mexican restaurant > taco restaurant,1
4f85f20064274660222e878b,Tacos Gus,20.677458,-103.453126,Circunvalacion Poniente 792,Guadalajara,Jalisco,45010,,,,MX,2013-04-05,2023-12-06,,33 3627 5525,,,,,,['4bf58dd8d48988d151941735'],['Dining and Drinking > Restaurant > Mexican Restaurant > Taco Restaurant'],b'\x00\x00\x00\x00\x01\xc0Y\xdd\x00\x041\xbd\xe8@4\xadm\xe32i\xe0',"{'xmin': -103.453126, 'ymin': 20.677458, 'xmax': -103.453126, 'ymax': 20.677458}",dining and drinking > restaurant > mexican restaurant > taco restaurant,1
56900bee498ef286b337a1df,Carnitas Los Vecinos,20.677892,-103.421401,A Las Cumbres,Zapopan,Jalisco,,,,,MX,2016-01-08,2023-12-20,,33 1559 8282,,,,,,['4bf58dd8d48988d151941735'],['Dining and Drinking > Restaurant > Mexican Restaurant > Taco Restaurant'],b'\x00\x00\x00\x00\x01\xc0Y\xda\xf8;\xe6`\x1c@4\xad\x8aT\x828T',"{'xmin': -103.421401, 'ymin': 20.677892, 'xmax': -103.421401, 'ymax': 20.677892}",dining and drinking > restaurant > mexican restaurant > taco restaurant,1
5104a5c0e4b073eb9aefa4ee,Taqueria Tlecuitl,20.685419561059405,-103.42016780893402,Av.  Patria 430,Guadalajara,Jalisco,,,,,MX,2013-01-27,2021-11-29,,33 3612 7646,,,,,,['4bf58dd8d48988d151941735'],['Dining and Drinking > Restaurant > Mexican Restaurant > Taco Restaurant'],b'\x00\x00\x00\x00\x01\xc0Y\xda\xe4\x07\x85\x8d\x08@4\xafw\xa8\x06\xc9\xf0',"{'xmin': -103.42016780893402, 'ymin': 20.685419561059405, 'xmax': -103.42016780893402, 'ymax': 20.685419561059405}",dining and drinking > restaurant > mexican restaurant > taco restaurant,1
5949405dee71202b1f7d5d47,A La Chingada Carnitas,21.061249,-101.57767,,,,,,,,MX,2017-06-20,2021-08-12,,,,,,,,['4bf58dd8d48988d151941735'],['Dining and Drinking > Restaurant > Mexican Restaurant > Taco Restaurant'],b'\x00\x00\x00\x00\x01\xc0Yd\xf8\x8b\x97xW@5\x0f\xae\x03\xb3\xe9\xa7',"{'xmin': -101.57767, 'ymin': 21.061249, 'xmax': -101.57767, 'ymax': 21.061249}",dining and drinking > restaurant > mexican restaurant > taco restaurant,1
53249410498e492fd8778aa9,tacos de ollita,20.66625362639818,-103.3474059048435,,Guadalajara,,,,,,MX,2014-03-15,2023-09-13,,,,,,,,['4bf58dd8d48988d151941735'],['Dining and Drinking > Restaurant > Mexican Restaurant > Taco Restaurant'],b'\x00\x00\x00\x00\x01\xc0Y\xd6;\xe5\xf9\xef^@4\xaa\x8f\x99\x008\xba',"{'xmin': -103.3474059048435, 'ymin': 20.66625362639818, 'xmax': -103.3474059048435, 'ymax': 20.66625362639818}",dining and drinking > restaurant > mexican restaurant > taco restaurant,1
537c1724498e81df80c0648b,"Tacos ""Don Concho""",21.13004493713379,-101.69689178466797,,,,,,,,MX,2014-05-21,2021-08-13,,,,,,,,['4bf58dd8d48988d151941735'],['Dining and Drinking > Restaurant > Mexican Restaurant > Taco Restaurant'],b'\x00\x00\x00\x00\x01\xc0Yl\x99\xe0\x00\x00\x00@5!J\xa0\x00\x00\x00',"{'xmin': -101.69689178466797, 'ymin': 21.13004493713379, 'xmax': -101.69689178466797, 'ymax': 21.13004493713379}",dining and drinking > restaurant > mexican restaurant > taco restaurant,1
52db530111d2d037aea32c2d,tacos. (La curva),21.739022,-105.235917,,,,,,,,MX,2014-01-19,2021-08-17,,,,,,,,['4bf58dd8d48988d151941735'],['Dining and Drinking > Restaurant > Mexican Restaurant > Taco Restaurant'],b'\x00\x00\x00\x00\x01\xc0ZO\x19C\x9d\xe4\x82@5\xbd0\x8b\xb9\x06F',"{'xmin': -105.235917, 'ymin': 21.739022, 'xmax': -105.235917, 'ymax': 21.739022}",dining and drinking > restaurant > mexican restaurant > taco restaurant,1
51232103e4b09e75f0b6365b,Tacos El Gallo,20.628856658935547,-103.25198364257812,Loma Atenguillo Nte.,Guadalajara,jal.,,,,,MX,2013-02-19,2020-11-24,,,,,,,,['4bf58dd8d48988d151941735'],['Dining and Drinking > Restaurant > Mexican Restaurant > Taco Restaurant'],b'\x00\x00\x00\x00\x01\xc0Y\xd0 \x80\x00\x00\x00@4\xa0\xfc\xc0\x00\x00\x00',"{'xmin': -103.25198364257812, 'ymin': 20.628856658935547, 'xmax': -103.25198364257812, 'ymax': 20.628856658935547}",dining and drinking > restaurant > mexican restaurant > taco restaurant,1
50148f05e4b0c7c30d58e71f,Tacos El Zahuán,20.661372,-103.226854,,,,,,,,MX,2012-07-29,2021-08-15,,,,,,,,['4bf58dd8d48988d151941735'],['Dining and Drinking > Restaurant > Mexican Restaurant > Taco Restaurant'],b'\x00\x00\x00\x00\x01\xc0Y\xce\x84\xc6\xa3\xbd\xe0@4\xa9O\xac\xe6}x',"{'xmin': -103.226854, 'ymin': 20.661372, 'xmax': -103.226854, 'ymax': 20.661372}",dining and drinking > restaurant > mexican restaurant > taco restaurant,1
51c5d775e4b03190a6cdeb30,El Tejaban Tacos de Barbacoa,20.697244051236947,-103.37005831524593,,,,,,,,MX,2013-06-22,2021-08-15,,,,,,,,['4bf58dd8d48988d151941735'],['Dining and Drinking > Restaurant > Mexican Restaurant > Taco Restaurant'],b'\x00\x00\x00\x00\x01\xc0Y\xd7\xaf\t\x12f\x06@4\xb2~\x96\rd\xab',"{'xmin': -103.37005831524593, 'ymin': 20.697244051236947, 'xmax': -103.37005831524593, 'ymax': 20.697244051236947}",dining and drinking > restaurant > mexican restaurant > taco restaurant,1
55ba4157498efb5c53885768,Carnitas San Francisco,20.67134765905369,-103.35948744050185,Av. Enrique Díaz León,Guadalajara,Jalisco,,,,,MX,2015-07-30,2021-08-14,,,,,,,,['4bf58dd8d48988d151941735'],['Dining and Drinking > Restaurant > Mexican Restaurant > Taco Restaurant'],b'\x00\x00\x00\x00\x01\xc0Y\xd7\x01\xd7\x9c\x11\xce@4\xab\xddp\xaf\xe1\xbb',"{'xmin': -103.35948744050185, 'ymin': 20.67134765905369, 'xmax': -103.35948744050185, 'ymax': 20.67134765905369}",dining and drinking > restaurant > mexican restaurant > taco restaurant,1
4f832089e4b024a26fced725,tacos el güero,20.67946140443712,-103.31736497974309,,,,,,,,MX,2012-04-09,2021-08-15,,,,,,,,['4bf58dd8d48988d151941735'],['Dining and Drinking > Restaurant > Mexican Restaurant > Taco Restaurant'],b'\x00\x00\x00\x00\x01\xc0Y\xd4O\xb549\x1b@4\xad\xf1.\xbe\xf3\xa0',"{'xmin': -103.31736497974309, 'ymin': 20.67946140443712, 'xmax': -103.31736497974309, 'ymax': 20.67946140443712}",dining and drinking > restaurant > mexican restaurant > taco restaurant,1
53b0ceb2498e6744c34a3d76,Tacos Don Tino,21.15747833251953,-100.93865203857422,,,,,,,,MX,2014-06-30,2021-08-13,,,,,,,,['4bf58dd8d48988d151941735'],['Dining and Drinking > Restaurant > Mexican Restaurant > Taco Restaurant'],b'\x00\x00\x00\x00\x01\xc0Y<\x12\xe0\x00\x00\x00@5(P\x80\x00\x00\x00',"{'xmin': -100.93865203857422, 'ymin': 21.15747833251953, 'xmax': -100.93865203857422, 'ymax': 21.15747833251953}",dining and drinking > restaurant > mexican restaurant > taco restaurant,1
5724fc1e38fa6e0ab8f51486,Comales Oscar,20.517698,-100.821202,Calle 10 De Mayo #209,Celaya,Guanajuato,,,,,MX,2016-04-30,2020-11-25,,461 613 1093,,,,,,['4bf58dd8d48988d151941735'],['Dining and Drinking > Restaurant > Mexican Restaurant > Taco Restaurant'],b'\x00\x00\x00\x00\x01\xc0Y4\x8e\x92\xd5Z:@4\x84\x87\xdb+4a',"{'xmin': -100.821202, 'ymin': 20.517698, 'xmax': -100.821202, 'ymax': 20.517698}",dining and drinking > restaurant > mexican restaurant > taco restaurant,1
51167819e4b007745ae72340,Quesadillas Lizett,21.16816866297243,-101.65298484713537,,,,,,,,MX,2013-02-09,2021-08-12,,,,,,,,['4bf58dd8d48988d151941735'],['Dining and Drinking > Restaurant > Mexican Restaurant > Taco Restaurant'],b'\x00\x00\x00\x00\x01\xc0Yi\xca\x80\xf4\xce\xb8@5+\r\x19\xfb\xad\xbb',"{'xmin': -101.65298484713537, 'ymin': 21.16816866297243, 'xmax': -101.65298484713537, 'ymax': 21.16816866297243}",dining and drinking > restaurant > mexican restaurant > taco restaurant,1
51253a97e4b0b58b83e5fcf4,Ta' Copeton,20.727133576602313,-103.43071956389286,Av. Central,Zapopan,JAL,45136,,,,MX,2013-02-20,2020-11-24,2017-06-12,,http://tacopeton.mx,,,,,['4bf58dd8d48988d151941735'],['Dining and Drinking > Restaurant > Mexican Restaurant > Taco Restaurant'],b'\x00\x00\x00\x00\x01\xc0Y\xdb\x90\xe8\xca*\xb4@4\xba%m\x13T\x98',"{'xmin': -103.43071956389286, 'ymin': 20.727133576602313, 'xmax': -103.43071956389286, 'ymax': 20.727133576602313}",dining and drinking > restaurant > mexican restaurant > taco restaurant,1
52922fa711d2c28e4c05c94e,Tacos de Barbacoa Herrera,19.773603,-104.377281,,,,,,,,MX,2013-11-24,2021-08-12,,,,,,,,['4bf58dd8d48988d151941735'],['Dining and Drinking > Restaurant > Mexican Restaurant > Taco Restaurant'],b'\x00\x00\x00\x00\x01\xc0Z\x18%_5\x19\xbd@3\xc6\n\xd8\xa1\x16f',"{'xmin': -104.377281, 'ymin': 19.773603, 'xmax': -104.377281, 'ymax': 19.773603}",dining and drinking > restaurant > mexican restaurant > taco restaurant,1
4cb87c83558576b00e1a480e,Tacos Pepe el Toro,21.148073481938912,-101.68524742126465,Av Lopez Mateos,Leon de los Aldama,Gto,,,,,MX,2010-10-15,2020-11-25,,,,,,,,['4bf58dd8d48988d151941735'],['Dining and Drinking > Restaurant > Mexican Restaurant > Taco Restaurant'],b'\x00\x00\x00\x00\x01\xc0Yk\xdb\x18\x00\x00\x00@5%\xe8$\xcaU\x1d',"{'xmin': -101.68524742126465, 'ymin': 21.148073481938912, 'xmax': -101.68524742126465, 'ymax': 21.148073481938912}",dining and drinking > restaurant > mexican restaurant > taco restaurant,1
5b5de21d79f6c7002c9c4ef3,Súper Tacos Fonseca,21.48359,-104.88422,,Tepic,Nayarit,63190,,,,MX,2018-07-29,2020-11-30,,,,,,,,['4bf58dd8d48988d151941735'],['Dining and Drinking > Restaurant > Mexican Restaurant > Taco Restaurant'],b'\x00\x00\x00\x00\x01\xc0Z8\x97\x0f{\x9e\x06@5{\xcc\x8d\xe2\xac2',"{'xmin': -104.88422, 'ymin': 21.48359, 'xmax': -104.88422, 'ymax': 21.48359}",dining and drinking > restaurant > mexican restaurant > taco restaurant,1
5117cd54e4b05dd7ca8ce569,Tacos de Barbacoa Jesus Ledezma,20.696145,-103.330862,,Guadalajara,,,,,,MX,2013-02-10,2021-08-12,,,,,,,,['4bf58dd8d48988d151941735'],['Dining and Drinking > Restaurant > Mexican Restaurant > Taco Restaurant'],"b'\x00\x00\x00\x00\x01\xc0Y\xd5,\xd7\xcf_N@4\xb26\x8f\x08F '","{'xmin': -103.330862, 'ymin': 20.696145, 'xmax': -103.330862, 'ymax': 20.696145}",dining and drinking > restaurant > mexican restaurant > taco restaurant,1
53b6039f498e06cf1e5bd1e7,tacos jalisco,22.1743117933085,-101.01462144788181,Jacarandas,,san luis potosi,,,,,MX,2014-07-04,2021-08-16,,,,,,,,['4bf58dd8d48988d151941735'],['Dining and Drinking > Restaurant > Mexican Restaurant > Taco Restaurant'],"b'\x00\x00\x00\x00\x01\xc0Y@\xef\x8e\xcc\x1e>@6,\x9f\xb2\x9b\x91/'","{'xmin': -101.01462144788181, 'ymin': 22.1743117933085, 'xmax': -101.01462144788181, 'ymax': 22.1743117933085}",dining and drinking > restaurant > mexican restaurant > taco restaurant,1
56ff4716498eb94ded24e7d7,Taqueria Blancas,20.721937,-100.76047,,,,,,,,MX,2016-04-02,2021-08-14,,,,,,,,['4bf58dd8d48988d151941735'],['Dining and Drinking > Restaurant > Mexican Restaurant > Taco Restaurant'],b'\x00\x00\x00\x00\x01\xc0Y0\xab\x8a\\\xe5\xb4@4\xb8\xd0\xdc\xfc\xc5\xb9',"{'xmin': -100.76047, 'ymin': 20.721937, 'xmax': -100.76047, 'ymax': 20.721937}",dining and drinking > restaurant > mexican restaurant > taco restaurant,1
4f4e4e7ee4b0393387e1c99d,Las Lupitas,21.116717,-101.651641,Españita No.1705 A,Leon,Guanajuato,37270,,,,MX,2012-02-29,2020-11-23,,,,,,,,['4bf58dd8d48988d151941735'],['Dining and Drinking > Restaurant > Mexican Restaurant > Taco Restaurant'],"b'\x00\x00\x00\x00\x01\xc0Yi\xb4|s\xee\xe5@5\x1d\xe1*Q\xe3""'","{'xmin': -101.651641, 'ymin': 21.116717, 'xmax': -101.651641, 'ymax': 21.116717}",dining and drinking > restaurant > mexican restaurant > taco restaurant,1
75ba5c8411c241c0df5b1d5e,Taqueria,19.747567,-103.76754,Calle Miguel Montenegro 21,San Gabriel,Jalisco,49700,,,,MX,2010-11-04,2023-12-06,,,,,,,,['4bf58dd8d48988d151941735'],['Dining and Drinking > Restaurant > Mexican Restaurant > Taco Restaurant'],b'\x00\x00\x00\x00\x01\xc0Y\xf1\x1f`\x17\x97\xcc@3\xbf`\x8d\x08\x91\x9f',"{'xmin': -103.76754, 'ymin': 19.747567, 'xmax': -103.76754, 'ymax': 19.747567}",dining and drinking > restaurant > mexican restaurant > taco restaurant,1
584aef4d9850a041aa4938b2,Rolando •Birria y Arrachera•,20.603923,-103.41155,,San Pedro Tlaquepaque,,,,,,MX,2016-12-09,2020-11-25,,,,,,,,['4bf58dd8d48988d151941735'],['Dining and Drinking > Restaurant > Mexican Restaurant > Taco Restaurant'],b'\x00\x00\x00\x00\x01\xc0Y\xdaV\xd5\xcf\xaa\xce@4\x9a\x9a\xb2\x9eM^',"{'xmin': -103.41155, 'ymin': 20.603923, 'xmax': -103.41155, 'ymax': 20.603923}",dining and drinking > restaurant > mexican restaurant > taco restaurant,1
4dba14f60437ffd2079bdaa4,Taco Movil,22.153319793626448,-100.95045972848885,Los Pinos 291,Soledad de Graciano Sánchez,San Luis Potosí,,,,,MX,2011-04-29,2024-01-03,,444 816 1312,http://tacomovilslp.com.mx,tacomovil@yahoo.com.mx,,,,['4bf58dd8d48988d151941735'],['Dining and Drinking > Restaurant > Mexican Restaurant > Taco Restaurant'],"b""\x00\x00\x00\x00\x01\xc0Y<\xd4U\n\x81\x94@6'?\xf7Kt\x7f""","{'xmin': -100.95045972848885, 'ymin': 22.153319793626448, 'xmax': -100.95045972848885, 'ymax': 22.153319793626448}",dining and drinking > restaurant > mexican restaurant > taco restaurant,1
664036a90556643a042a9d8d,Tacos Mariano,20.764814,-103.392628,,Zapopan,Jal.,45133,,,,MX,2024-05-12,2024-05-12,,,,,,,,['4bf58dd8d48988d151941735'],['Dining and Drinking > Restaurant > Mexican Restaurant > Taco Restaurant'],b'\x00\x00\x00\x00\x01\xc0Y\xd9 \xd10\xdf\x9c@4\xc3\xca\xd9\xad\x85\xe0',"{'xmin': -103.392628, 'ymin': 20.764814, 'xmax': -103.392628, 'ymax': 20.764814}",dining and drinking > restaurant > mexican restaurant > taco restaurant,1
544c622f498e60f6edeadf2f,"Tacos ""El Calce""",20.690485,-103.971595,,,,,,,,MX,2014-10-26,2021-08-12,,,,,,,,['4bf58dd8d48988d151941735'],['Dining and Drinking > Restaurant > Mexican Restaurant > Taco Restaurant'],b'\x00\x00\x00\x00\x01\xc0Y\xfe.\x9c\xcb}A@4\xb0\xc3\x9f\xfd`\xe9',"{'xmin': -103.971595, 'ymin': 20.690485, 'xmax': -103.971595, 'ymax': 20.690485}",dining and drinking > restaurant > mexican restaurant > taco restaurant,1
50244b9ee4b03cb31cb788d3,Tortilleria El Maizal,20.12197066101041,-101.18775449383338,Torres Landa,,,,,,,MX,2012-08-09,2021-08-14,,,,,,,,['4bf58dd8d48988d151941735'],['Dining and Drinking > Restaurant > Mexican Restaurant > Taco Restaurant'],b'\x00\x00\x00\x00\x01\xc0YL\x04+l\xac@@4\x1f9x \x1cx',"{'xmin': -101.18775449383338, 'ymin': 20.12197066101041, 'xmax': -101.18775449383338, 'ymax': 20.12197066101041}",dining and drinking > restaurant > mexican restaurant > taco restaurant,1
4de126f222713271e2c5c89c,"Tostadería ""Santa Tere""",20.683677784766246,-103.36714757060692,Juan Álvarez # 1572,Guadalajara,JAL,,,,,MX,2011-05-28,2021-08-12,,,,,,,,['4bf58dd8d48988d151941735'],['Dining and Drinking > Restaurant > Mexican Restaurant > Taco Restaurant'],b'\x00\x00\x00\x00\x01\xc0Y\xd7\x7fX\x86$\x01@4\xaf\x05\x81\xde\x92\xa0',"{'xmin': -103.36714757060692, 'ymin': 20.683677784766246, 'xmax': -103.36714757060692, 'ymax': 20.683677784766246}",dining and drinking > restaurant > mexican restaurant > taco restaurant,1
5cf86449588e36002c43fa53,Los Mere,21.864883,-102.912883,,Tabasco,ZAC,99630,,,,MX,2019-06-06,2020-11-30,,,,,,,,['4bf58dd8d48988d151941735'],['Dining and Drinking > Restaurant > Mexican Restaurant > Taco Restaurant'],b'\x00\x00\x00\x00\x01\xc0Y\xbal\xac\xd1\x84\xc2@5\xddh\xf8\xe7\xdd\xca',"{'xmin': -102.912883, 'ymin': 21.864883, 'xmax': -102.912883, 'ymax': 21.864883}",dining and drinking > restaurant > mexican restaurant > taco restaurant,1
4efb8d4ebe7bd31359a5440c,Tortas Ahogadas don Albert,20.672801451750352,-103.35342632899605,Prisciliano Sánchez,Guadalajara,Jalisco,,,,,MX,2011-12-28,2021-08-11,,,,,,,,['4bf58dd8d48988d1c1941735' '4bf58dd8d48988d151941735'],"['Dining and Drinking > Restaurant > Mexican Restaurant'
 'Dining and Drinking > Restaurant > Mexican Restaurant > Taco Restaurant']",b'\x00\x00\x00\x00\x01\xc0Y\xd6\x9e\x89w%V@4\xac<\xb7G\xf8\x16',"{'xmin': -103.35342632899605, 'ymin': 20.672801451750352, 'xmax': -103.35342632899605, 'ymax': 20.672801451750352}","dining and drinking > restaurant > mexican restaurant, dining and drinking > restaurant > mexican restaurant > taco restaurant",1
51b68cc4498eef316145ef34,Tacos Pepes,21.957179121622577,-102.34318568842278,Allende,Jesus Maria,Aguascalientes,,,,,MX,2013-06-11,2020-11-21,,,,,,,,['4bf58dd8d48988d151941735'],['Dining and Drinking > Restaurant > Mexican Restaurant > Taco Restaurant'],b'\x00\x00\x00\x00\x01\xc0Y\x95\xf6\xc1\x1b\x0e\xca@5\xf5\t\xb0\xdf\xc8q',"{'xmin': -102.34318568842278, 'ymin': 21.957179121622577, 'xmax': -102.34318568842278, 'ymax': 21.957179121622577}",dining and drinking > restaurant > mexican restaurant > taco restaurant,1
513c090fe4b0f92981e0be74,Taco Steak,20.643075890171925,-103.29018372254,Av. Rio Nilo,Guadalajara,Jalisco,,,,,MX,2013-03-10,2021-08-12,,,,,,,,['4bf58dd8d48988d151941735'],['Dining and Drinking > Restaurant > Mexican Restaurant > Taco Restaurant'],"b'\x00\x00\x00\x00\x01\xc0Y\xd2\x92^\xbf\x89\x03@4\xa4\xa0\x9f\x1d""o'","{'xmin': -103.29018372254, 'ymin': 20.643075890171925, 'xmax': -103.29018372254, 'ymax': 20.643075890171925}",dining and drinking > restaurant > mexican restaurant > taco restaurant,1
5d31c440046e4a00089b3ad0,La Nana Chapa - Tacos De Cabeza De Res Estilo Sinaloa,20.650776,-103.444037,,Zapopan,JAL,45053,,,,MX,2019-07-19,2020-11-25,,,,,,,,['4bf58dd8d48988d151941735'],['Dining and Drinking > Restaurant > Mexican Restaurant > Taco Restaurant'],b'\x00\x00\x00\x00\x01\xc0Y\xdck\x1a*M\xb1@4\xa6\x99A\x85\x05\x8e',"{'xmin': -103.444037, 'ymin': 20.650776, 'xmax': -103.444037, 'ymax': 20.650776}",dining and drinking > restaurant > mexican restaurant > taco restaurant,1
4e3c3b44483b04e17a857618,Tacos Paza,20.603051199644487,-103.40181569545571,,Tlaquepaque,Jalisco,,,,,MX,2011-08-05,2020-11-30,,,http://www.tacospaza.com,,,,,['4bf58dd8d48988d151941735'],['Dining and Drinking > Restaurant > Mexican Restaurant > Taco Restaurant'],b'\x00\x00\x00\x00\x01\xc0Y\xd9\xb7Y-\xc0\x1d@4\x9aa\x90<Ia',"{'xmin': -103.40181569545571, 'ymin': 20.603051199644487, 'xmax': -103.40181569545571, 'ymax': 20.603051199644487}",dining and drinking > restaurant > mexican restaurant > taco restaurant,1
5420d7d9498e0b63fbe57022,Tacos Monchis,20.611278,-103.070621,Calle Reforma,Zapotlanejo,Jalisco,45430,,,,MX,2014-09-23,2020-12-23,,,,,,,,['4bf58dd8d48988d151941735'],['Dining and Drinking > Restaurant > Mexican Restaurant > Taco Restaurant'],b'\x00\x00\x00\x00\x01\xc0Y\xc4\x85\r\xf1ZK@4\x9c|\xb7\n\xc3\xa8',"{'xmin': -103.070621, 'ymin': 20.611278, 'xmax': -103.070621, 'ymax': 20.611278}",dining and drinking > restaurant > mexican restaurant > taco restaurant,1
6162fbe42367e8357a192b7a,Tacos De Barbacoa Y Pellizcadas,20.692162,-103.32807,sierra madre 329a,Guadalajara,Jalisco,44340,,,,MX,2021-10-10,2021-10-10,,,,,,,,['4bf58dd8d48988d151941735'],['Dining and Drinking > Restaurant > Mexican Restaurant > Taco Restaurant'],b'\x00\x00\x00\x00\x01\xc0Y\xd4\xff\x19P3\x1e@4\xb11\x87a\x88\xb1',"{'xmin': -103.32807, 'ymin': 20.692162, 'xmax': -103.32807, 'ymax': 20.692162}",dining and drinking > restaurant > mexican restaurant > taco restaurant,1
56a33b83498e087d9105edcf,Tacos Apolonios,20.619024,-105.230559,,,,,,,,MX,2016-01-23,2021-08-17,,,,,,,,['4bf58dd8d48988d151941735'],['Dining and Drinking > Restaurant > Mexican Restaurant > Taco Restaurant'],b'\x00\x00\x00\x00\x01\xc0ZN\xc1z\x893\x1a@4\x9ex[[pi',"{'xmin': -105.230559, 'ymin': 20.619024, 'xmax': -105.230559, 'ymax': 20.619024}",dining and drinking > restaurant > mexican restaurant > taco restaurant,1
62e696e0683db351b87d303f,"Tacos De Canasta ""Carlos""",22.150331,-100.97573,Ignacio Zaragoza,San Luis Potosí,San Luis Potosí,78000,,,,MX,2022-07-31,2022-07-31,,,,,,,,['4bf58dd8d48988d151941735'],['Dining and Drinking > Restaurant > Mexican Restaurant > Taco Restaurant'],b'\x00\x00\x00\x00\x01\xc0Y>r\\=\xeex@6&|\x17\xa8\x932',"{'xmin': -100.97573, 'ymin': 22.150331, 'xmax': -100.97573, 'ymax': 22.150331}",dining and drinking > restaurant > mexican restaurant > taco restaurant,1
5467a283498e676b5e4324cc,tacos y mariscos el original,20.869302,-105.439399,,,,,,,,MX,2014-11-15,2021-08-13,,,,,,,,['4bf58dd8d48988d151941735'],['Dining and Drinking > Restaurant > Mexican Restaurant > Taco Restaurant'],b'\x00\x00\x00\x00\x01\xc0Z\\\x1f\x1c\xfb\xb9I@4\xde\x8a\x93lX\xef',"{'xmin': -105.439399, 'ymin': 20.869302, 'xmax': -105.439399, 'ymax': 20.869302}",dining and drinking > restaurant > mexican restaurant > taco restaurant,1
4d6095b4b19fa143e0a5f7c8,"Taqueria ""Los Angeles""",21.85401001,-102.27283777,Mariano Escobedo 404,Aguascalientes,Aguascalientes,,,,,MX,2011-02-20,2020-11-23,,,,,,,,['4bf58dd8d48988d151941735'],['Dining and Drinking > Restaurant > Mexican Restaurant > Taco Restaurant'],"b'\x00\x00\x00\x00\x01\xc0Y\x91v,\x8c\xd0\xde@5\xda\xa0fgh\x19'","{'xmin': -102.27283777, 'ymin': 21.85401001, 'xmax': -102.27283777, 'ymax': 21.85401001}",dining and drinking > restaurant > mexican restaurant > taco restaurant,1
526dd32111d2781c0bc057ba,"Tacos De La Guera ""el Taco Rico""",21.88734562277398,-102.28598712922269,,,,,,,,MX,2013-10-28,2021-08-12,,,,,,,,['4bf58dd8d48988d151941735'],['Dining and Drinking > Restaurant > Mexican Restaurant > Taco Restaurant'],b'\x00\x00\x00\x00\x01\xc0Y\x92M\x9c\xf5\xc5\xa8@5\xe3)\x15.\x10!',"{'xmin': -102.28598712922269, 'ymin': 21.88734562277398, 'xmax': -102.28598712922269, 'ymax': 21.88734562277398}",dining and drinking > restaurant > mexican restaurant > taco restaurant,1
573fe00c498e6e2d575aa40b,Tacos Toluca,20.639303,-100.99432,Boulevard M Moreno,"Juventino Rosas, Gto.",,,,,,MX,2016-05-21,2020-11-22,,,,,,,,['4bf58dd8d48988d151941735'],['Dining and Drinking > Restaurant > Mexican Restaurant > Taco Restaurant'],b'\x00\x00\x00\x00\x01\xc0Y?\xa2\xf0Zp\x8f@4\xa3\xa9\\\x85<\x15',"{'xmin': -100.99432, 'ymin': 20.639303, 'xmax': -100.99432, 'ymax': 20.639303}",dining and drinking > restaurant > mexican restaurant > taco restaurant,1
5171f595e4b0b5ce07358357,Tacos El Charquillo,22.133626,-100.970315,,,,,,,,MX,2013-04-20,2021-08-16,,,,,,,,['4bf58dd8d48988d151941735'],['Dining and Drinking > Restaurant > Mexican Restaurant > Taco Restaurant'],"b'\x00\x00\x00\x00\x01\xc0Y>\x19\xa4\x15\xf4^@6""5PC\xe52'","{'xmin': -100.970315, 'ymin': 22.133626, 'xmax': -100.970315, 'ymax': 22.133626}",dining and drinking > restaurant > mexican restaurant > taco restaurant,1
52c2e02e498e50b8a5b793d4,Quesadillas Doña Silvia,21.118773,-101.657152,Calle Españita,,,,,,,MX,2013-12-31,2021-08-17,,,,,,,,['4bf58dd8d48988d151941735'],['Dining and Drinking > Restaurant > Mexican Restaurant > Taco Restaurant'],b'\x00\x00\x00\x00\x01\xc0Yj\x0e\xc7C \x10@5\x1eg\xe8F\xa5\xd7',"{'xmin': -101.657152, 'ymin': 21.118773, 'xmax': -101.657152, 'ymax': 21.118773}",dining and drinking > restaurant > mexican restaurant > taco restaurant,1
e1f0c6e440774afd918e4432,Quesadillas la Guera,21.152695,-101.694005,Rosaura 328,León,Guanajuato,37160,,,,MX,2013-09-22,2023-12-06,,477 773 2826,,,,,,['4bf58dd8d48988d151941735'],['Dining and Drinking > Restaurant > Mexican Restaurant > Taco Restaurant'],"b""\x00\x00\x00\x00\x01\xc0Ylj\x93\xf2\x90\xac@5'\x17\x04\xffCB""","{'xmin': -101.694005, 'ymin': 21.152695, 'xmax': -101.694005, 'ymax': 21.152695}",dining and drinking > restaurant > mexican restaurant > taco restaurant,1
524ee3ae498e7ebecee9fc07,Taco Dorado Betty,20.642104371549017,-103.30801071967063,,,,,,,,MX,2013-10-04,2021-08-13,,,,,,,,['4bf58dd8d48988d151941735'],['Dining and Drinking > Restaurant > Mexican Restaurant > Taco Restaurant'],b'\x00\x00\x00\x00\x01\xc0Y\xd3\xb6r\x97\xf3a@4\xa4`\xf3\xbck\xf2',"{'xmin': -103.30801071967063, 'ymin': 20.642104371549017, 'xmax': -103.30801071967063, 'ymax': 20.642104371549017}",dining and drinking > restaurant > mexican restaurant > taco restaurant,1
5213747911d2686d755dcb5c,Tacostilla,20.6738,-103.370152,,Guadalajara,Jalisco,,,,,MX,2013-08-20,2021-08-16,,,,,,,,['4bf58dd8d48988d151941735'],['Dining and Drinking > Restaurant > Mexican Restaurant > Taco Restaurant'],b'\x00\x00\x00\x00\x01\xc0Y\xd7\xb0\x92\x03\xa3#@4\xac~($\x0bx',"{'xmin': -103.370152, 'ymin': 20.6738, 'xmax': -103.370152, 'ymax': 20.6738}",dining and drinking > restaurant > mexican restaurant > taco restaurant,1
58994838a36ecd617ce402ae,Taqueria El Tio,21.88064,-102.25284,,Aguascalientes,Aguascalientes,20190,,,,MX,2017-02-07,2020-11-25,2018-07-11,,,,,,,['4bf58dd8d48988d151941735'],['Dining and Drinking > Restaurant > Mexican Restaurant > Taco Restaurant'],b'\x00\x00\x00\x00\x01\xc0Y\x90.\x87\xd2\xc7\xb9@5\xe1q\x9f\x7f\x8c\xa8',"{'xmin': -102.25284, 'ymin': 21.88064, 'xmax': -102.25284, 'ymax': 21.88064}",dining and drinking > restaurant > mexican restaurant > taco restaurant,1
574133b1cd105b73f81eaef1,"El Asadero ""Tacos de asada""",20.673551,-103.430534,,,,,,,,MX,2016-05-22,2021-08-15,,,,,,,,['4bf58dd8d48988d151941735'],['Dining and Drinking > Restaurant > Mexican Restaurant > Taco Restaurant'],"b""\x00\x00\x00\x00\x01\xc0Y\xdb\x8d\xdezt:@4\xacm\xd6\x9d0'""","{'xmin': -103.430534, 'ymin': 20.673551, 'xmax': -103.430534, 'ymax': 20.673551}",dining and drinking > restaurant > mexican restaurant > taco restaurant,1
5258ba9811d29562b97355ae,Los Braseros,19.253560136265897,-103.72573488966846,Aquiles Serdán,,,,,,,MX,2013-10-12,2021-08-16,,,,,,,,['4bf58dd8d48988d151941735'],['Dining and Drinking > Restaurant > Mexican Restaurant > Taco Restaurant'],"b'\x00\x00\x00\x00\x01\xc0Y\xeerp\xc0,M@3@\xe9Q,\xd4\xd2'","{'xmin': -103.72573488966846, 'ymin': 19.253560136265897, 'xmax': -103.72573488966846, 'ymax': 19.253560136265897}",dining and drinking > restaurant > mexican restaurant > taco restaurant,1
548263a7498ed8a19e37216e,Taco Fino,20.67371209173443,-103.37239570766222,Lopez Cotilla #1742,Guadalajara,Jalisco,,,,,MX,2014-12-06,2021-08-16,2019-10-10,,,,,,,['4bf58dd8d48988d151941735'],['Dining and Drinking > Restaurant > Mexican Restaurant > Taco Restaurant'],b'\x00\x00\x00\x00\x01\xc0Y\xd7\xd5T\xcee\x1f@4\xacxeH\xebL',"{'xmin': -103.37239570766222, 'ymin': 20.67371209173443, 'xmax': -103.37239570766222, 'ymax': 20.67371209173443}",dining and drinking > restaurant > mexican restaurant > taco restaurant,1
4ee44fcd9a52c1dada2fd9ea,Tacos América,21.137156608100195,-101.65880091020134,,,,,,,,MX,2011-12-11,2021-08-12,,,,,,,,['4bf58dd8d48988d151941735'],['Dining and Drinking > Restaurant > Mexican Restaurant > Taco Restaurant'],b'\x00\x00\x00\x00\x01\xc0Yj)\xcbJ\xf8\xf2@5#\x1c\xb2\n8{',"{'xmin': -101.65880091020134, 'ymin': 21.137156608100195, 'xmax': -101.65880091020134, 'ymax': 21.137156608100195}",dining and drinking > restaurant > mexican restaurant > taco restaurant,1
50c006cce4b05bbcaee40797,Hamburguesas y tacos Fuente olimpica,20.68861044576043,-103.33429349369192,,Guadalajara,,,,,,MX,2012-12-06,2021-08-12,,,,,,,,['4bf58dd8d48988d16c941735' '4bf58dd8d48988d151941735'],"['Dining and Drinking > Restaurant > Burger Joint'
 'Dining and Drinking > Restaurant > Mexican Restaurant > Taco Restaurant']",b'\x00\x00\x00\x00\x01\xc0Y\xd5e\x10\x89\xab\x08@4\xb0H\xc609\x9b',"{'xmin': -103.33429349369192, 'ymin': 20.68861044576043, 'xmax': -103.33429349369192, 'ymax': 20.68861044576043}","dining and drinking > restaurant > burger joint, dining and drinking > restaurant > mexican restaurant > taco restaurant",1
4f073841e4b0aa2dc50fa659,Tacos Ollita Lalo,20.679969770890104,-103.43599090502201,Independencia,,,,,,,MX,2012-01-06,2021-08-13,,,,,,,,['4bf58dd8d48988d151941735'],['Dining and Drinking > Restaurant > Mexican Restaurant > Taco Restaurant'],b'\x00\x00\x00\x00\x01\xc0Y\xdb\xe7Fe\x9b\x12@4\xae\x12\x7f\xb8=\xda',"{'xmin': -103.43599090502201, 'ymin': 20.679969770890104, 'xmax': -103.43599090502201, 'ymax': 20.679969770890104}",dining and drinking > restaurant > mexican restaurant > taco restaurant,1
570bc719498ee5186ad39f5f,Tacos Don Santi,20.707459683744247,-103.41569372460177,,Zapopan,Jalisco,,,,,MX,2016-04-11,2020-11-22,,,,,,,,['4bf58dd8d48988d151941735'],['Dining and Drinking > Restaurant > Mexican Restaurant > Taco Restaurant'],b'\x00\x00\x00\x00\x01\xc0Y\xda\x9a\xb9\xda\x14J@4\xb5\x1c\x13\xec\xeb\x88',"{'xmin': -103.41569372460177, 'ymin': 20.707459683744247, 'xmax': -103.41569372460177, 'ymax': 20.707459683744247}",dining and drinking > restaurant > mexican restaurant > taco restaurant,1
5333c78f498e64b74b4c2235,Tacos De PERRO don Armando,20.645194,-103.350328,,Guadalajara,Jalisco,,,,,MX,2014-03-27,2021-08-15,,,,,,,,['4bf58dd8d48988d151941735'],['Dining and Drinking > Restaurant > Mexican Restaurant > Taco Restaurant'],b'\x00\x00\x00\x00\x01\xc0Y\xd6k\xc6!\xb7\xe1@4\xa5+o\x19\x93O',"{'xmin': -103.350328, 'ymin': 20.645194, 'xmax': -103.350328, 'ymax': 20.645194}",dining and drinking > restaurant > mexican restaurant > taco restaurant,1
5244ec6311d23ab388bd7fe3,Taquisar,20.560640573672735,-101.21419795540181,,,,,,,,MX,2013-09-27,2021-08-16,,,,,,,,['4bf58dd8d48988d151941735'],['Dining and Drinking > Restaurant > Mexican Restaurant > Taco Restaurant'],b'\x00\x00\x00\x00\x01\xc0YM\xb5kWT\x89@4\x8f\x86$\x00\xbc.',"{'xmin': -101.21419795540181, 'ymin': 20.560640573672735, 'xmax': -101.21419795540181, 'ymax': 20.560640573672735}",dining and drinking > restaurant > mexican restaurant > taco restaurant,1
4fd153bde4b0476fbd32c69e,Tortugas Tepa,20.81088,-102.762207,,,,,,,,MX,2012-06-08,2021-08-12,2013-04-02,,,,,,,['4bf58dd8d48988d151941735'],['Dining and Drinking > Restaurant > Mexican Restaurant > Taco Restaurant'],b'\x00\x00\x00\x00\x01\xc0Y\xb0\xc7\xff\xder\x11@4\xcf\x95\xd4\xe8\xfb\x01',"{'xmin': -102.762207, 'ymin': 20.81088, 'xmax': -102.762207, 'ymax': 20.81088}",dining and drinking > restaurant > mexican restaurant > taco restaurant,1
506e1b80e4b082a2a95c973c,Taqueria La Palma,20.124311503502458,-101.19147717082323,,,,,,,,MX,2012-10-04,2023-12-19,,445 458 6326,,,,,,['4bf58dd8d48988d151941735'],['Dining and Drinking > Restaurant > Mexican Restaurant > Taco Restaurant'],b'\x00\x00\x00\x00\x01\xc0YLA)v\xa7s@4\x1f\xd2\xe0\xf2\x0fE',"{'xmin': -101.19147717082323, 'ymin': 20.124311503502458, 'xmax': -101.19147717082323, 'ymax': 20.124311503502458}",dining and drinking > restaurant > mexican restaurant > taco restaurant,1
5993b53ff62f2b4fe27cddd7,Tacos Y Tortas Ali,19.267402,-103.746209,Tabasco #27,Villa de Álvarez,COL,28986,,,,MX,2017-08-16,2020-11-24,,,,,,,,['4bf58dd8d48988d151941735'],['Dining and Drinking > Restaurant > Mexican Restaurant > Taco Restaurant'],b'\x00\x00\x00\x00\x01\xc0Y\xef\xc1\xe3d\xbe\xc6@3Dtu\x1c\xe2\x8f',"{'xmin': -103.746209, 'ymin': 19.267402, 'xmax': -103.746209, 'ymax': 19.267402}",dining and drinking > restaurant > mexican restaurant > taco restaurant,1
514929c6e4b064c66d8a02ba,Tacos Rodolfo,21.530408,-102.241126,,,,,,,,MX,2013-03-20,2021-08-10,,,,,,,,['4bf58dd8d48988d151941735'],['Dining and Drinking > Restaurant > Mexican Restaurant > Taco Restaurant'],b'\x00\x00\x00\x00\x01\xc0Y\x8fn\x9b\xbf\r\xc7@5\x87\xc8\xd1\x95\x89j',"{'xmin': -102.241126, 'ymin': 21.530408, 'xmax': -102.241126, 'ymax': 21.530408}",dining and drinking > restaurant > mexican restaurant > taco restaurant,1
546d5a5c498e73851c849f57,La Fragua,22.112004819210924,-100.89749813829337,Av. Benito Jusrez 3935,San Luis Potosí,,,,,,MX,2014-11-20,2020-11-25,,,,,,,,['4bf58dd8d48988d151941735'],['Dining and Drinking > Restaurant > Mexican Restaurant > Taco Restaurant'],b'\x00\x00\x00\x00\x01\xc0Y9p\x9c\x08\x0c8@6\x1c\xacY\x0b\x81\\',"{'xmin': -100.89749813829337, 'ymin': 22.112004819210924, 'xmax': -100.89749813829337, 'ymax': 22.112004819210924}",dining and drinking > restaurant > mexican restaurant > taco restaurant,1
4eab8599991107f63ca4383c,Tacos Estilo Sinaloa,20.6530109392749,-103.4431095012081,Santo Tomas Y Tepeyac,Zapopan,Jalisco,,,,,MX,2011-10-29,2020-11-22,,,,,,,,['4bf58dd8d48988d151941735'],['Dining and Drinking > Restaurant > Mexican Restaurant > Taco Restaurant'],b'\x00\x00\x00\x00\x01\xc0Y\xdc[\xe7\xf4\x0f\x15@4\xa7+\xb9\x94\x1d\xae',"{'xmin': -103.4431095012081, 'ymin': 20.6530109392749, 'xmax': -103.4431095012081, 'ymax': 20.6530109392749}",dining and drinking > restaurant > mexican restaurant > taco restaurant,1
51bfda68498e825fd63d6261,Loncheria LOLITA,21.5012,-104.903876,CAMINO VIEJO AL TECOLOTE,,,,,,,MX,2013-06-18,2021-08-10,,,,,,,,['4bf58dd8d48988d151941735'],['Dining and Drinking > Restaurant > Mexican Restaurant > Taco Restaurant'],b'\x00\x00\x00\x00\x01\xc0Z9\xd9\x1a\xb8\xe8\xea@5\x80N\xa4\xa8\xc1U',"{'xmin': -104.903876, 'ymin': 21.5012, 'xmax': -104.903876, 'ymax': 21.5012}",dining and drinking > restaurant > mexican restaurant > taco restaurant,1
506e5204e4b0b0ed3de13ed7,La Vaca Chonda,20.664498474186665,-103.41279072316786,Av. Guadalupe,Zapopan,Jalisco,45050,,,,MX,2012-10-05,2020-11-30,,,,,,,,['4bf58dd8d48988d1c1941735' '4bf58dd8d48988d151941735'],"['Dining and Drinking > Restaurant > Mexican Restaurant'
 'Dining and Drinking > Restaurant > Mexican Restaurant > Taco Restaurant']",b'\x00\x00\x00\x00\x01\xc0Y\xdak)\xc8\x06H@4\xaa\x1c\x92n\xdf\xa6',"{'xmin': -103.41279072316786, 'ymin': 20.664498474186665, 'xmax': -103.41279072316786, 'ymax': 20.664498474186665}","dining and drinking > restaurant > mexican restaurant, dining and drinking > restaurant > mexican restaurant > taco restaurant",1
521780a4bce68d2bae01bffe,Tacos Paco,20.685182765119514,-103.37431889022923,Juan Alvarez,Guadalajara,Jalisco,44620,,,,MX,2011-07-24,2021-12-15,,,,,,,,['4bf58dd8d48988d151941735'],['Dining and Drinking > Restaurant > Mexican Restaurant > Taco Restaurant'],b'\x00\x00\x00\x00\x01\xc0Y\xd7\xf4\xd77\xf3\xd0@4\xafh#?\xf8\x9e',"{'xmin': -103.37431889022923, 'ymin': 20.685182765119514, 'xmax': -103.37431889022923, 'ymax': 20.685182765119514}",dining and drinking > restaurant > mexican restaurant > taco restaurant,1
4df151f2b0fb807158b8f660,Tacos Jorge,20.68836259392073,-103.29385100228454,,Guadalajara,JAL,,,,,MX,2011-06-09,2021-08-10,,,,,,,,['4bf58dd8d48988d151941735'],['Dining and Drinking > Restaurant > Mexican Restaurant > Taco Restaurant'],b'\x00\x00\x00\x00\x01\xc0Y\xd2\xceto-_@4\xb08\x87\xec\xad\xe4',"{'xmin': -103.29385100228454, 'ymin': 20.68836259392073, 'xmax': -103.29385100228454, 'ymax': 20.68836259392073}",dining and drinking > restaurant > mexican restaurant > taco restaurant,1
506b9eb3e4b0fee324b2e165,Taquería Los Parientes,21.923525,-102.269934,Av.  Adoratrices 905,Aguascalientes,Aguascalientes,,,,,MX,2012-10-03,2020-11-22,2013-06-15,,,,,,,['4bf58dd8d48988d151941735'],['Dining and Drinking > Restaurant > Mexican Restaurant > Taco Restaurant'],"b'\x00\x00\x00\x00\x01\xc0Y\x91F\x99A\x85\x06@5\xecl""h\t\xd5'","{'xmin': -102.269934, 'ymin': 21.923525, 'xmax': -102.269934, 'ymax': 21.923525}",dining and drinking > restaurant > mexican restaurant > taco restaurant,1
54504497498e08e6e79d6bcd,Tacos Don Cuan,20.982795496755845,-101.28699829231861,,,,,,,,MX,2014-10-29,2021-08-12,,,,,,,,['4bf58dd8d48988d151941735'],['Dining and Drinking > Restaurant > Mexican Restaurant > Taco Restaurant'],b'\x00\x00\x00\x00\x01\xc0YR^.\x15\xe1\x0b@4\xfb\x98|U8\xf1',"{'xmin': -101.28699829231861, 'ymin': 20.982795496755845, 'xmax': -101.28699829231861, 'ymax': 20.982795496755845}",dining and drinking > restaurant > mexican restaurant > taco restaurant,1
50982b27e4b0b538e6fd28d8,Arrieros Don Chava,20.655737,-105.235448,,,,,,,,MX,2012-11-05,2021-08-14,,,,,,,,['4bf58dd8d48988d151941735'],['Dining and Drinking > Restaurant > Mexican Restaurant > Taco Restaurant'],"b""\x00\x00\x00\x00\x01\xc0ZO\x11\x94|\xfa'@4\xa7\xdeaI\xc6\xf3""","{'xmin': -105.235448, 'ymin': 20.655737, 'xmax': -105.235448, 'ymax': 20.655737}",dining and drinking > restaurant > mexican restaurant > taco restaurant,1
51a17a91498e2c76638bc45f,Tacos Riky,20.653662,-103.360343,Fresno #1297,Guadalajara,Jalisco,44910,,,,MX,2013-05-26,2021-08-14,,,,,,,,['4bf58dd8d48988d151941735'],['Dining and Drinking > Restaurant > Mexican Restaurant > Taco Restaurant'],b'\x00\x00\x00\x00\x01\xc0Y\xd7\x0f\xdc\x16\x15\xec@4\xa7Vd\x90\xa3Q',"{'xmin': -103.360343, 'ymin': 20.653662, 'xmax': -103.360343, 'ymax': 20.653662}",dining and drinking > restaurant > mexican restaurant > taco restaurant,1
4e3a0de51f6e7952f32382b9,Tacos Arandas,21.85892092926267,-102.30547525708624,Prof. Enrique Olivares Santana,Aguascalientes,Aguascalientes,,,,,MX,2011-08-04,2020-11-22,,,,,,,,['4bf58dd8d48988d151941735'],['Dining and Drinking > Restaurant > Mexican Restaurant > Taco Restaurant'],b'\x00\x00\x00\x00\x01\xc0Y\x93\x8c\xe8\x17\xbb\x0c@5\xdb\xe2=\xf5\x08y',"{'xmin': -102.30547525708624, 'ymin': 21.85892092926267, 'xmax': -102.30547525708624, 'ymax': 21.85892092926267}",dining and drinking > restaurant > mexican restaurant > taco restaurant,1
4cf562c92f015941628458a2,Taquería Acapulqueños,20.74640253931485,-103.400900894467,Av. De La Mancha,Zapopan,JAL,45130,,,,MX,2010-11-30,2021-11-23,,,,,,,,['4bf58dd8d48988d151941735' '4bf58dd8d48988d1c1941735'],"['Dining and Drinking > Restaurant > Mexican Restaurant > Taco Restaurant'
 'Dining and Drinking > Restaurant > Mexican Restaurant']",b'\x00\x00\x00\x00\x01\xc0Y\xd9\xa8\\9\xab\x11@4\xbf\x14<\xa0\x026',"{'xmin': -103.400900894467, 'ymin': 20.74640253931485, 'xmax': -103.400900894467, 'ymax': 20.74640253931485}","dining and drinking > restaurant > mexican restaurant > taco restaurant, dining and drinking > restaurant > mexican restaurant",1
5be1e8661fa763002cf87bf9,TaConcentro,20.690988,-103.454072,,Zapopan,JAL,45010,,,,MX,2018-11-06,2020-11-25,,,,,,,,['4bf58dd8d48988d151941735' '4bf58dd8d48988d1c1941735'],"['Dining and Drinking > Restaurant > Mexican Restaurant > Taco Restaurant'
 'Dining and Drinking > Restaurant > Mexican Restaurant']",b'\x00\x00\x00\x00\x01\xc0Y\xdd\x0f\x84\x01\x81\xe0@4\xb0\xe4\x96\xed\xed\xaf',"{'xmin': -103.454072, 'ymin': 20.690988, 'xmax': -103.454072, 'ymax': 20.690988}","dining and drinking > restaurant > mexican restaurant > taco restaurant, dining and drinking > restaurant > mexican restaurant",1
528c242b11d2828defb4fd6d,Tacos Arturu,21.174220686813886,-101.64872610852039,,,,,,,,MX,2013-11-20,2021-08-17,,,,,,,,['4bf58dd8d48988d151941735'],['Dining and Drinking > Restaurant > Mexican Restaurant > Taco Restaurant'],"b'\x00\x00\x00\x00\x01\xc0Yi\x84\xba\x83\n\x03@5,\x99\xba\x18&\xfd'","{'xmin': -101.64872610852039, 'ymin': 21.174220686813886, 'xmax': -101.64872610852039, 'ymax': 21.174220686813886}",dining and drinking > restaurant > mexican restaurant > taco restaurant,1
4d40c992c1d4721ed1e713c7,Tacos del millón Vicente valtierra,21.11176,-101.60349,Vicente valtierra,León,Guanajuato,,,,,MX,2011-01-27,2020-11-25,2014-02-15,,,,,,,['4bf58dd8d48988d151941735'],['Dining and Drinking > Restaurant > Mexican Restaurant > Taco Restaurant'],b'\x00\x00\x00\x00\x01\xc0Yf\x9f\x94\x85]\xa2@5\x1c\x9cM\xa9\x00?',"{'xmin': -101.60349, 'ymin': 21.11176, 'xmax': -101.60349, 'ymax': 21.11176}",dining and drinking > restaurant > mexican restaurant > taco restaurant,1
5bd12c18894eac002c79c70f,Las Brasas,21.862562,-102.311714,,,,,,,,MX,2018-10-25,2021-08-17,,,,,,,,['4bf58dd8d48988d151941735'],['Dining and Drinking > Restaurant > Mexican Restaurant > Taco Restaurant'],b'\x00\x00\x00\x00\x01\xc0Y\x93\xf3\x1fF\xed$@5\xdc\xd0\xdc\xfc\xc5\xb9',"{'xmin': -102.311714, 'ymin': 21.862562, 'xmax': -102.311714, 'ymax': 21.862562}",dining and drinking > restaurant > mexican restaurant > taco restaurant,1
4de857ccb0fbcb7c9ac1c911,Taquería Los Lupes,20.66576805716016,-103.31196257189737,Calle 64 No. 40,Guadalajara,JAL,,,,,MX,2011-06-03,2021-08-11,,,,,,,,['4bf58dd8d48988d151941735'],['Dining and Drinking > Restaurant > Mexican Restaurant > Taco Restaurant'],b'\x00\x00\x00\x00\x01\xc0Y\xd3\xf71\xdc\xf8\x04@4\xaao\xc6\x809o',"{'xmin': -103.31196257189737, 'ymin': 20.66576805716016, 'xmax': -103.31196257189737, 'ymax': 20.66576805716016}",dining and drinking > restaurant > mexican restaurant > taco restaurant,1
5014c414e4b0cfd78b2c6586,tacos árabes,20.69441704741769,-101.32724874455042,,,,,,,,MX,2012-07-29,2020-11-21,,,,,,,,['4bf58dd8d48988d151941735'],['Dining and Drinking > Restaurant > Mexican Restaurant > Taco Restaurant'],b'\x00\x00\x00\x00\x01\xc0YT\xf1\xa4\xb7\xe0\x12@4\xb1\xc5P\xccq\xa1',"{'xmin': -101.32724874455042, 'ymin': 20.69441704741769, 'xmax': -101.32724874455042, 'ymax': 20.69441704741769}",dining and drinking > restaurant > mexican restaurant > taco restaurant,1
569b2464498e7bd111e6d9a6,Taqueria Los Pacos,19.08396,-104.307908,,Manzanillo,Colima,,,,,MX,2016-01-17,2020-11-22,,,,,,,,['4bf58dd8d48988d151941735'],['Dining and Drinking > Restaurant > Mexican Restaurant > Taco Restaurant'],"b'\x00\x00\x00\x00\x01\xc0Z\x13\xb4\xc3\xc1\x8bP@3\x15~g\x0e,\x13'","{'xmin': -104.307908, 'ymin': 19.08396, 'xmax': -104.307908, 'ymax': 19.08396}",dining and drinking > restaurant > mexican restaurant > taco restaurant,1
66ada78dfad3553ec2e937b7,Taqueria El Güero,21.165387,-101.647144,,León,Gto.,37219,,,,MX,2024-08-03,2024-08-03,,,,,,,,['4bf58dd8d48988d151941735'],['Dining and Drinking > Restaurant > Mexican Restaurant > Taco Restaurant'],b'\x00\x00\x00\x00\x01\xc0Yij\xce\xaa\xf3^@5*V\xcdl.\xfd',"{'xmin': -101.647144, 'ymin': 21.165387, 'xmax': -101.647144, 'ymax': 21.165387}",dining and drinking > restaurant > mexican restaurant > taco restaurant,1
51f48713498ecd8ef884aeac,Tacos Javo,19.330788,-103.762627,,,,,,,,MX,2013-07-28,2021-08-15,,,,,,,,['4bf58dd8d48988d151941735'],['Dining and Drinking > Restaurant > Mexican Restaurant > Taco Restaurant'],b'\x00\x00\x00\x00\x01\xc0Y\xf0\xce\xe1z\x02\xfb@3T\xae\x85\xb9\xe8\xc4',"{'xmin': -103.762627, 'ymin': 19.330788, 'xmax': -103.762627, 'ymax': 19.330788}",dining and drinking > restaurant > mexican restaurant > taco restaurant,1
5601a765498e53c7129f3b30,Tortilleria El Guayabo,20.647008554720966,-103.42709070425379,,,,,,,,MX,2015-09-22,2021-08-11,,,,,,,,['4bf58dd8d48988d151941735'],['Dining and Drinking > Restaurant > Mexican Restaurant > Taco Restaurant'],b'\x00\x00\x00\x00\x01\xc0Y\xdbUt?\xcc\x85@4\xa5\xa2ZF\xc2?',"{'xmin': -103.42709070425379, 'ymin': 20.647008554720966, 'xmax': -103.42709070425379, 'ymax': 20.647008554720966}",dining and drinking > restaurant > mexican restaurant > taco restaurant,1
511d2c5de4b09c9a43f12c51,Tacos de Los Dioses,20.589771043353753,-103.3853577403364,,,,,,,,MX,2013-02-14,2021-08-16,,,,,,,,['4bf58dd8d48988d151941735'],['Dining and Drinking > Restaurant > Mexican Restaurant > Taco Restaurant'],b'\x00\x00\x00\x00\x01\xc0Y\xd8\xa9\xb3\x83\x00W@4\x96\xfb</U\t',"{'xmin': -103.3853577403364, 'ymin': 20.589771043353753, 'xmax': -103.3853577403364, 'ymax': 20.589771043353753}",dining and drinking > restaurant > mexican restaurant > taco restaurant,1
52debf6311d22444579409a7,Lechon al Horno de Doroteo,20.703313613858345,-103.37716341018675,Punto Amazonas,Zapopan,Jalisco,44630,,,,MX,2014-01-21,2024-08-12,2016-02-26,,,,313417668711301.0,,,['4bf58dd8d48988d151941735'],['Dining and Drinking > Restaurant > Mexican Restaurant > Taco Restaurant'],b'\x00\x00\x00\x00\x01\xc0Y\xd8#q\xff\xff\xff@4\xb4\x0c\\jZi',"{'xmin': -103.37716341018675, 'ymin': 20.703313613858345, 'xmax': -103.37716341018675, 'ymax': 20.703313613858345}",dining and drinking > restaurant > mexican restaurant > taco restaurant,1
52a2205911d212d234d1b79c,Tacos BarYaca,20.61128044128418,-103.41603088378906,,,,,,,,MX,2013-12-06,2021-08-15,,,,,,,,['4bf58dd8d48988d151941735'],['Dining and Drinking > Restaurant > Mexican Restaurant > Taco Restaurant'],b'\x00\x00\x00\x00\x01\xc0Y\xda\xa0@\x00\x00\x00@4\x9c|\xe0\x00\x00\x00',"{'xmin': -103.41603088378906, 'ymin': 20.61128044128418, 'xmax': -103.41603088378906, 'ymax': 20.61128044128418}",dining and drinking > restaurant > mexican restaurant > taco restaurant,1
500f5cc5e4b08a5d7202e3e0,Piros Grill,20.584917017507312,-101.19805996078166,,,,,,,,MX,2012-07-25,2021-08-15,,,,,,,,['4bf58dd8d48988d151941735'],['Dining and Drinking > Restaurant > Mexican Restaurant > Taco Restaurant'],b'\x00\x00\x00\x00\x01\xc0YL\xad\x03\xaf\x8d\x13@4\x95\xbd\x1f%\x11Y',"{'xmin': -101.19805996078166, 'ymin': 20.584917017507312, 'xmax': -101.19805996078166, 'ymax': 20.584917017507312}",dining and drinking > restaurant > mexican restaurant > taco restaurant,1
57d5ec93498ee75853da05ec,Tacos Don Gaby,20.694754,-103.297616,,,,,,,,MX,2016-09-11,2021-08-14,,,,,,,,['4bf58dd8d48988d151941735'],['Dining and Drinking > Restaurant > Mexican Restaurant > Taco Restaurant'],b'\x00\x00\x00\x00\x01\xc0Y\xd3\x0c#\xfa\xb1\x0c@4\xb1\xdbe\xec\xc3\xe3',"{'xmin': -103.297616, 'ymin': 20.694754, 'xmax': -103.297616, 'ymax': 20.694754}",dining and drinking > restaurant > mexican restaurant > taco restaurant,1
5840f1177220e633964f446d,tacos el padrino,21.167502,-101.763082,,,,,,,,MX,2016-12-02,2020-11-25,,,,,,,,['4bf58dd8d48988d151941735'],['Dining and Drinking > Restaurant > Mexican Restaurant > Taco Restaurant'],b'\x00\x00\x00\x00\x01\xc0Yp\xd6U\xe2\x8a\xa4@5*\xe1i<\x03\xbc',"{'xmin': -101.763082, 'ymin': 21.167502, 'xmax': -101.763082, 'ymax': 21.167502}",dining and drinking > restaurant > mexican restaurant > taco restaurant,1
4db8e0a40437609120f6712c,Taqueria Don Nacho,20.1299081040593,-101.19337320327759,Juarez,Moroleon,GTO,,,,,MX,2011-04-28,2020-11-24,,445 462 5152,,,,,,['4bf58dd8d48988d1c1941735' '4bf58dd8d48988d151941735'],"['Dining and Drinking > Restaurant > Mexican Restaurant'
 'Dining and Drinking > Restaurant > Mexican Restaurant > Taco Restaurant']",b'\x00\x00\x00\x00\x01\xc0YL`:\x00\x00\x00@4!A\xa8Rk\x89',"{'xmin': -101.19337320327759, 'ymin': 20.1299081040593, 'xmax': -101.19337320327759, 'ymax': 20.1299081040593}","dining and drinking > restaurant > mexican restaurant, dining and drinking > restaurant > mexican restaurant > taco restaurant",1
5215036d11d28e1c9589f5de,El gran Juan,20.729574694016392,-103.43929830225568,,,,,,,,MX,2013-08-21,2021-08-12,,,,,,,,['4bf58dd8d48988d151941735'],['Dining and Drinking > Restaurant > Mexican Restaurant > Taco Restaurant'],b'\x00\x00\x00\x00\x01\xc0Y\xdc\x1dv\xa0X\x18@4\xba\xc5h:\xca$',"{'xmin': -103.43929830225568, 'ymin': 20.729574694016392, 'xmax': -103.43929830225568, 'ymax': 20.729574694016392}",dining and drinking > restaurant > mexican restaurant > taco restaurant,1
57126c23498e01f63b56450e,Tacos Tecos,20.705898,-103.3493,,Guadalajara,,,,,,MX,2016-04-16,2021-08-16,,,,,,,,['4bf58dd8d48988d151941735'],['Dining and Drinking > Restaurant > Mexican Restaurant > Taco Restaurant'],b'\x00\x00\x00\x00\x01\xc0Y\xd6Z\xeec\x1f\x8a@4\xb4\xb5\xbb8O\xd3',"{'xmin': -103.3493, 'ymin': 20.705898, 'xmax': -103.3493, 'ymax': 20.705898}",dining and drinking > restaurant > mexican restaurant > taco restaurant,1
5e0a2cb77430190008d76511,Tacos de Barbacoa Los Deliciosos,20.741852,-103.385801,Plaza San Isidro,Zapopan,JAL,45180,,,,MX,2019-12-30,2020-11-23,,,,,,,,['4bf58dd8d48988d151941735'],['Dining and Drinking > Restaurant > Mexican Restaurant > Taco Restaurant'],b'\x00\x00\x00\x00\x01\xc0Y\xd8\xb0\xf6\xadp\xe7@4\xbd\xea\x03>x\xe2',"{'xmin': -103.385801, 'ymin': 20.741852, 'xmax': -103.385801, 'ymax': 20.741852}",dining and drinking > restaurant > mexican restaurant > taco restaurant,1
548f1e43498e4021ca91f572,Los Volteados,20.73144769731891,-103.45437456384295,,,,,,,,MX,2014-12-15,2021-08-16,,,,,,,,['4bf58dd8d48988d151941735'],['Dining and Drinking > Restaurant > Mexican Restaurant > Taco Restaurant'],b'\x00\x00\x00\x00\x01\xc0Y\xdd\x14y\x0c\xf5\xbe@4\xbb@(\x02\xb8\x1f',"{'xmin': -103.45437456384295, 'ymin': 20.73144769731891, 'xmax': -103.45437456384295, 'ymax': 20.73144769731891}",dining and drinking > restaurant > mexican restaurant > taco restaurant,1
54dd6ebc498e03fa2996efd7,tacozito poblano,20.672495448272436,-103.36797678759467,,,,,,,,MX,2015-02-13,2021-08-16,,,,,,,,['4bf58dd8d48988d151941735'],['Dining and Drinking > Restaurant > Mexican Restaurant > Taco Restaurant'],b'\x00\x00\x00\x00\x01\xc0Y\xd7\x8c\xee\x83\x1a\x00@4\xac(\xa9e\t\xfa',"{'xmin': -103.36797678759467, 'ymin': 20.672495448272436, 'xmax': -103.36797678759467, 'ymax': 20.672495448272436}",dining and drinking > restaurant > mexican restaurant > taco restaurant,1
56911bce498e307575db8092,Birrieria El Bolas,21.127524,-102.002785,,,,,,,,MX,2016-01-09,2021-08-14,,,,,,,,['4bf58dd8d48988d151941735'],['Dining and Drinking > Restaurant > Mexican Restaurant > Taco Restaurant'],"b'\x00\x00\x00\x00\x01\xc0Y\x80-\xa1""\xfa\xd7@5 \xa5i\xb1t\x82'","{'xmin': -102.002785, 'ymin': 21.127524, 'xmax': -102.002785, 'ymax': 21.127524}",dining and drinking > restaurant > mexican restaurant > taco restaurant,1
573fbd27498e3b4a5e7400d7,Los Tacos,20.720897,-103.395642,,,,,,,,MX,2016-05-21,2021-08-17,,,,,,,,['4bf58dd8d48988d151941735'],['Dining and Drinking > Restaurant > Mexican Restaurant > Taco Restaurant'],b'\x00\x00\x00\x00\x01\xc0Y\xd9R2\xd2\xbb#@4\xb8\x8c\xb4\xae\xc8\xd6',"{'xmin': -103.395642, 'ymin': 20.720897, 'xmax': -103.395642, 'ymax': 20.720897}",dining and drinking > restaurant > mexican restaurant > taco restaurant,1
5294c2c211d2432db4fb7e34,Carnitas Zapién,21.876358032226562,-102.28137969970703,Heroe De Nacozari #708-B,Aguascalientes,Aguascalientes,,,,,MX,2013-11-26,2020-11-30,,449 138 0993,,,,,,['4bf58dd8d48988d151941735'],['Dining and Drinking > Restaurant > Mexican Restaurant > Taco Restaurant'],b'\x00\x00\x00\x00\x01\xc0Y\x92\x02 \x00\x00\x00@5\xe0Y\x00\x00\x00\x00',"{'xmin': -102.28137969970703, 'ymin': 21.876358032226562, 'xmax': -102.28137969970703, 'ymax': 21.876358032226562}",dining and drinking > restaurant > mexican restaurant > taco restaurant,1
4cd7570bb2a437047a408a44,Birria el Taco Mortal,21.865789230981743,-101.59478457032866,,Ojuelos,Jalisco,,,,,MX,2010-11-08,2020-11-24,,,,,,,,['4bf58dd8d48988d151941735'],['Dining and Drinking > Restaurant > Mexican Restaurant > Taco Restaurant'],b'\x00\x00\x00\x00\x01\xc0Yf\x10\xf3Mn\x87@5\xdd\xa4\\\xf0K\xab',"{'xmin': -101.59478457032866, 'ymin': 21.865789230981743, 'xmax': -101.59478457032866, 'ymax': 21.865789230981743}",dining and drinking > restaurant > mexican restaurant > taco restaurant,1
5158f761e4b0933851aff7e7,"Tacos ""Sin Nombre""",19.907176,-102.003802,,,,,,,,MX,2013-04-01,2021-08-16,,,,,,,,['4bf58dd8d48988d151941735'],['Dining and Drinking > Restaurant > Mexican Restaurant > Taco Restaurant'],b'\x00\x00\x00\x00\x01\xc0Y\x80>J\xbej3@3\xe8<\xaf\xb3\xb7R',"{'xmin': -102.003802, 'ymin': 19.907176, 'xmax': -102.003802, 'ymax': 19.907176}",dining and drinking > restaurant > mexican restaurant > taco restaurant,1
50228cc0e4b0471255d294e1,Tacos De Chivo,18.91001,-100.159684,,,,,,,,MX,2012-08-08,2021-08-15,,,,,,,,['4bf58dd8d48988d151941735'],['Dining and Drinking > Restaurant > Mexican Restaurant > Taco Restaurant'],b'\x00\x00\x00\x00\x01\xc0Y\n8C=lr@2\xe8\xf6jU\x08p',"{'xmin': -100.159684, 'ymin': 18.91001, 'xmax': -100.159684, 'ymax': 18.91001}",dining and drinking > restaurant > mexican restaurant > taco restaurant,1
4fe9333fe4b09a0a36351054,Tacos Tommy,19.333984,-99.123915,,,,,,,,MX,2012-06-26,2021-08-12,,,,,,,,['4bf58dd8d48988d151941735'],['Dining and Drinking > Restaurant > Mexican Restaurant > Taco Restaurant'],b'\x00\x00\x00\x00\x01\xc0X\xc7\xee9.\x1e\xf7@3U\x7f\xf9\xb5c$',"{'xmin': -99.123915, 'ymin': 19.333984, 'xmax': -99.123915, 'ymax': 19.333984}",dining and drinking > restaurant > mexican restaurant > taco restaurant,1
56fd2a9a498e92609a5cc3dd,Tacos Doña Tere,16.86811,-96.784145,,,,,,,,MX,2016-03-31,2021-08-15,,,,,,,,['4bf58dd8d48988d151941735'],['Dining and Drinking > Restaurant > Mexican Restaurant > Taco Restaurant'],b'\x00\x00\x00\x00\x01\xc0X2/n\x82\x94\x9a@0\xde<t\xfbT\xa0',"{'xmin': -96.784145, 'ymin': 16.86811, 'xmax': -96.784145, 'ymax': 16.86811}",dining and drinking > restaurant > mexican restaurant > taco restaurant,1
5692977e498e8bc03551f544,La Flor De Atotonilco,20.548766467178435,-102.5068233159756,,,,,,,,MX,2016-01-10,2021-08-12,,,,,,,,['4bf58dd8d48988d151941735'],['Dining and Drinking > Restaurant > Mexican Restaurant > Taco Restaurant'],b'\x00\x00\x00\x00\x01\xc0Y\xa0o\xcb\x0f\xbd\xca@4\x8c{\xf5\x8d\xac?',"{'xmin': -102.5068233159756, 'ymin': 20.548766467178435, 'xmax': -102.5068233159756, 'ymax': 20.548766467178435}",dining and drinking > restaurant > mexican restaurant > taco restaurant,1
5047f182e4b0424d58d0647d,Salsa Parri-Salsa,19.275003,-99.178086,,,,,,,,MX,2012-09-06,2021-08-13,,,,,,,,['4bf58dd8d48988d151941735'],['Dining and Drinking > Restaurant > Mexican Restaurant > Taco Restaurant'],b'\x00\x00\x00\x00\x01\xc0X\xcbe\xc2\xd2x\x07@3Ff\x98\xbbMI',"{'xmin': -99.178086, 'ymin': 19.275003, 'xmax': -99.178086, 'ymax': 19.275003}",dining and drinking > restaurant > mexican restaurant > taco restaurant,1
5348b883498ed70ddb2d882a,Tacontento,18.375639,-97.296528,,,,,,,,MX,2014-04-12,2021-08-10,,,,,,,,['4bf58dd8d48988d151941735'],['Dining and Drinking > Restaurant > Mexican Restaurant > Taco Restaurant'],b'\x00\x00\x00\x00\x01\xc0XR\xfaP\x93\x96J@2`)\xe0\xa4\x1a&',"{'xmin': -97.296528, 'ymin': 18.375639, 'xmax': -97.296528, 'ymax': 18.375639}",dining and drinking > restaurant > mexican restaurant > taco restaurant,1
54fcfabe498e07def4be4d7d,Taco-Ponch,18.458927,-99.411595,1ra Poniente,Buenavista De Cuéllar,Guerrero,40330,,,,MX,2015-03-09,2020-11-26,,,,,,,,['4bf58dd8d48988d151941735'],['Dining and Drinking > Restaurant > Mexican Restaurant > Taco Restaurant'],b'\x00\x00\x00\x00\x01\xc0X\xdaW\x92\x8e\x0c\x9e@2u|=h@[',"{'xmin': -99.411595, 'ymin': 18.458927, 'xmax': -99.411595, 'ymax': 18.458927}",dining and drinking > restaurant > mexican restaurant > taco restaurant,1
5109ba57e4b0d12542edd83d,Maiky Luciano,19.27384493429887,-99.13427908496503,,,,,,,,MX,2013-01-31,2021-08-12,2014-05-05,,,,,,,['4bf58dd8d48988d151941735'],['Dining and Drinking > Restaurant > Mexican Restaurant > Taco Restaurant'],b'\x00\x00\x00\x00\x01\xc0X\xc8\x98\x07M\x9d\x8b@3F\x1a\xb3\x9c\xfd*',"{'xmin': -99.13427908496503, 'ymin': 19.27384493429887, 'xmax': -99.13427908496503, 'ymax': 19.27384493429887}",dining and drinking > restaurant > mexican restaurant > taco restaurant,1
55838963498eee2f1f2254b4,Los Tarrascos,16.77164077758789,-99.77262115478516,,,,,,,,MX,2015-06-19,2021-08-10,,,,,,,,['4bf58dd8d48988d151941735'],['Dining and Drinking > Restaurant > Mexican Restaurant > Taco Restaurant'],b'\x00\x00\x00\x00\x01\xc0X\xf1r\xa0\x00\x00\x00@0\xc5\x8a@\x00\x00\x00',"{'xmin': -99.77262115478516, 'ymin': 16.77164077758789, 'xmax': -99.77262115478516, 'ymax': 16.77164077758789}",dining and drinking > restaurant > mexican restaurant > taco restaurant,1
563b942dcd1097d2e7cc3691,"Tacos de canasta ""Los de Cajón""",18.942265357622464,-99.23274510905445,Av. Alta Tensión #522 Col. El Empleado,Cuernavaca,Morelos,62250,,,,MX,2015-11-05,2020-11-30,,777 328 3513,,,,,,['4bf58dd8d48988d151941735'],['Dining and Drinking > Restaurant > Mexican Restaurant > Taco Restaurant'],b'\x00\x00\x00\x00\x01\xc0X\xce\xe5K\xbd\xecW@2\xf18Mo$i',"{'xmin': -99.23274510905445, 'ymin': 18.942265357622464, 'xmax': -99.23274510905445, 'ymax': 18.942265357622464}",dining and drinking > restaurant > mexican restaurant > taco restaurant,1
574f0603498ebbeb11e23fc9,El Sazón de los Muñecos,19.295757,-99.133461,Av Acoxpa 507,,,,,,,MX,2016-06-01,2021-08-13,,,,,,,,['4bf58dd8d48988d151941735'],['Dining and Drinking > Restaurant > Mexican Restaurant > Taco Restaurant'],b'\x00\x00\x00\x00\x01\xc0X\xc8\x8a\xa0\x01\x92\xa7@3K\xb6\xbb\x12\x90%',"{'xmin': -99.133461, 'ymin': 19.295757, 'xmax': -99.133461, 'ymax': 19.295757}",dining and drinking > restaurant > mexican restaurant > taco restaurant,1
53d2bc14498eb6c9511b4d47,Barbacoa Don Pingo,19.30068821870056,-99.54706635011159,,,,,,,,MX,2014-07-25,2021-08-11,,,,,,,,['4bf58dd8d48988d151941735'],['Dining and Drinking > Restaurant > Mexican Restaurant > Taco Restaurant'],"b'\x00\x00\x00\x00\x01\xc0X\xe3\x03""\x94\x9e+@3L\xf9\xe71\x9c\x85'","{'xmin': -99.54706635011159, 'ymin': 19.30068821870056, 'xmax': -99.54706635011159, 'ymax': 19.30068821870056}",dining and drinking > restaurant > mexican restaurant > taco restaurant,1
5402253b498ea342593a7e76,Las carmelas,19.31814,-99.224555,,,,,,,,MX,2014-08-30,2021-08-11,,,,,,,,['4bf58dd8d48988d151941735'],['Dining and Drinking > Restaurant > Mexican Restaurant > Taco Restaurant'],b'\x00\x00\x00\x00\x01\xc0X\xce_\x1b\xefI\xcf@3Qq\x9f\x7f\x8c\xa8',"{'xmin': -99.224555, 'ymin': 19.31814, 'xmax': -99.224555, 'ymax': 19.31814}",dining and drinking > restaurant > mexican restaurant > taco restaurant,1
51100f21e4b0428ee9c548b1,Eben ezer 2º,18.882517331308474,-96.93069140753329,,,,,,,,MX,2013-02-04,2021-08-10,,,,,,,,['4bf58dd8d48988d151941735'],['Dining and Drinking > Restaurant > Mexican Restaurant > Taco Restaurant'],b'\x00\x00\x00\x00\x01\xc0X;\x90r\xb1\x81\x84@2\xe1\xec\xa7\xe4\x1f\x83',"{'xmin': -96.93069140753329, 'ymin': 18.882517331308474, 'xmax': -96.93069140753329, 'ymax': 18.882517331308474}",dining and drinking > restaurant > mexican restaurant > taco restaurant,1
5660616d498e0be5d52bef48,Tacos Don Prospe,19.250617918697014,-99.1004773776368,,,,,,,,MX,2015-12-03,2021-08-15,,,,,,,,['4bf58dd8d48988d151941735'],['Dining and Drinking > Restaurant > Mexican Restaurant > Taco Restaurant'],b'\x00\x00\x00\x00\x01\xc0X\xc6n8\xaa\xbc\x07@3@(~\xf4\x98c',"{'xmin': -99.1004773776368, 'ymin': 19.250617918697014, 'xmax': -99.1004773776368, 'ymax': 19.250617918697014}",dining and drinking > restaurant > mexican restaurant > taco restaurant,1
562db27c498e9f6074705c37,Tacos Contreras,19.960695,-102.262486,,Zamora,Michoacán,,,,,MX,2015-10-26,2020-11-23,,,,,,,,['4bf58dd8d48988d151941735'],['Dining and Drinking > Restaurant > Mexican Restaurant > Taco Restaurant'],b'\x00\x00\x00\x00\x01\xc0Y\x90\xcc\x92\x14j\x1a@3\xf5\xf0\x1b\x86nD',"{'xmin': -102.262486, 'ymin': 19.960695, 'xmax': -102.262486, 'ymax': 19.960695}",dining and drinking > restaurant > mexican restaurant > taco restaurant,1
571ba4d4498ea4d7357f2b2b,Quesadillas Estelita,14.91625,-92.266469,,,,,,,,MX,2016-04-23,2021-08-11,,,,,,,,['4bf58dd8d48988d151941735'],['Dining and Drinking > Restaurant > Mexican Restaurant > Taco Restaurant'],b'\x00\x00\x00\x00\x01\xc0W\x11\r\xd3\xfe\x19v@-\xd5\x1e\xb8Q\xeb\x85',"{'xmin': -92.266469, 'ymin': 14.91625, 'xmax': -92.266469, 'ymax': 14.91625}",dining and drinking > restaurant > mexican restaurant > taco restaurant,1
50a6fafae4b0d042f7fe4da1,Tacos Tino,20.5428969006986,-102.79596634699142,Abasolo Oriente 148,Tototlán,Jalisco,47730,,,,MX,2012-11-17,2020-11-23,,,,,,,,['4bf58dd8d48988d151941735'],['Dining and Drinking > Restaurant > Mexican Restaurant > Taco Restaurant'],b'\x00\x00\x00\x00\x01\xc0Y\xb2\xf1\x1c\xd5B\xdd@4\x8a\xfbJ\x91\x99\xaa',"{'xmin': -102.79596634699142, 'ymin': 20.5428969006986, 'xmax': -102.79596634699142, 'ymax': 20.5428969006986}",dining and drinking > restaurant > mexican restaurant > taco restaurant,1
56227562498e22966d52ab19,Diana Barbacoa de Res,19.68759,-101.172611,,,,,,,,MX,2015-10-17,2021-08-14,,,,,,,,['4bf58dd8d48988d151941735'],['Dining and Drinking > Restaurant > Mexican Restaurant > Taco Restaurant'],b'\x00\x00\x00\x00\x01\xc0YK\x0c\x0f\x01\xfb\x83@3\xb0\x05\xe5\xf3\x0e\x80',"{'xmin': -101.172611, 'ymin': 19.68759, 'xmax': -101.172611, 'ymax': 19.68759}",dining and drinking > restaurant > mexican restaurant > taco restaurant,1
5e518c21f36fec00099edfb9,Chamorros Lalito,19.189834,-96.133173,,Veracruz,VER,91700,,,,MX,2020-02-22,2020-11-23,,,,,,,,['4bf58dd8d48988d151941735'],['Dining and Drinking > Restaurant > Mexican Restaurant > Taco Restaurant'],b'\x00\x00\x00\x00\x01\xc0X\x08\x85\xe8\x0b\xedt@30\x98\xf6\x05\xab;',"{'xmin': -96.133173, 'ymin': 19.189834, 'xmax': -96.133173, 'ymax': 19.189834}",dining and drinking > restaurant > mexican restaurant > taco restaurant,1
4eb2c0de0aaf68b1eb765c1d,"Carnitas ""El Guache""",19.293997420732694,-99.65399718518745,Santos Degollado,,,,,,,MX,2011-11-03,2021-08-14,,,,,,,,['4bf58dd8d48988d151941735'],['Dining and Drinking > Restaurant > Mexican Restaurant > Taco Restaurant'],"b""\x00\x00\x00\x00\x01\xc0X\xe9\xdb\x17\x02\x83\x98@3KCj;'\xc0""","{'xmin': -99.65399718518745, 'ymin': 19.293997420732694, 'xmax': -99.65399718518745, 'ymax': 19.293997420732694}",dining and drinking > restaurant > mexican restaurant > taco restaurant,1
55903792498eb417fb4a7e10,La casa amarilla,19.319762326850174,-99.14541797743328,,,,,,,,MX,2015-06-28,2021-08-16,,,,,,,,['4bf58dd8d48988d151941735'],['Dining and Drinking > Restaurant > Mexican Restaurant > Taco Restaurant'],b'\x00\x00\x00\x00\x01\xc0X\xc9N\x874T\xe4@3Q\xdb\xf1\xa0Pz',"{'xmin': -99.14541797743328, 'ymin': 19.319762326850174, 'xmax': -99.14541797743328, 'ymax': 19.319762326850174}",dining and drinking > restaurant > mexican restaurant > taco restaurant,1
537cc325498e6e093160c90b,tacos las sabrosas,19.70266,-101.174496,,,,,,,,MX,2014-05-21,2021-08-13,,,,,,,,['4bf58dd8d48988d151941735'],['Dining and Drinking > Restaurant > Mexican Restaurant > Taco Restaurant'],b'\x00\x00\x00\x00\x01\xc0YK*\xf1ER\x1a@3\xb3\xe1\x86\x985\x16',"{'xmin': -101.174496, 'ymin': 19.70266, 'xmax': -101.174496, 'ymax': 19.70266}",dining and drinking > restaurant > mexican restaurant > taco restaurant,1
536fda9c498e666a1bdfb042,Tacos de a peso,16.19095051022392,-95.20008121488002,,Salina Cruz,Oaxaca,,,,,MX,2014-05-11,2020-11-21,,,,,,,,['4bf58dd8d48988d151941735'],['Dining and Drinking > Restaurant > Mexican Restaurant > Taco Restaurant'],b'\x00\x00\x00\x00\x01\xc0W\xcc\xce!p\x9d\x08@00\xe2!\xf4\x90\xf6',"{'xmin': -95.20008121488002, 'ymin': 16.19095051022392, 'xmax': -95.20008121488002, 'ymax': 16.19095051022392}",dining and drinking > restaurant > mexican restaurant > taco restaurant,1
524c862311d23a198eb5f3ab,Tacos CHAYITO,16.1806,-95.1957,Bo. Espinal,Salina Cruz,Oaxaca,,,,,MX,2013-10-02,2020-11-24,,,,,,,,['4bf58dd8d48988d151941735'],['Dining and Drinking > Restaurant > Mexican Restaurant > Taco Restaurant'],b'\x00\x00\x00\x00\x01\xc0W\xcc\x86YJ\xf4\xf1@0.;\xcd5\xa8X',"{'xmin': -95.1957, 'ymin': 16.1806, 'xmax': -95.1957, 'ymax': 16.1806}",dining and drinking > restaurant > mexican restaurant > taco restaurant,1
542386fd498e8e9b84c58170,"""El gordo""",18.08856773376465,-96.11534118652344,,,,,,,,MX,2014-09-25,2021-08-11,,,,,,,,['4bf58dd8d48988d151941735'],['Dining and Drinking > Restaurant > Mexican Restaurant > Taco Restaurant'],b'\x00\x00\x00\x00\x01\xc0X\x07a\xc0\x00\x00\x00@2\x16\xac`\x00\x00\x00',"{'xmin': -96.11534118652344, 'ymin': 18.08856773376465, 'xmax': -96.11534118652344, 'ymax': 18.08856773376465}",dining and drinking > restaurant > mexican restaurant > taco restaurant,1
522f5a4a11d2c786065a1e74,"Los Taquechis Del ""vic""",19.259451320981633,-99.1078675768108,,Xochimilco,,,,,,MX,2013-09-10,2020-11-21,,,,,,,,['4bf58dd8d48988d151941735'],['Dining and Drinking > Restaurant > Mexican Restaurant > Taco Restaurant'],b'\x00\x00\x00\x00\x01\xc0X\xc6\xe7Mh\xac\xe0@3Bkf\xda\x85&',"{'xmin': -99.1078675768108, 'ymin': 19.259451320981633, 'xmax': -99.1078675768108, 'ymax': 19.259451320981633}",dining and drinking > restaurant > mexican restaurant > taco restaurant,1
516ef84e498eee9a1916ec56,"Carnitas ""El Profe""",19.248738,-99.12289,,,,,,,,MX,2013-04-17,2021-08-14,,,,,,,,['4bf58dd8d48988d151941735'],['Dining and Drinking > Restaurant > Mexican Restaurant > Taco Restaurant'],"b""\x00\x00\x00\x00\x01\xc0X\xc7\xddn\x04\xc0Y@3?\xadK'E\xbf""","{'xmin': -99.12289, 'ymin': 19.248738, 'xmax': -99.12289, 'ymax': 19.248738}",dining and drinking > restaurant > mexican restaurant > taco restaurant,1
5b820d30fe3740002cb7c708,Tacos El Sol,19.295372,-99.66495,,Toluca de Lerdo,Estado de México,50040,,,,MX,2018-08-26,2020-11-26,,,,,,,,['4bf58dd8d48988d151941735'],['Dining and Drinking > Restaurant > Mexican Restaurant > Taco Restaurant'],"b""\x00\x00\x00\x00\x01\xc0X\xea\x8e\x8aq\xdej@3K\x9d\x7f\xd8't""","{'xmin': -99.66495, 'ymin': 19.295372, 'xmax': -99.66495, 'ymax': 19.295372}",dining and drinking > restaurant > mexican restaurant > taco restaurant,1
51350e4fe4b05921860da8a0,"Taqueria ""El Buen Sabor""",17.542371800845782,-99.50067490273256,,,,,,,,MX,2013-03-04,2021-08-14,,,,,,,,['4bf58dd8d48988d151941735'],['Dining and Drinking > Restaurant > Mexican Restaurant > Taco Restaurant'],b'\x00\x00\x00\x00\x01\xc0X\xe0\x0b\x0e\xbfJ\x84@1\x8a\xd8\xe0\xda\xe7\xbf',"{'xmin': -99.50067490273256, 'ymin': 17.542371800845782, 'xmax': -99.50067490273256, 'ymax': 17.542371800845782}",dining and drinking > restaurant > mexican restaurant > taco restaurant,1
511fa29ce4b049e1f8da4504,El Puerquito Felipe,19.316017,-99.114112,,,,,,,,MX,2013-02-16,2021-08-14,,,,,,,,['4bf58dd8d48988d151941735'],['Dining and Drinking > Restaurant > Mexican Restaurant > Taco Restaurant'],b'\x00\x00\x00\x00\x01\xc0X\xc7M\x9ck\x052@3P\xe6}w\xfa\xe3',"{'xmin': -99.114112, 'ymin': 19.316017, 'xmax': -99.114112, 'ymax': 19.316017}",dining and drinking > restaurant > mexican restaurant > taco restaurant,1
537a297511d27c9e632bb15e,Tacos Xalicco,17.529694898005268,-99.49547080020989,,Chilpancingo de los Bravo,Guerrero,,,,,MX,2014-05-19,2020-11-26,,,,,,,,['4bf58dd8d48988d151941735'],['Dining and Drinking > Restaurant > Mexican Restaurant > Taco Restaurant'],b'\x00\x00\x00\x00\x01\xc0X\xdf\xb5\xcb(\xc1\x90@1\x87\x9a\x15\xb7\xcaj',"{'xmin': -99.49547080020989, 'ymin': 17.529694898005268, 'xmax': -99.49547080020989, 'ymax': 17.529694898005268}",dining and drinking > restaurant > mexican restaurant > taco restaurant,1
50c3f05de4b09b1d12bed6df,El taco loco,19.446316171812864,-96.40859107010844,,,,,,,,MX,2012-12-09,2021-08-11,,,,,,,,['4bf58dd8d48988d151941735'],['Dining and Drinking > Restaurant > Mexican Restaurant > Taco Restaurant'],b'\x00\x00\x00\x00\x01\xc0X\x1a&[(\xe3k@3rA\xc6\xd1\x9c\xb7',"{'xmin': -96.40859107010844, 'ymin': 19.446316171812864, 'xmax': -96.40859107010844, 'ymax': 19.446316171812864}",dining and drinking > restaurant > mexican restaurant > taco restaurant,1
55201c21498e86217ddf28e4,Antojitos *los Tres Hermanos*,19.97153091430664,-102.2803726196289,Avenida Del Arbol,,,,,,,MX,2015-04-04,2021-08-13,,,,,,,,['4bf58dd8d48988d151941735'],['Dining and Drinking > Restaurant > Mexican Restaurant > Taco Restaurant'],b'\x00\x00\x00\x00\x01\xc0Y\x91\xf1\xa0\x00\x00\x00@3\xf8\xb6@\x00\x00\x00',"{'xmin': -102.2803726196289, 'ymin': 19.97153091430664, 'xmax': -102.2803726196289, 'ymax': 19.97153091430664}",dining and drinking > restaurant > mexican restaurant > taco restaurant,1
59c71c6db6b04b2539b2ac82,Tacos Eva,19.274316,-99.124501,,Ciudad de México,CDMX,16010,,,,MX,2017-09-24,2020-11-25,,,,,,,,['4bf58dd8d48988d151941735' '4bf58dd8d48988d1c1941735'],"['Dining and Drinking > Restaurant > Mexican Restaurant > Taco Restaurant'
 'Dining and Drinking > Restaurant > Mexican Restaurant']",b'\x00\x00\x00\x00\x01\xc0X\xc7\xf7\xd3\n\xd4o@3F9\x92\xc8\xc5\x00',"{'xmin': -99.124501, 'ymin': 19.274316, 'xmax': -99.124501, 'ymax': 19.274316}","dining and drinking > restaurant > mexican restaurant > taco restaurant, dining and drinking > restaurant > mexican restaurant",1
56d8f414cd104c19d6639a38,Taquería Quintana,19.36872536495893,-96.37214456385787,,,,,,,,MX,2016-03-04,2021-08-14,,,,,,,,['4bf58dd8d48988d151941735'],['Dining and Drinking > Restaurant > Mexican Restaurant > Taco Restaurant'],b'\x00\x00\x00\x00\x01\xc0X\x17\xd17n\xc9\xd7@3^d\xc9\x17\xb4K',"{'xmin': -96.37214456385787, 'ymin': 19.36872536495893, 'xmax': -96.37214456385787, 'ymax': 19.36872536495893}",dining and drinking > restaurant > mexican restaurant > taco restaurant,1
5814c06938faa541c3c5586a,Quesadillas Doña Nati,19.310848,-99.125477,,,,,,,,MX,2016-10-29,2021-08-17,,,,,,,,['4bf58dd8d48988d151941735'],['Dining and Drinking > Restaurant > Mexican Restaurant > Taco Restaurant'],b'\x00\x00\x00\x00\x01\xc0X\xc8\x07\xd0\xae\xd9\x9d@3O\x93\xbc\n\x06\xea',"{'xmin': -99.125477, 'ymin': 19.310848, 'xmax': -99.125477, 'ymax': 19.310848}",dining and drinking > restaurant > mexican restaurant > taco restaurant,1
51928d11498e115e81013caf,Tacos Joel,20.370095635535268,-102.76765823364258,Sócrates,Ocotlán,JAL,,,,,MX,2013-05-14,2020-11-21,,,,,,,,['4bf58dd8d48988d151941735'],['Dining and Drinking > Restaurant > Mexican Restaurant > Taco Restaurant'],b'\x00\x00\x00\x00\x01\xc0Y\xb1!P\x00\x00\x00@4^\xbe\x96k\x04-',"{'xmin': -102.76765823364258, 'ymin': 20.370095635535268, 'xmax': -102.76765823364258, 'ymax': 20.370095635535268}",dining and drinking > restaurant > mexican restaurant > taco restaurant,1
6251a4b290f60c427317b1fe,Carnitas Manolo’s,19.286972,-99.164571,,Mexico City,CDMX,14000,,,,MX,2022-04-09,2022-04-09,,,,,,,,"['4bf58dd8d48988d1c1941735' '4bf58dd8d48988d151941735'
 '4bf58dd8d48988d143941735']","['Dining and Drinking > Restaurant > Mexican Restaurant'
 'Dining and Drinking > Restaurant > Mexican Restaurant > Taco Restaurant'
 'Dining and Drinking > Breakfast Spot']","b'\x00\x00\x00\x00\x01\xc0X\xca\x88T\xcd\xb7\xae@3Iv\xff:\xde""'","{'xmin': -99.164571, 'ymin': 19.286972, 'xmax': -99.164571, 'ymax': 19.286972}","dining and drinking > restaurant > mexican restaurant, dining and drinking > restaurant > mexican restaurant > taco restaurant, dining and drinking > breakfast spot",1
5ad40a58a2a6ce48fa435227,Taquería Pime,20.327335,-103.47926,,,,,,,,MX,2018-04-16,2021-08-11,,,,,,,,['4bf58dd8d48988d151941735'],['Dining and Drinking > Restaurant > Mexican Restaurant > Taco Restaurant'],"b'\x00\x00\x00\x00\x01\xc0Y\xde\xac2""\x91\xfb@4S\xcc9\xff\xd6\x0f'","{'xmin': -103.47926, 'ymin': 20.327335, 'xmax': -103.47926, 'ymax': 20.327335}",dining and drinking > restaurant > mexican restaurant > taco restaurant,1
5026a6c3e4b092aac5f204be,Taqueria: De Aki 'pa Ya,17.54347038269043,-99.4955062866211,,,,,,,,MX,2012-08-11,2021-08-11,,,,,,,,['4bf58dd8d48988d151941735'],['Dining and Drinking > Restaurant > Mexican Restaurant > Taco Restaurant'],b'\x00\x00\x00\x00\x01\xc0X\xdf\xb6`\x00\x00\x00@1\x8b \xe0\x00\x00\x00',"{'xmin': -99.4955062866211, 'ymin': 17.54347038269043, 'xmax': -99.4955062866211, 'ymax': 17.54347038269043}",dining and drinking > restaurant > mexican restaurant > taco restaurant,1
63dfef15b075da699c7d61cc,El Carboncito,19.274761,-99.17228,,Ciudad de México,Ciudad de México,14430,,,,MX,2023-02-05,2023-02-05,,,,,,,,['4bf58dd8d48988d151941735'],['Dining and Drinking > Restaurant > Mexican Restaurant > Taco Restaurant'],b'\x00\x00\x00\x00\x01\xc0X\xcb\x06\xa2\xb1pP@3FV\xbc\xa57]',"{'xmin': -99.17228, 'ymin': 19.274761, 'xmax': -99.17228, 'ymax': 19.274761}",dining and drinking > restaurant > mexican restaurant > taco restaurant,1
4d424df9c95b721e0983682b,El pastorcito 4496,19.291113709796825,-99.1308853008627,Prol. Div del norte,Coyacán,DF,,,,,MX,2011-01-28,2020-11-23,2014-05-08,,,,,,,['4bf58dd8d48988d151941735'],['Dining and Drinking > Restaurant > Mexican Restaurant > Taco Restaurant'],b'\x00\x00\x00\x00\x01\xc0X\xc8`l\xbd\xae\xe0@3J\x86m\x96\xfe\x9e',"{'xmin': -99.1308853008627, 'ymin': 19.291113709796825, 'xmax': -99.1308853008627, 'ymax': 19.291113709796825}",dining and drinking > restaurant > mexican restaurant > taco restaurant,1
20b4f56b35c0445b0c6852c7,El Vaquero las aguilas,18.910396,-99.214077,Avenida Atlacomulco 184,Cuernavaca,Morelos,62470,,,,MX,2010-11-04,2023-12-06,,777 798 3787,,,,,,['4bf58dd8d48988d151941735'],['Dining and Drinking > Restaurant > Mexican Restaurant > Taco Restaurant'],b'\x00\x00\x00\x00\x01\xc0X\xcd\xb3p\x04t\xda@2\xe9\x0f\xb6Vh\xc2',"{'xmin': -99.214077, 'ymin': 18.910396, 'xmax': -99.214077, 'ymax': 18.910396}",dining and drinking > restaurant > mexican restaurant > taco restaurant,1
5594a532498ef181526d354f,Taqueria EL buen Gusto,19.330646514892578,-99.05320739746094,Canal De Zuez M15 L4,,,,,,,MX,2015-07-02,2021-08-15,,,,,,,,['4bf58dd8d48988d151941735'],['Dining and Drinking > Restaurant > Mexican Restaurant > Taco Restaurant'],b'\x00\x00\x00\x00\x01\xc0X\xc3g\xc0\x00\x00\x00@3T\xa5@\x00\x00\x00',"{'xmin': -99.05320739746094, 'ymin': 19.330646514892578, 'xmax': -99.05320739746094, 'ymax': 19.330646514892578}",dining and drinking > restaurant > mexican restaurant > taco restaurant,1
4e442ad4b0fb71d2197ebbce,Medio Oriente,17.039256,-96.712472,,Oaxaca,Oaxaca,,,,,MX,2011-08-11,2020-11-22,,,,,,,,['4bf58dd8d48988d151941735'],['Dining and Drinking > Restaurant > Mexican Restaurant > Taco Restaurant'],b'\x00\x00\x00\x00\x01\xc0X-\x99$(\xd45@1\n\x0c\xaed+\xfa',"{'xmin': -96.712472, 'ymin': 17.039256, 'xmax': -96.712472, 'ymax': 17.039256}",dining and drinking > restaurant > mexican restaurant > taco restaurant,1
640a5358e712997fff7cad14,Asado Sonorense,19.293223,-99.164024,,Tlalpan,CDMX,14050,,,,MX,2023-03-09,2023-03-09,,,,,,,,['4bf58dd8d48988d151941735'],['Dining and Drinking > Restaurant > Mexican Restaurant > Taco Restaurant'],b'\x00\x00\x00\x00\x01\xc0X\xca\x7f^\x84\xf0\x95@3K\x10\xa9\x9bo]',"{'xmin': -99.164024, 'ymin': 19.293223, 'xmax': -99.164024, 'ymax': 19.293223}",dining and drinking > restaurant > mexican restaurant > taco restaurant,1
4fbda289e4b0997685ebe556,Antojitos La Cabaña,19.193296,-96.153114,,,,,,,,MX,2012-05-24,2021-08-15,,,,,,,,['4bf58dd8d48988d151941735'],['Dining and Drinking > Restaurant > Mexican Restaurant > Taco Restaurant'],b'\x00\x00\x00\x00\x01\xc0X\t\xcc\x9e\xa9\xa3\xd3@31{\xd8\xber\x97',"{'xmin': -96.153114, 'ymin': 19.193296, 'xmax': -96.153114, 'ymax': 19.193296}",dining and drinking > restaurant > mexican restaurant > taco restaurant,1
5161fd83e4b09c80cc581aa1,Rosso Taco Grill Boca,19.157490019800964,-96.1088300628063,Ruiz Cortines 242,Boca del Rio,Veracruz,94299,,,,MX,2013-04-07,2020-11-22,2019-11-05,229 130 1765,,,,,,['4bf58dd8d48988d151941735'],['Dining and Drinking > Restaurant > Mexican Restaurant > Taco Restaurant'],b'\x00\x00\x00\x00\x01\xc0X\x06\xf7\x12^$\xc8@3(QD\x14}\xd5',"{'xmin': -96.1088300628063, 'ymin': 19.157490019800964, 'xmax': -96.1088300628063, 'ymax': 19.157490019800964}",dining and drinking > restaurant > mexican restaurant > taco restaurant,1
4c99749480958cfa13d93ad4,Los Güeros,19.271899071564874,-99.2202524074313,Carretera Picacho-Ajusco,México,DF,,,,,MX,2010-09-22,2020-11-23,,,,,,,,['4bf58dd8d48988d151941735'],['Dining and Drinking > Restaurant > Mexican Restaurant > Taco Restaurant'],b'\x00\x00\x00\x00\x01\xc0X\xce\x18\x9d\x8d\xb2\x18@3E\x9b-t/\x14',"{'xmin': -99.2202524074313, 'ymin': 19.271899071564874, 'xmax': -99.2202524074313, 'ymax': 19.271899071564874}",dining and drinking > restaurant > mexican restaurant > taco restaurant,1
55e5c706498e7eb433c475bf,Super Quesadillas Loly's,19.704725355368033,-101.18456848102085,Calle 20 De Noviembre,,Morelia Michoacán,,,,,MX,2015-09-01,2021-11-23,,,,,,,,['4bf58dd8d48988d151941735'],['Dining and Drinking > Restaurant > Mexican Restaurant > Taco Restaurant'],b'\x00\x00\x00\x00\x01\xc0YK\xcf\xf8Qv\xd8@3\xb4h\xe1\x81\xf7\xba',"{'xmin': -101.18456848102085, 'ymin': 19.704725355368033, 'xmax': -101.18456848102085, 'ymax': 19.704725355368033}",dining and drinking > restaurant > mexican restaurant > taco restaurant,1
4e7df08b55030a6664d3026c,Barbacoa Las cuatas,19.264357,-99.11804,,Mexico City,Distrito Federal,,,,,MX,2011-09-24,2020-11-24,,,,,,,,['4bf58dd8d48988d151941735'],['Dining and Drinking > Restaurant > Mexican Restaurant > Taco Restaurant'],b'\x00\x00\x00\x00\x01\xc0X\xc7\x8d\xf7\xa4\xe7\xab@3C\xac\xe6}w\xfb',"{'xmin': -99.11804, 'ymin': 19.264357, 'xmax': -99.11804, 'ymax': 19.264357}",dining and drinking > restaurant > mexican restaurant > taco restaurant,1
4c50ea113940be9a5804fa07,"Tacos de cabeza de cerdo ""el pig pong""",19.28571,-99.66852,Tenancingo,Col sánchez,,,,,,MX,2010-07-29,2020-11-25,,,,,,,,['4bf58dd8d48988d151941735'],['Dining and Drinking > Restaurant > Mexican Restaurant > Taco Restaurant'],b'\x00\x00\x00\x00\x01\xc0X\xea\xc9\x08\x1c.4@3I$Jb#\xe2',"{'xmin': -99.66852, 'ymin': 19.28571, 'xmax': -99.66852, 'ymax': 19.28571}",dining and drinking > restaurant > mexican restaurant > taco restaurant,1
4e5bde56227188671512e34f,Tacos & Tablas,19.278246,-99.561193,Av.Solidaridad - Las Torres #56,San Mateo Atenco,México,,,,,MX,2011-08-29,2020-11-24,,522710671,,,,,,['4bf58dd8d48988d151941735'],['Dining and Drinking > Restaurant > Mexican Restaurant > Taco Restaurant'],b'\x00\x00\x00\x00\x01\xc0X\xe3\xea\x96\x0bo\xa0@3G;!>>)',"{'xmin': -99.561193, 'ymin': 19.278246, 'xmax': -99.561193, 'ymax': 19.278246}",dining and drinking > restaurant > mexican restaurant > taco restaurant,1
4f08a759e4b0aa2dc698e02f,Tacos Fiesta,19.305149,-99.12502,Plaza Fiesta Coapa,,,,,,,MX,2012-01-07,2021-08-11,,,,,,,,['4bf58dd8d48988d151941735'],['Dining and Drinking > Restaurant > Mexican Restaurant > Taco Restaurant'],b'\x00\x00\x00\x00\x01\xc0X\xc8\x00S\xe2\xd6$@3N\x1e>\xafh8',"{'xmin': -99.12502, 'ymin': 19.305149, 'xmax': -99.12502, 'ymax': 19.305149}",dining and drinking > restaurant > mexican restaurant > taco restaurant,1
4cc1cd0f9eeab713b288de40,Taco Express,19.29526152148375,-99.17957840661253,Av. San Fernando 632 A,Tlalpan,DF,14000,,,,MX,2010-10-22,2024-01-04,,55 5528 7071,http://www.tacoexpress.mx,veraaranda@hotmail.com,,,,['4bf58dd8d48988d151941735'],['Dining and Drinking > Restaurant > Mexican Restaurant > Taco Restaurant'],b'\x00\x00\x00\x00\x01\xc0X\xcb~6m\xdd\xfe@3K\x96BR\x8a7',"{'xmin': -99.17957840661253, 'ymin': 19.29526152148375, 'xmax': -99.17957840661253, 'ymax': 19.29526152148375}",dining and drinking > restaurant > mexican restaurant > taco restaurant,1
54efdffa498ed23c319eb0bd,Tacos Daniel,19.315427,-99.225338,,,,,,,,MX,2015-02-27,2021-08-12,,,,,,,,['4bf58dd8d48988d151941735'],['Dining and Drinking > Restaurant > Mexican Restaurant > Taco Restaurant'],"b'\x00\x00\x00\x00\x01\xc0X\xcek\xf0\x13""\xf2@3P\xbf\xd2\xe9F\x80'","{'xmin': -99.225338, 'ymin': 19.315427, 'xmax': -99.225338, 'ymax': 19.315427}",dining and drinking > restaurant > mexican restaurant > taco restaurant,1
54e62bfd498e902f448af83c,"Tacos de Canasta ""Cherry""",19.188674,-96.133831,Uribe,Veracruz,Veracruz,91700,,,,MX,2015-02-19,2020-11-25,,,,,,,,['4bf58dd8d48988d151941735'],['Dining and Drinking > Restaurant > Mexican Restaurant > Taco Restaurant'],b'\x00\x00\x00\x00\x01\xc0X\x08\x90\xaf\xe6\x0c9@30L\xf0s\x9b\x02',"{'xmin': -96.133831, 'ymin': 19.188674, 'xmax': -96.133831, 'ymax': 19.188674}",dining and drinking > restaurant > mexican restaurant > taco restaurant,1
63d3f5a61e713c2bee806555,Tacos Del Llano,17.068704,-96.719829,,Oaxaca,OAX,68000,,,,MX,2023-01-27,2023-01-27,,,,,,,,['4bf58dd8d48988d151941735'],['Dining and Drinking > Restaurant > Mexican Restaurant > Taco Restaurant'],b'\x00\x00\x00\x00\x01\xc0X.\x11\xad\xa7m\x98@1\x11\x96\x95\xd9\x1a\xb9',"{'xmin': -96.719829, 'ymin': 17.068704, 'xmax': -96.719829, 'ymax': 17.068704}",dining and drinking > restaurant > mexican restaurant > taco restaurant,1
5097f182e4b05f8bb75ba3c5,El Rey Toño,19.3351,-99.1814,,,,,,,,MX,2012-11-05,2021-08-13,,,,,,,,['4bf58dd8d48988d151941735'],['Dining and Drinking > Restaurant > Mexican Restaurant > Taco Restaurant'],b'\x00\x00\x00\x00\x01\xc0X\xcb\x9c\x0e\xbe\xdf\xa4@3U\xc9\x1d\x14\xe3\xbd',"{'xmin': -99.1814, 'ymin': 19.3351, 'xmax': -99.1814, 'ymax': 19.3351}",dining and drinking > restaurant > mexican restaurant > taco restaurant,1
58bc8b0613af1c0df94d8988,de michoacan al paladar,19.288981,-99.226986,,,,,,,,MX,2017-03-05,2021-08-16,,,,,,,,['4bf58dd8d48988d151941735'],['Dining and Drinking > Restaurant > Mexican Restaurant > Taco Restaurant'],b'\x00\x00\x00\x00\x01\xc0X\xce\x86\xf0I\xa9\x97@3I\xfa\xa8\xa8*V',"{'xmin': -99.226986, 'ymin': 19.288981, 'xmax': -99.226986, 'ymax': 19.288981}",dining and drinking > restaurant > mexican restaurant > taco restaurant,1
5a6162cdd69ed07940ced0b8,Taqueria Doña Rufi,16.097901,-97.698376,,San José del Progreso,OAX,71803,,,,MX,2018-01-19,2020-11-23,,,,,,,,['4bf58dd8d48988d151941735'],['Dining and Drinking > Restaurant > Mexican Restaurant > Taco Restaurant'],b'\x00\x00\x00\x00\x01\xc0Xl\xb21@\x13\xec@0\x19\x10\n9>\xe6',"{'xmin': -97.698376, 'ymin': 16.097901, 'xmax': -97.698376, 'ymax': 16.097901}",dining and drinking > restaurant > mexican restaurant > taco restaurant,1
55347013498ee806993a783b,antojitos lalos,19.976422415870275,-102.27759711978098,,,,,,,,MX,2015-04-20,2021-08-13,,,,,,,,['4bf58dd8d48988d151941735'],['Dining and Drinking > Restaurant > Mexican Restaurant > Taco Restaurant'],b'\x00\x00\x00\x00\x01\xc0Y\x91\xc4&\xb5\xbb\x14@3\xf9\xf6\xd1\xc7>\x80',"{'xmin': -102.27759711978098, 'ymin': 19.976422415870275, 'xmax': -102.27759711978098, 'ymax': 19.976422415870275}",dining and drinking > restaurant > mexican restaurant > taco restaurant,1
53535c06498eaa07b6640a14,Quesadillas Emmy,14.665367144317756,-92.36727540706096,Playa Linda 3400,Tapachula,Chiapas,,,,,MX,2014-04-20,2020-11-23,,,,,,,,['4bf58dd8d48988d151941735'],['Dining and Drinking > Restaurant > Mexican Restaurant > Taco Restaurant'],b'\x00\x00\x00\x00\x01\xc0W\x17\x81p\xb5|\xec@-T\xab\x00\x99Z\xf8',"{'xmin': -92.36727540706096, 'ymin': 14.665367144317756, 'xmax': -92.36727540706096, 'ymax': 14.665367144317756}",dining and drinking > restaurant > mexican restaurant > taco restaurant,1
5287931011d299fbe1d56c11,Tacos La guera,18.79172706604004,-99.23236083984375,Los Pinos,Real Del Puente,Morelos,62790,,,,MX,2013-11-16,2020-11-24,,55 5412 1029,,,,,,['4bf58dd8d48988d151941735'],['Dining and Drinking > Restaurant > Mexican Restaurant > Taco Restaurant'],b'\x00\x00\x00\x00\x01\xc0X\xce\xdf\x00\x00\x00\x00@2\xca\xae\xa0\x00\x00\x00',"{'xmin': -99.23236083984375, 'ymin': 18.79172706604004, 'xmax': -99.23236083984375, 'ymax': 18.79172706604004}",dining and drinking > restaurant > mexican restaurant > taco restaurant,1
