fsq_place_id,name,latitude,longitude,address,locality,region,postcode,admin_region,post_town,po_box,country,date_created,date_refreshed,date_closed,tel,website,email,facebook_id,instagram,twitter,fsq_category_ids,fsq_category_labels,geom,bbox,labels_str,taco_restaurant
4db5aca50437fa536a45ffc4,Tacos El Güero,32.57243890473935,-116.63929043606318,,,,,,,,MX,2011-04-25,2021-08-12,,,,,,,,['4bf58dd8d48988d1c1941735' '4bf58dd8d48988d151941735'],"['Dining and Drinking > Restaurant > Mexican Restaurant'
 'Dining and Drinking > Restaurant > Mexican Restaurant > Taco Restaurant']","b'\x00\x00\x00\x00\x01\xc0](\xea""n\xe2]@@IE\xad\x93h#'","{'xmin': -116.63929043606318, 'ymin': 32.57243890473935, 'xmax': -116.63929043606318, 'ymax': 32.57243890473935}","dining and drinking > restaurant > mexican restaurant, dining and drinking > restaurant > mexican restaurant > taco restaurant",1
4f07f197e4b0540ca19d7892,Tacos Pepe,32.635333,-115.452338,,Mexicali,Baja California,,,,,MX,2012-01-07,2020-11-25,,,,,,,,['4bf58dd8d48988d151941735'],['Dining and Drinking > Restaurant > Mexican Restaurant > Taco Restaurant'],b'\x00\x00\x00\x00\x01\xc0\\\xdc\xf3\x1b\x15/<@@QR\x97|\x88\xe8',"{'xmin': -115.452338, 'ymin': 32.635333, 'xmax': -115.452338, 'ymax': 32.635333}",dining and drinking > restaurant > mexican restaurant > taco restaurant,1
4e8f4cd849013919da5f7729,Miguelito's,32.442606270052124,-117.03927616575432,Av. Transpeninsular,Tijuana,Baja California,,,,,MX,2011-10-07,2020-11-25,,664 400 0862,,,,,,['4bf58dd8d48988d151941735'],['Dining and Drinking > Restaurant > Mexican Restaurant > Taco Restaurant'],b'\x00\x00\x00\x00\x01\xc0]B\x83\x80-\xdbU@@8\xa7R\x7fpp',"{'xmin': -117.03927616575432, 'ymin': 32.442606270052124, 'xmax': -117.03927616575432, 'ymax': 32.442606270052124}",dining and drinking > restaurant > mexican restaurant > taco restaurant,1
4e2f798f45ddcf0f5c83a6cb,Sonora Mia,32.5236104225123,-117.02114071060505,Calle Rio Grijalva,Tijuana,BC,,,,,MX,2011-07-27,2023-12-21,,664 686 6454,,,,,,['4bf58dd8d48988d1c1941735' '4bf58dd8d48988d151941735'],"['Dining and Drinking > Restaurant > Mexican Restaurant'
 'Dining and Drinking > Restaurant > Mexican Restaurant > Taco Restaurant']",b'\x00\x00\x00\x00\x01\xc0]AZ^\x91*m@@C\x05\xaa\x94D}',"{'xmin': -117.02114071060505, 'ymin': 32.5236104225123, 'xmax': -117.02114071060505, 'ymax': 32.5236104225123}","dining and drinking > restaurant > mexican restaurant, dining and drinking > restaurant > mexican restaurant > taco restaurant",1
552c0f7b498ea8f3dc8e0757,Tacos El More,31.866639,-116.622027,,,,,,,,MX,2015-04-13,2021-08-13,,,,,,,,['4bf58dd8d48988d151941735'],['Dining and Drinking > Restaurant > Mexican Restaurant > Taco Restaurant'],"b""\x00\x00\x00\x00\x01\xc0]'\xcfJU\x8e\xa8@?\xdd\xdc\r\xb2p*""","{'xmin': -116.622027, 'ymin': 31.866639, 'xmax': -116.622027, 'ymax': 31.866639}",dining and drinking > restaurant > mexican restaurant > taco restaurant,1
4faf47bae4b08885ff99624f,Tacos Poblanos,32.63506866845059,-115.43437092689959,,,,,,,,MX,2012-05-13,2021-08-14,,,,,,,,['4bf58dd8d48988d151941735'],['Dining and Drinking > Restaurant > Mexican Restaurant > Taco Restaurant'],b'\x00\x00\x00\x00\x01\xc0\\\xdb\xcc\xbb\xb7W|@@QI\xee\x1c\xda\xd3',"{'xmin': -115.43437092689959, 'ymin': 32.63506866845059, 'xmax': -115.43437092689959, 'ymax': 32.63506866845059}",dining and drinking > restaurant > mexican restaurant > taco restaurant,1
5150c6f8e4b0ee7a9cfe6d36,Tacos Varios Y Carnitas Yorvi's,32.46800843764087,-116.95487236834353,,,,,,,,MX,2013-03-25,2021-08-12,,,,,,,,['4bf58dd8d48988d151941735'],['Dining and Drinking > Restaurant > Mexican Restaurant > Taco Restaurant'],b'\x00\x00\x00\x00\x01\xc0]=\x1c\xa0\xfex\xee@@;\xe7\xb3R\xf5\xb5',"{'xmin': -116.95487236834353, 'ymin': 32.46800843764087, 'xmax': -116.95487236834353, 'ymax': 32.46800843764087}",dining and drinking > restaurant > mexican restaurant > taco restaurant,1
517ac803e4b07e37ff72d283,Sonora Steak Taco,32.602663296741625,-115.3951802913427,,,,,,,,MX,2013-04-26,2024-01-03,,646 154 8335,http://www.sonorasteaktaco.com,,,,,['4bf58dd8d48988d151941735'],['Dining and Drinking > Restaurant > Mexican Restaurant > Taco Restaurant'],"b""\x00\x00\x00\x00\x01\xc0\\\xd9J\xa2F\xd5\xcd@@M$\x12'\x00\x9e""","{'xmin': -115.3951802913427, 'ymin': 32.602663296741625, 'xmax': -115.3951802913427, 'ymax': 32.602663296741625}",dining and drinking > restaurant > mexican restaurant > taco restaurant,1
562edbaa498eaeadf848c333,El Ranchero Elegante,32.495166382485884,-116.93382222414006,Plaza De Los Antojos Macroplaza,Tijuana,Baja California,,,,,MX,2015-10-27,2020-11-25,,,,,,,,['4bf58dd8d48988d151941735'],['Dining and Drinking > Restaurant > Mexican Restaurant > Taco Restaurant'],b'\x00\x00\x00\x00\x01\xc0];\xc3\xbeJ=i@@?a\x9c\xadm\x81',"{'xmin': -116.93382222414006, 'ymin': 32.495166382485884, 'xmax': -116.93382222414006, 'ymax': 32.495166382485884}",dining and drinking > restaurant > mexican restaurant > taco restaurant,1
5153c03ae4b08abb6fe2f541,Asadero D' Colores,32.649535256367066,-115.46099723560505,"Calle ""I""",Mexicali,B.C.,,,,,MX,2013-03-28,2023-12-19,,686 554 7832,,,,,,['4bf58dd8d48988d151941735'],['Dining and Drinking > Restaurant > Mexican Restaurant > Taco Restaurant'],b'\x00\x00\x00\x00\x01\xc0\\\xdd\x80\xfa\x8c\x9e\x16@@S#\xf8\xa5\xd9\x07',"{'xmin': -115.46099723560505, 'ymin': 32.649535256367066, 'xmax': -115.46099723560505, 'ymax': 32.649535256367066}",dining and drinking > restaurant > mexican restaurant > taco restaurant,1
5a790d675ba0462d5076ecf2,Tacos De Pollo Frito “El Marino”,32.540973,-117.012978,Av. Teniente Miguel Guerrero,Tijuana,BC,22400,,,,MX,2018-02-06,2020-11-24,,,,,,,,['4bf58dd8d48988d151941735' '4bf58dd8d48988d1c1941735'],"['Dining and Drinking > Restaurant > Mexican Restaurant > Taco Restaurant'
 'Dining and Drinking > Restaurant > Mexican Restaurant']",b'\x00\x00\x00\x00\x01\xc0]@\xd4\xa1\xaddR@@E>\x9ao\x82o',"{'xmin': -117.012978, 'ymin': 32.540973, 'xmax': -117.012978, 'ymax': 32.540973}","dining and drinking > restaurant > mexican restaurant > taco restaurant, dining and drinking > restaurant > mexican restaurant",1
4ed7189b4690bd08d85b908a,Asadero La Fiesta,32.62038686077458,-115.47944082671616,Blvd. Anáhuac,,BCN,,,,,MX,2011-12-01,2021-08-16,,,,,,,,['4bf58dd8d48988d151941735'],['Dining and Drinking > Restaurant > Mexican Restaurant > Taco Restaurant'],b'\x00\x00\x00\x00\x01\xc0\\\xde\xaf(\x93\xc7=@@Oh\xd6.\xf2\x8d',"{'xmin': -115.47944082671616, 'ymin': 32.62038686077458, 'xmax': -115.47944082671616, 'ymax': 32.62038686077458}",dining and drinking > restaurant > mexican restaurant > taco restaurant,1
5c684da2a6031c002c1e5b32,Tacos Juan Sao Paulo,20.7027,-103.3774,Asunción 1588,Guadalajara,Jalisco,44630,,,,MX,2019-02-16,2021-08-15,,,,,,,,['4bf58dd8d48988d151941735'],['Dining and Drinking > Restaurant > Mexican Restaurant > Taco Restaurant'],"b""\x00\x00\x00\x00\x01\xc0Y\xd8'RT`\xaa@4\xb3\xe4%\xae\xe62""","{'xmin': -103.3774, 'ymin': 20.7027, 'xmax': -103.3774, 'ymax': 20.7027}",dining and drinking > restaurant > mexican restaurant > taco restaurant,1
55288fd9498e7db100388df0,Tacos El Pariente,21.157182693481445,-100.92002868652344,,,,,,,,MX,2015-04-11,2021-08-15,,,,,,,,['4bf58dd8d48988d151941735'],['Dining and Drinking > Restaurant > Mexican Restaurant > Taco Restaurant'],b'\x00\x00\x00\x00\x01\xc0Y:\xe1\xc0\x00\x00\x00@5(= \x00\x00\x00',"{'xmin': -100.92002868652344, 'ymin': 21.157182693481445, 'xmax': -100.92002868652344, 'ymax': 21.157182693481445}",dining and drinking > restaurant > mexican restaurant > taco restaurant,1
54d9994a498e58e310b5503c,Tacos Toy,19.102869033813477,-104.30687713623047,,,,,,,,MX,2015-02-10,2021-08-12,,,,,,,,['4bf58dd8d48988d151941735'],['Dining and Drinking > Restaurant > Mexican Restaurant > Taco Restaurant'],b'\x00\x00\x00\x00\x01\xc0Z\x13\xa3\xe0\x00\x00\x00@3\x1aU\xa0\x00\x00\x00',"{'xmin': -104.30687713623047, 'ymin': 19.102869033813477, 'xmax': -104.30687713623047, 'ymax': 19.102869033813477}",dining and drinking > restaurant > mexican restaurant > taco restaurant,1
569300dd498e16fef8e371cf,tacos tacos,20.879501,-103.839264,Nicolás Bravo,Tequila,Jalisco,,,,,MX,2016-01-11,2020-11-23,,,,,,,,['4bf58dd8d48988d151941735'],['Dining and Drinking > Restaurant > Mexican Restaurant > Taco Restaurant'],b'\x00\x00\x00\x00\x01\xc0Y\xf5\xb6\x80Z-s@4\xe1&\xfa?\xcc\x9f',"{'xmin': -103.839264, 'ymin': 20.879501, 'xmax': -103.839264, 'ymax': 20.879501}",dining and drinking > restaurant > mexican restaurant > taco restaurant,1
613b6ba6c4da0e1eb9309786,Tacos Santos,20.608245,-103.088193,Camino A Santa Clara,Zapotlanejo,JAL,45430,,,,MX,2021-09-10,2021-09-10,,,,,,,,['4bf58dd8d48988d151941735'],['Dining and Drinking > Restaurant > Mexican Restaurant > Taco Restaurant'],b'\x00\x00\x00\x00\x01\xc0Y\xc5\xa4\xf4@\xaf\x1d@4\x9b\xb5\xf1\xbe\xf4\x9d',"{'xmin': -103.088193, 'ymin': 20.608245, 'xmax': -103.088193, 'ymax': 20.608245}",dining and drinking > restaurant > mexican restaurant > taco restaurant,1
5674c058498e7758fd809ad4,Tacos Cerezo,20.658439688890343,-103.37773036388161,Fresno 2209,Guadalajara,Jalisco,44900,,,,MX,2015-12-19,2021-08-13,,,,,,,,['4bf58dd8d48988d151941735'],['Dining and Drinking > Restaurant > Mexican Restaurant > Taco Restaurant'],"b'\x00\x00\x00\x00\x01\xc0Y\xd8,\xbb\xf9\xe4\xf9@4\xa8\x8f\x80\xe2,%'","{'xmin': -103.37773036388161, 'ymin': 20.658439688890343, 'xmax': -103.37773036388161, 'ymax': 20.658439688890343}",dining and drinking > restaurant > mexican restaurant > taco restaurant,1
513f4571e4b06d9f3ca3c4ee,Tacos De Barbacoa El Gordo Anaya,20.628523,-103.398763,,,,,,,,MX,2013-03-12,2021-08-11,,,,,,,,['4bf58dd8d48988d151941735'],['Dining and Drinking > Restaurant > Mexican Restaurant > Taco Restaurant'],b'\x00\x00\x00\x00\x01\xc0Y\xd9\x85U>\xf6\xb6@4\xa0\xe6\xe2!\xc8\xa8',"{'xmin': -103.398763, 'ymin': 20.628523, 'xmax': -103.398763, 'ymax': 20.628523}",dining and drinking > restaurant > mexican restaurant > taco restaurant,1
50a30582e4b068340ef9c5d4,Tacos Don Luis,20.51526889956228,-100.80675128586951,,,,,,,,MX,2012-11-14,2023-12-20,,461 169 4193,,,,,,['4bf58dd8d48988d151941735'],['Dining and Drinking > Restaurant > Mexican Restaurant > Taco Restaurant'],b'\x00\x00\x00\x00\x01\xc0Y3\xa1\xd0%41@4\x83\xe8\xa9\xa0D\x12',"{'xmin': -100.80675128586951, 'ymin': 20.51526889956228, 'xmax': -100.80675128586951, 'ymax': 20.51526889956228}",dining and drinking > restaurant > mexican restaurant > taco restaurant,1
51a17786498e30596b4ee15c,En los Tacos Del Vecino,20.771734,-103.439383,,,,,,,,MX,2013-05-26,2021-08-12,,,,,,,,['4bf58dd8d48988d151941735'],['Dining and Drinking > Restaurant > Mexican Restaurant > Taco Restaurant'],b'\x00\x00\x00\x00\x01\xc0Y\xdc\x1e\xd9\xdf\xda\xc7@4\xc5\x90\\\x036\x15',"{'xmin': -103.439383, 'ymin': 20.771734, 'xmax': -103.439383, 'ymax': 20.771734}",dining and drinking > restaurant > mexican restaurant > taco restaurant,1
505cd539e4b067ab6b9fa37e,Carnitas La Cruz,20.457386385515772,-100.79784230139809,,,,,,,,MX,2012-09-21,2020-11-30,,,,,,,,['4bf58dd8d48988d151941735'],['Dining and Drinking > Restaurant > Mexican Restaurant > Taco Restaurant'],"b""\x00\x00\x00\x00\x01\xc0Y3\x0f\xd9'\xf7\xb1@4u\x17F/m\x07""","{'xmin': -100.79784230139809, 'ymin': 20.457386385515772, 'xmax': -100.79784230139809, 'ymax': 20.457386385515772}",dining and drinking > restaurant > mexican restaurant > taco restaurant,1
62b8c65a88b0025981c36879,Taco Glorieta,20.336389,-102.018449,Blvd Adolfo López Mateos #300,La Piedad de Cabadas,MICH,59359,,,,MX,2022-06-26,2022-06-26,,,,,,,,['4bf58dd8d48988d151941735'],['Dining and Drinking > Restaurant > Mexican Restaurant > Taco Restaurant'],b'\x00\x00\x00\x00\x01\xc0Y\x81.D\xb6\xe96@4V\x1d\x96\xe9\xbb\xf1',"{'xmin': -102.018449, 'ymin': 20.336389, 'xmax': -102.018449, 'ymax': 20.336389}",dining and drinking > restaurant > mexican restaurant > taco restaurant,1
576174e1498e4980861b4c88,"Tacos De Birria Y Consome ""Elo""",21.16113815764974,-101.6678533042163,,,,,,,,MX,2016-06-15,2021-08-15,,,,,,,,['4bf58dd8d48988d151941735'],['Dining and Drinking > Restaurant > Mexican Restaurant > Taco Restaurant'],b'\x00\x00\x00\x00\x01\xc0Yj\xbe\x1b\xc9\x08\x9c@5)@Y\xad>K',"{'xmin': -101.6678533042163, 'ymin': 21.16113815764974, 'xmax': -101.6678533042163, 'ymax': 21.16113815764974}",dining and drinking > restaurant > mexican restaurant > taco restaurant,1
56509d6e498eb5b68e41b3ac,Gaspe,20.527341842651367,-100.84834289550781,,,,,,,,MX,2015-11-21,2021-08-11,,,,,,,,['4bf58dd8d48988d151941735'],['Dining and Drinking > Restaurant > Mexican Restaurant > Taco Restaurant'],b'\x00\x00\x00\x00\x01\xc0Y6K@\x00\x00\x00@4\x86\xff\xe0\x00\x00\x00',"{'xmin': -100.84834289550781, 'ymin': 20.527341842651367, 'xmax': -100.84834289550781, 'ymax': 20.527341842651367}",dining and drinking > restaurant > mexican restaurant > taco restaurant,1
52bbb7bb498e393e72a3cc74,tacos el torito,20.522964477539062,-100.82970428466797,,,,,,,,MX,2013-12-26,2021-08-14,,,,,,,,['4bf58dd8d48988d151941735'],['Dining and Drinking > Restaurant > Mexican Restaurant > Taco Restaurant'],b'\x00\x00\x00\x00\x01\xc0Y5\x19\xe0\x00\x00\x00@4\x85\xe1\x00\x00\x00\x00',"{'xmin': -100.82970428466797, 'ymin': 20.522964477539062, 'xmax': -100.82970428466797, 'ymax': 20.522964477539062}",dining and drinking > restaurant > mexican restaurant > taco restaurant,1
51ba0ee1498e7a6cb024bb7e,"Tacos del ""Bancomer""",20.632681805687408,-103.31809801307972,,,,,,,,MX,2013-06-13,2021-08-15,,,,,,,,['4bf58dd8d48988d151941735'],['Dining and Drinking > Restaurant > Mexican Restaurant > Taco Restaurant'],b'\x00\x00\x00\x00\x01\xc0Y\xd4[\xb7\xc4\xc6f@4\xa1\xf7oP3\x9f',"{'xmin': -103.31809801307972, 'ymin': 20.632681805687408, 'xmax': -103.31809801307972, 'ymax': 20.632681805687408}",dining and drinking > restaurant > mexican restaurant > taco restaurant,1
4f79f7aee4b0f52dbb6a0fcf,Tacos Paco,20.621189513415302,-103.36018687360801,,,,,,,,MX,2012-04-02,2021-08-15,,,,,,,,['4bf58dd8d48988d151941735'],['Dining and Drinking > Restaurant > Mexican Restaurant > Taco Restaurant'],b'\x00\x00\x00\x00\x01\xc0Y\xd7\rM>\xa6\x13@4\x9f\x06F\xa4\xbc\xa4',"{'xmin': -103.36018687360801, 'ymin': 20.621189513415302, 'xmax': -103.36018687360801, 'ymax': 20.621189513415302}",dining and drinking > restaurant > mexican restaurant > taco restaurant,1
523e047b11d24bf059e12145,Tacos La Bascula,20.705659560114807,-102.35172045414454,,Arandas,Jalisco,,,,,MX,2013-09-21,2020-11-23,,,,,,,,['4bf58dd8d48988d151941735'],['Dining and Drinking > Restaurant > Mexican Restaurant > Taco Restaurant'],b'\x00\x00\x00\x00\x01\xc0Y\x96\x82\x96\x81\xf8\xa5@4\xb4\xa6\x1a\xdc\xcd\x87',"{'xmin': -102.35172045414454, 'ymin': 20.705659560114807, 'xmax': -102.35172045414454, 'ymax': 20.705659560114807}",dining and drinking > restaurant > mexican restaurant > taco restaurant,1
5f3f3ce8354c107b17edcb9b,El Barbas,20.66302,-103.444798,,Zapopan,JAL,45010,,,,MX,2020-08-21,2020-11-25,,,,,,,,['4bf58dd8d48988d151941735'],['Dining and Drinking > Restaurant > Mexican Restaurant > Taco Restaurant'],b'\x00\x00\x00\x00\x01\xc0Y\xdcw\x92\x07\xd4\xe1@4\xa9\xbb\xad\xc0\x98\x0b',"{'xmin': -103.444798, 'ymin': 20.66302, 'xmax': -103.444798, 'ymax': 20.66302}",dining and drinking > restaurant > mexican restaurant > taco restaurant,1
58d7ef68a19e902b1713dd62,Tacos Torteados Doña Julia,20.231178,-103.56297,,Zacoalco de Torres,Jalisco,,,,,MX,2017-03-26,2020-11-22,,,,,,,,['4bf58dd8d48988d151941735'],['Dining and Drinking > Restaurant > Mexican Restaurant > Taco Restaurant'],b'\x00\x00\x00\x00\x01\xc0Y\xe4\x07\xb3R\xa8D@4;.{=\x8e\x00',"{'xmin': -103.56297, 'ymin': 20.231178, 'xmax': -103.56297, 'ymax': 20.231178}",dining and drinking > restaurant > mexican restaurant > taco restaurant,1
5363021811d263215cccad29,Sian Ka'an,19.2497022629089,-103.72037887573242,27 de septiembre,Colima,Colima,,,,,MX,2014-05-02,2020-11-30,,,,,,,,['4bf58dd8d48988d151941735'],['Dining and Drinking > Restaurant > Mexican Restaurant > Taco Restaurant'],b'\x00\x00\x00\x00\x01\xc0Y\xee\x1a\xb0\x00\x00\x00@3?\xec|\xcc\xeeQ',"{'xmin': -103.72037887573242, 'ymin': 19.2497022629089, 'xmax': -103.72037887573242, 'ymax': 19.2497022629089}",dining and drinking > restaurant > mexican restaurant > taco restaurant,1
6546995669d9cc125f1e785d,Casa De La Maria,31.322356,-113.540283,,Puerto Peñasco,Son.,83550,,,,MX,2023-11-04,2023-11-04,,,,,,,,['4bf58dd8d48988d1c1941735' '4bf58dd8d48988d151941735'],"['Dining and Drinking > Restaurant > Mexican Restaurant'
 'Dining and Drinking > Restaurant > Mexican Restaurant > Taco Restaurant']",b'\x00\x00\x00\x00\x01\xc0\\b\x93\xff%\xe5m@?R\x85\xec=\xab\\',"{'xmin': -113.540283, 'ymin': 31.322356, 'xmax': -113.540283, 'ymax': 31.322356}","dining and drinking > restaurant > mexican restaurant, dining and drinking > restaurant > mexican restaurant > taco restaurant",1
56d7a282cd102c4fd1abed00,"Taqueria ""El BOLI""",19.256297384622627,-103.70942269710645,,,,,,,,MX,2016-03-03,2021-08-17,,,,,,,,['4bf58dd8d48988d151941735'],['Dining and Drinking > Restaurant > Mexican Restaurant > Taco Restaurant'],b'\x00\x00\x00\x00\x01\xc0Y\xedg.t\xc70@3A\x9c\xb4\x95\x01(',"{'xmin': -103.70942269710645, 'ymin': 19.256297384622627, 'xmax': -103.70942269710645, 'ymax': 19.256297384622627}",dining and drinking > restaurant > mexican restaurant > taco restaurant,1
55ac62fe498efb517e353204,Tacos De La Curva,20.148725159574543,-101.17696339920178,,,,,,,,MX,2015-07-20,2021-08-13,,,,,,,,['4bf58dd8d48988d151941735'],['Dining and Drinking > Restaurant > Mexican Restaurant > Taco Restaurant'],b'\x00\x00\x00\x00\x01\xc0YKS^K\nH@4&\x12\xda w\r',"{'xmin': -101.17696339920178, 'ymin': 20.148725159574543, 'xmax': -101.17696339920178, 'ymax': 20.148725159574543}",dining and drinking > restaurant > mexican restaurant > taco restaurant,1
4f83a084e4b0355f68359658,"tacos ""el chino""",20.629259534405787,-103.40448072093938,,,,,,,,MX,2012-04-10,2021-08-15,,,,,,,,['4bf58dd8d48988d151941735'],['Dining and Drinking > Restaurant > Mexican Restaurant > Taco Restaurant'],"b""\x00\x00\x00\x00\x01\xc0Y\xd9\xe3\x03\x1b\x13\x04@4\xa1\x17' \xf8\x13""","{'xmin': -103.40448072093938, 'ymin': 20.629259534405787, 'xmax': -103.40448072093938, 'ymax': 20.629259534405787}",dining and drinking > restaurant > mexican restaurant > taco restaurant,1
4ec3e9390aafcf9a80cf8e18,Tacos Los Rojos,21.161908,-101.683792,Blvd. A. López Mateos 3101-A,León de Los Aldama,Guanajuato,,,,,MX,2011-11-16,2020-11-23,,,,,,,,['4bf58dd8d48988d151941735'],['Dining and Drinking > Restaurant > Mexican Restaurant > Taco Restaurant'],b'\x00\x00\x00\x00\x01\xc0Yk\xc3?\x85Q\r@5)r\xcd|\xf5\xf5',"{'xmin': -101.683792, 'ymin': 21.161908, 'xmax': -101.683792, 'ymax': 21.161908}",dining and drinking > restaurant > mexican restaurant > taco restaurant,1
51e6e870498e892e722cb107,Ahogadas La 51,21.352734408670415,-101.93785197786008,Hidalgo 755,Lagos De Moreno,Jal,47400,,,,MX,2013-07-17,2020-11-21,,,,,,,,['4bf58dd8d48988d151941735' '4bf58dd8d48988d1c1941735'],"['Dining and Drinking > Restaurant > Mexican Restaurant > Taco Restaurant'
 'Dining and Drinking > Restaurant > Mexican Restaurant']",b'\x00\x00\x00\x00\x01\xc0Y|\x05\xc4MYx@5ZL\xcd]i\xd0',"{'xmin': -101.93785197786008, 'ymin': 21.352734408670415, 'xmax': -101.93785197786008, 'ymax': 21.352734408670415}","dining and drinking > restaurant > mexican restaurant > taco restaurant, dining and drinking > restaurant > mexican restaurant",1
53f39a43498e6a513a9cadeb,El Taco Bravo,20.748405,-105.250363,Plaza San Vicente Centró,San Vicente,Nayarit,63737,,,,MX,2014-08-19,2020-11-24,,322 199 1349,,,1396278807327135.0,,,"['4bf58dd8d48988d1c1941735' '4bf58dd8d48988d151941735'
 '4bf58dd8d48988d16e941735']","['Dining and Drinking > Restaurant > Mexican Restaurant'
 'Dining and Drinking > Restaurant > Mexican Restaurant > Taco Restaurant'
 'Dining and Drinking > Restaurant > Fast Food Restaurant']",b'\x00\x00\x00\x00\x01\xc0ZP\x05\xf2\x88H8@4\xbf\x97xW)\xb3',"{'xmin': -105.250363, 'ymin': 20.748405, 'xmax': -105.250363, 'ymax': 20.748405}","dining and drinking > restaurant > mexican restaurant, dining and drinking > restaurant > mexican restaurant > taco restaurant, dining and drinking > restaurant > fast food restaurant",1
5c4f89b960255e002c4e1514,La Taqueria “Tacos Y Cortes”,20.537097,-100.800879,,Celaya,GTO,38030,,,,MX,2019-01-28,2020-11-22,,,,,,,,['4bf58dd8d48988d151941735'],['Dining and Drinking > Restaurant > Mexican Restaurant > Taco Restaurant'],b'\x00\x00\x00\x00\x01\xc0Y3A\x99\xfeCg@4\x89\x7f0a\xc7\x9b',"{'xmin': -100.800879, 'ymin': 20.537097, 'xmax': -100.800879, 'ymax': 20.537097}",dining and drinking > restaurant > mexican restaurant > taco restaurant,1
659ebdd9669da75444d102bc,Longcheria,20.603378,-105.232677,,Puerto Vallarta,Jal.,48380,,,,MX,2024-01-10,2024-01-10,,,,,,,,['4bf58dd8d48988d151941735'],['Dining and Drinking > Restaurant > Mexican Restaurant > Taco Restaurant'],b'\x00\x00\x00\x00\x01\xc0ZN\xe4.\x12b\x02@4\x9av\xfb\t :',"{'xmin': -105.232677, 'ymin': 20.603378, 'xmax': -105.232677, 'ymax': 20.603378}",dining and drinking > restaurant > mexican restaurant > taco restaurant,1
f34ece5a601c41eb70a01f3c,Tamales Penjamo,20.937012,-101.419998,Penjamo 12,Silao,Guanajuato,36149,,,,MX,2013-05-03,2023-12-06,,472 791 7239,,,,,,['4bf58dd8d48988d151941735'],['Dining and Drinking > Restaurant > Mexican Restaurant > Taco Restaurant'],b'\x00\x00\x00\x00\x01\xc0YZ\xe1?J\x98\xab@4\xef\xe0\x04\xb7\xf5\xa5',"{'xmin': -101.419998, 'ymin': 20.937012, 'xmax': -101.419998, 'ymax': 20.937012}",dining and drinking > restaurant > mexican restaurant > taco restaurant,1
53c872bf498e889ccf186327,La Pingüina,20.672250185869807,-101.37535396173399,Mariano J. García,,,,,,,MX,2014-07-18,2024-08-24,2024-08-24,,,,,,,['4bf58dd8d48988d151941735'],['Dining and Drinking > Restaurant > Mexican Restaurant > Taco Restaurant'],b'\x00\x00\x00\x00\x01\xc0YX\x05\xcc\x9f\x84\x94@4\xac\x18\x96\x93\nn',"{'xmin': -101.37535396173399, 'ymin': 20.672250185869807, 'xmax': -101.37535396173399, 'ymax': 20.672250185869807}",dining and drinking > restaurant > mexican restaurant > taco restaurant,1
523d13b511d26f235720e243,Tacos Chay,20.386842727661133,-101.18970489501953,Guadalupe Victoria 101,Valle de Santiago,Guanajuato,38400,,,,MX,2013-09-21,2020-11-24,,,,,,,,['4bf58dd8d48988d151941735'],['Dining and Drinking > Restaurant > Mexican Restaurant > Taco Restaurant'],b'\x00\x00\x00\x00\x01\xc0YL$ \x00\x00\x00@4c\x08 \x00\x00\x00',"{'xmin': -101.18970489501953, 'ymin': 20.386842727661133, 'xmax': -101.18970489501953, 'ymax': 20.386842727661133}",dining and drinking > restaurant > mexican restaurant > taco restaurant,1
63f0efad749e6a66b590a2ba,Tacos Bronceados El Nene,20.67423,-103.412025,Calz. Lázaro Cárdenas,Zapopan,Jalisco,45040,,,,MX,2023-02-18,2023-02-18,,,,,,,,['4bf58dd8d48988d151941735'],['Dining and Drinking > Restaurant > Mexican Restaurant > Taco Restaurant'],b'\x00\x00\x00\x00\x01\xc0Y\xda^\x9e\x1b\x08\x9a@4\xac\x9aVW\xfbj',"{'xmin': -103.412025, 'ymin': 20.67423, 'xmax': -103.412025, 'ymax': 20.67423}",dining and drinking > restaurant > mexican restaurant > taco restaurant,1
51b83703498ee89a9dfbe79e,Taqueria El Charco,20.543331269107696,-100.82092286081001,,,,,,,,MX,2013-06-12,2021-08-13,,,,,,,,['4bf58dd8d48988d151941735'],['Dining and Drinking > Restaurant > Mexican Restaurant > Taco Restaurant'],b'\x00\x00\x00\x00\x01\xc0Y4\x8a\x00\t\xed\xf0@4\x8b\x17\xc2\x0f\xb64',"{'xmin': -100.82092286081001, 'ymin': 20.543331269107696, 'xmax': -100.82092286081001, 'ymax': 20.543331269107696}",dining and drinking > restaurant > mexican restaurant > taco restaurant,1
4e9a36a1dab4d1d4ac0358e5,Tacos Pancho,19.388364997092694,-103.55447787211874,,Queseria,Cuahutemoc/Colima,,,,,MX,2011-10-16,2020-11-25,,,,,,,,['4bf58dd8d48988d151941735'],['Dining and Drinking > Restaurant > Mexican Restaurant > Taco Restaurant'],b'\x00\x00\x00\x00\x01\xc0Y\xe3|\x90\xc1\xc6\xc3@3ck\xe3ql\x9c',"{'xmin': -103.55447787211874, 'ymin': 19.388364997092694, 'xmax': -103.55447787211874, 'ymax': 19.388364997092694}",dining and drinking > restaurant > mexican restaurant > taco restaurant,1
56809fc7498e93106b5099c5,Artutacos,20.582883025056702,-103.38518284715998,,,,,,,,MX,2015-12-28,2021-08-14,,,,,,,,['4bf58dd8d48988d151941735'],['Dining and Drinking > Restaurant > Mexican Restaurant > Taco Restaurant'],b'\x00\x00\x00\x00\x01\xc0Y\xd8\xa6\xd5\xf4\xe2\x11@4\x957\xd2j\x03\x18',"{'xmin': -103.38518284715998, 'ymin': 20.582883025056702, 'xmax': -103.38518284715998, 'ymax': 20.582883025056702}",dining and drinking > restaurant > mexican restaurant > taco restaurant,1
5771ae57498e80d8db1b9ef4,Flautas Los García,20.66073,-103.293,,Guadalajara,,,,,,MX,2016-06-27,2023-02-15,,,,,,,,['4bf58dd8d48988d151941735'],['Dining and Drinking > Restaurant > Mexican Restaurant > Taco Restaurant'],b'\x00\x00\x00\x00\x01\xc0Y\xd2\xc0\x83\x12n\x98@4\xa9%\x99\xed|p',"{'xmin': -103.293, 'ymin': 20.66073, 'xmax': -103.293, 'ymax': 20.66073}",dining and drinking > restaurant > mexican restaurant > taco restaurant,1
58083bcd38fa65f591783579,sahuaro Estadio Charros Jalisco,20.726603,-103.38516,,,,,,,,MX,2016-10-20,2021-08-11,,,,,,,,['4bf58dd8d48988d151941735'],['Dining and Drinking > Restaurant > Mexican Restaurant > Taco Restaurant'],"b'\x00\x00\x00\x00\x01\xc0Y\xd8\xa6v \xee\x8d@4\xba\x02\xa7z,\xed'","{'xmin': -103.38516, 'ymin': 20.726603, 'xmax': -103.38516, 'ymax': 20.726603}",dining and drinking > restaurant > mexican restaurant > taco restaurant,1
5048b5f0e4b0e55a9663d1eb,Tacostumbras,20.398148,-101.184891,,Valle De Santiago,Guanajuato,,,,,MX,2012-09-06,2020-11-25,,,,,,,,['4bf58dd8d48988d151941735'],['Dining and Drinking > Restaurant > Mexican Restaurant > Taco Restaurant'],b'\x00\x00\x00\x00\x01\xc0YK\xd5A\x0f\x94\xc8@4e\xed\x06\xfe\xf7\xc2',"{'xmin': -101.184891, 'ymin': 20.398148, 'xmax': -101.184891, 'ymax': 20.398148}",dining and drinking > restaurant > mexican restaurant > taco restaurant,1
517d5753e4b0a1998139dc35,Gorditas Y Tacos Nacho,20.624199,-103.24225,,,,,,,,MX,2013-04-28,2021-08-17,,,,,,,,['4bf58dd8d48988d151941735'],['Dining and Drinking > Restaurant > Mexican Restaurant > Taco Restaurant'],"b""\x00\x00\x00\x00\x01\xc0Y\xcf\x81\x06$\xdd/@4\x9f\xcb\x81s2'""","{'xmin': -103.24225, 'ymin': 20.624199, 'xmax': -103.24225, 'ymax': 20.624199}",dining and drinking > restaurant > mexican restaurant > taco restaurant,1
66cb732c1bd5c323c7410eb6,Mixiote Hidrocalido,21.861238,-102.282636,134 Avenida Héroe de Nacozari Sur,Aguascalientes,Ags.,20270,,,,MX,2024-08-25,2024-08-25,,449 256 5483,,,,,,['4bf58dd8d48988d151941735'],['Dining and Drinking > Restaurant > Mexican Restaurant > Taco Restaurant'],b'\x00\x00\x00\x00\x01\xc0Y\x92\x16\xb5N+\x06@5\xdcz\x17\xf4\x12\x8c',"{'xmin': -102.282636, 'ymin': 21.861238, 'xmax': -102.282636, 'ymax': 21.861238}",dining and drinking > restaurant > mexican restaurant > taco restaurant,1
4f53affee4b07e4c6405cd83,Tortas Ahogadas Emporio,20.71452920097634,-103.36861201070478,lago camécuaro 2481,zapopan,,45178,,,,MX,2012-03-04,2020-11-23,,,,,,,,['4bf58dd8d48988d151941735'],['Dining and Drinking > Restaurant > Mexican Restaurant > Taco Restaurant'],b'\x00\x00\x00\x00\x01\xc0Y\xd7\x97V\xd4\xb8\xf3@4\xb6\xebb\xbe:\xfb',"{'xmin': -103.36861201070478, 'ymin': 20.71452920097634, 'xmax': -103.36861201070478, 'ymax': 20.71452920097634}",dining and drinking > restaurant > mexican restaurant > taco restaurant,1
577682c0cd102e6383b8ec0a,Tacos Hayde-todo,20.656834,-103.398174,Cubilete 2965,Guadalajara,Jalisco,,,,,MX,2016-07-01,2021-08-12,2016-12-01,,,,,,,['4bf58dd8d48988d151941735'],['Dining and Drinking > Restaurant > Mexican Restaurant > Taco Restaurant'],b'\x00\x00\x00\x00\x01\xc0Y\xd9{\xae\xcd\x07\x85@4\xa8&E\xe4\xe6\x9f',"{'xmin': -103.398174, 'ymin': 20.656834, 'xmax': -103.398174, 'ymax': 20.656834}",dining and drinking > restaurant > mexican restaurant > taco restaurant,1
571a384c38fa812cd9df806e,TACOS MIREY,20.676550410225758,-103.36260671619203,Nicolás Romero,Americana,Jalisco,44160,,,,MX,2016-04-22,2020-11-25,,,,,,,,['4bf58dd8d48988d151941735'],['Dining and Drinking > Restaurant > Mexican Restaurant > Taco Restaurant'],b'\x00\x00\x00\x00\x01\xc0Y\xd74\xf2\xcc\xd6\xb4@4\xad2h^\x03\xd8',"{'xmin': -103.36260671619203, 'ymin': 20.676550410225758, 'xmax': -103.36260671619203, 'ymax': 20.676550410225758}",dining and drinking > restaurant > mexican restaurant > taco restaurant,1
4c2ea90a213c2d7fd7ad2f5d,Los Pingüinos,20.68435976938779,-101.35531099001564,Blvd. Lázaro Cardenas,Irapuato,GTO,,,,,MX,2010-07-03,2020-11-25,,,,,,,,['4bf58dd8d48988d151941735' '4bf58dd8d48988d1c1941735'],"['Dining and Drinking > Restaurant > Mexican Restaurant > Taco Restaurant'
 'Dining and Drinking > Restaurant > Mexican Restaurant']",b'\x00\x00\x00\x00\x01\xc0YV\xbdjN\x81\xb3@4\xaf23\xac7\xfa',"{'xmin': -101.35531099001564, 'ymin': 20.68435976938779, 'xmax': -101.35531099001564, 'ymax': 20.68435976938779}","dining and drinking > restaurant > mexican restaurant > taco restaurant, dining and drinking > restaurant > mexican restaurant",1
50d38ae3e4b0943e851ad316,Tacos de canasta Güera,20.721184520161703,-100.76255317617606,Juárez,Comonfort,Guanajuato,38200,,,,MX,2012-12-20,2020-11-30,,,,,,,,['4bf58dd8d48988d151941735'],['Dining and Drinking > Restaurant > Mexican Restaurant > Taco Restaurant'],b'\x00\x00\x00\x00\x01\xc0Y0\xcd\xab\xd6H\xc6@4\xb8\x9f\x8cxy\xd9',"{'xmin': -100.76255317617606, 'ymin': 20.721184520161703, 'xmax': -100.76255317617606, 'ymax': 20.721184520161703}",dining and drinking > restaurant > mexican restaurant > taco restaurant,1
51c9b15b498e44cfa117ae9d,Tacos los primos,21.134858577656576,-101.65803956992491,,,,,,,,MX,2013-06-25,2021-08-15,,,,,,,,['4bf58dd8d48988d151941735'],['Dining and Drinking > Restaurant > Mexican Restaurant > Taco Restaurant'],"b'\x00\x00\x00\x00\x01\xc0Yj\x1dR\x00\x13J@5""\x86\x17|\x9e\xbd'","{'xmin': -101.65803956992491, 'ymin': 21.134858577656576, 'xmax': -101.65803956992491, 'ymax': 21.134858577656576}",dining and drinking > restaurant > mexican restaurant > taco restaurant,1
4e5fbc36a809d2e6f3691b0a,Tacos de barbacoa al lado del CuC,20.707202893508253,-105.22125487425387,Av. Universidad,Puerto Vallarta,Jalisco,,,,,MX,2011-09-01,2020-11-26,,,,,,,,['4bf58dd8d48988d151941735'],['Dining and Drinking > Restaurant > Mexican Restaurant > Taco Restaurant'],b'\x00\x00\x00\x00\x01\xc0ZN)\n4@\x10@4\xb5\x0b?\xb3A(',"{'xmin': -105.22125487425387, 'ymin': 20.707202893508253, 'xmax': -105.22125487425387, 'ymax': 20.707202893508253}",dining and drinking > restaurant > mexican restaurant > taco restaurant,1
5aa20ed28c812a40bb05a5b1,Taqueriendo,19.2434,-103.72908,,Colima,Colima,28000,,,,MX,2018-03-09,2020-11-23,,,,,,,,['4bf58dd8d48988d151941735'],['Dining and Drinking > Restaurant > Mexican Restaurant > Taco Restaurant'],b'\x00\x00\x00\x00\x01\xc0Y\xee\xa9?)\n\xbb@3>Ov_\xd8\xae',"{'xmin': -103.72908, 'ymin': 19.2434, 'xmax': -103.72908, 'ymax': 19.2434}",dining and drinking > restaurant > mexican restaurant > taco restaurant,1
4d39ea4097e0a1cdecba683e,La Terraza,20.632397077698474,-103.40832160090416,,,,,,,,MX,2011-01-21,2021-08-14,,,,,,,,['4bf58dd8d48988d151941735'],['Dining and Drinking > Restaurant > Mexican Restaurant > Taco Restaurant'],b'\x00\x00\x00\x00\x01\xc0Y\xda!\xf0\xec\x88\x8f@4\xa1\xe4\xc6^\xcd\t',"{'xmin': -103.40832160090416, 'ymin': 20.632397077698474, 'xmax': -103.40832160090416, 'ymax': 20.632397077698474}",dining and drinking > restaurant > mexican restaurant > taco restaurant,1
4e2f5c3a814da3d0f22a6a86,El tambo tacos y cortes,20.744703625665327,-103.42360780135044,Federalistas #1419,Zapopan,Jalisco,,,,,MX,2011-07-27,2023-12-21,,33 1561 0218,,,,,,['4bf58dd8d48988d151941735'],['Dining and Drinking > Restaurant > Mexican Restaurant > Taco Restaurant'],b'\x00\x00\x00\x00\x01\xc0Y\xdb\x1cc\xe5H\\@4\xbe\xa4\xe5\x95q\xf9',"{'xmin': -103.42360780135044, 'ymin': 20.744703625665327, 'xmax': -103.42360780135044, 'ymax': 20.744703625665327}",dining and drinking > restaurant > mexican restaurant > taco restaurant,1
51eb240a498e0610210cbc83,"Tacos De Carnitas ""De Puerco Y Puerca""",19.06423568725586,-104.28583526611328,Andador 2,Manzanillo,Colima,28219,,,,MX,2013-07-20,2020-11-25,2013-09-14,,,,,,,['4bf58dd8d48988d151941735'],['Dining and Drinking > Restaurant > Mexican Restaurant > Taco Restaurant'],b'\x00\x00\x00\x00\x01\xc0Z\x12K \x00\x00\x00@3\x10q\xc0\x00\x00\x00',"{'xmin': -104.28583526611328, 'ymin': 19.06423568725586, 'xmax': -104.28583526611328, 'ymax': 19.06423568725586}",dining and drinking > restaurant > mexican restaurant > taco restaurant,1
562f1987498ea43b747e5935,Tacos Goya,22.157273,-100.987976,,,,,,,,MX,2015-10-27,2021-08-17,,,,,,,,['4bf58dd8d48988d151941735'],['Dining and Drinking > Restaurant > Mexican Restaurant > Taco Restaurant'],b'\x00\x00\x00\x00\x01\xc0Y?:\xff\xb0N\xe8@6(C\x0b\x17\x8b7',"{'xmin': -100.987976, 'ymin': 22.157273, 'xmax': -100.987976, 'ymax': 22.157273}",dining and drinking > restaurant > mexican restaurant > taco restaurant,1
4e42a0ced4c0557c35b922b5,Tacos al Vapor El Callejero,21.904160465516558,-102.30999801008637,,Aguascalientes,AGS,,,,,MX,2011-08-10,2020-11-25,,,,,,,,['4bf58dd8d48988d151941735'],['Dining and Drinking > Restaurant > Mexican Restaurant > Taco Restaurant'],b'\x00\x00\x00\x00\x01\xc0Y\x93\xd7\x01\xe4\xc9Y@5\xe7w\x0fm\xba\xd1',"{'xmin': -102.30999801008637, 'ymin': 21.904160465516558, 'xmax': -102.30999801008637, 'ymax': 21.904160465516558}",dining and drinking > restaurant > mexican restaurant > taco restaurant,1
61ad0c3185543d73afeff5c6,El Rey Del Borrego Barbacoa Estilo Hidalgo,20.629606,-103.450997,Prolongacion mariano Otero 1550,Zapopan,JAL,45067,,,,MX,2021-12-05,2023-09-13,,,,,,,,['4bf58dd8d48988d151941735'],['Dining and Drinking > Restaurant > Mexican Restaurant > Taco Restaurant'],"b'\x00\x00\x00\x00\x01\xc0Y\xdc\xdd""\x85f\x06@4\xa1-\xdb\xdb]\x89'","{'xmin': -103.450997, 'ymin': 20.629606, 'xmax': -103.450997, 'ymax': 20.629606}",dining and drinking > restaurant > mexican restaurant > taco restaurant,1
50143a84e4b0abd875a68767,Tacos el caporal,21.161894627756137,-101.68551248867283,,,,,,,,MX,2012-07-28,2021-08-10,,,,,,,,['4bf58dd8d48988d151941735'],['Dining and Drinking > Restaurant > Mexican Restaurant > Taco Restaurant'],b'\x00\x00\x00\x00\x01\xc0Yk\xdfo\xc5\xf6\\@5)q\xed#\x9cW',"{'xmin': -101.68551248867283, 'ymin': 21.161894627756137, 'xmax': -101.68551248867283, 'ymax': 21.161894627756137}",dining and drinking > restaurant > mexican restaurant > taco restaurant,1
5779c745498ef16b73a98dce,Cenaduría de Angélica,20.136031,-101.193167,,,,,,,,MX,2016-07-04,2021-08-13,,,,,,,,['4bf58dd8d48988d151941735'],['Dining and Drinking > Restaurant > Mexican Restaurant > Taco Restaurant'],"b'\x00\x00\x00\x00\x01\xc0YL\\\xd9\x1e\xea\xa7@4""\xd2\xedx=\xff'","{'xmin': -101.193167, 'ymin': 20.136031, 'xmax': -101.193167, 'ymax': 20.136031}",dining and drinking > restaurant > mexican restaurant > taco restaurant,1
63ae61b1dbf4d836a44ee590,El Pocas,20.900182,-105.413646,,San Francisco,NAY,63732,,,,MX,2022-12-30,2022-12-30,,,,,,,,['4bf58dd8d48988d151941735'],['Dining and Drinking > Restaurant > Mexican Restaurant > Taco Restaurant'],b'\x00\x00\x00\x00\x01\xc0ZZy-\x12\x87\xc2@4\xe6rS\xdar\xa8',"{'xmin': -105.413646, 'ymin': 20.900182, 'xmax': -105.413646, 'ymax': 20.900182}",dining and drinking > restaurant > mexican restaurant > taco restaurant,1
518285e0498e3930a19f34d4,Las Kekas,20.73961067199707,-103.38224029541016,,,,,,,,MX,2013-05-02,2021-08-11,,,,,,,,['4bf58dd8d48988d151941735'],['Dining and Drinking > Restaurant > Mexican Restaurant > Taco Restaurant'],b'\x00\x00\x00\x00\x01\xc0Y\xd8v\xa0\x00\x00\x00@4\xbdW \x00\x00\x00',"{'xmin': -103.38224029541016, 'ymin': 20.73961067199707, 'xmax': -103.38224029541016, 'ymax': 20.73961067199707}",dining and drinking > restaurant > mexican restaurant > taco restaurant,1
050e922bbf9c48f844c9b1ba,Tacos de Canasta la Mexicanita,20.695323,-101.366425,Jose Vazquez 224,Irapuato,Guanajuato,36611,,,,MX,2010-11-04,2023-12-06,,462 624 0018,,,,,,['4bf58dd8d48988d151941735' '63be6904847c3692a84b9bf0'],"['Dining and Drinking > Restaurant > Mexican Restaurant > Taco Restaurant'
 'Retail > Food and Beverage Retail > Meat and Seafood Store']",b'\x00\x00\x00\x00\x01\xc0YWs\x81\xd7\xdb\xf5@4\xb2\x00\xb0)(\x17',"{'xmin': -101.366425, 'ymin': 20.695323, 'xmax': -101.366425, 'ymax': 20.695323}","dining and drinking > restaurant > mexican restaurant > taco restaurant, retail > food and beverage retail > meat and seafood store",1
52883287498e08300a2e6ad1,"Tacos ""La Gorda""",21.078845,-101.653726,,,,,,,,MX,2013-11-17,2021-08-12,,,,,,,,['4bf58dd8d48988d151941735'],['Dining and Drinking > Restaurant > Mexican Restaurant > Taco Restaurant'],b'\x00\x00\x00\x00\x01\xc0Yi\xd6\xa5\x93\xa2\xe0@5\x14//\x98t\x00',"{'xmin': -101.653726, 'ymin': 21.078845, 'xmax': -101.653726, 'ymax': 21.078845}",dining and drinking > restaurant > mexican restaurant > taco restaurant,1
65638b8d109c2d08be23f496,La Jalisco Tacos De Barbacoa,19.245611,-103.73731,Fray Pedro de Gante 250,Colima,Colima,28050,,,,MX,2023-11-26,2023-11-26,,,,,,,,['4bf58dd8d48988d151941735'],['Dining and Drinking > Restaurant > Mexican Restaurant > Taco Restaurant'],b'\x00\x00\x00\x00\x01\xc0Y\xef0\x16H@\xe1@3>\xe0\\\xcc\x89\xb1',"{'xmin': -103.73731, 'ymin': 19.245611, 'xmax': -103.73731, 'ymax': 19.245611}",dining and drinking > restaurant > mexican restaurant > taco restaurant,1
4dbcd1eb6a23e294ba38fb18,El Carnes,21.874374,-102.3124,Av. Adolfo Lopez Mateos,Aguascalientes,AGS,,,,,MX,2011-05-01,2020-11-23,,,http://elcarnes.com,,,,,['4bf58dd8d48988d151941735'],['Dining and Drinking > Restaurant > Mexican Restaurant > Taco Restaurant'],b'\x00\x00\x00\x00\x01\xc0Y\x93\xfe\\\x91\xd1N@5\xdf\xd6\xf9vy\x03',"{'xmin': -102.3124, 'ymin': 21.874374, 'xmax': -102.3124, 'ymax': 21.874374}",dining and drinking > restaurant > mexican restaurant > taco restaurant,1
4e592b0f62e1de72f6ede2b5,Los Tripones Tortas Ahogadas,20.68439794075527,-103.35295590523316,Juan Alvarez y Mezquitan,Guadalajara,Jalisco,44200,,,,MX,2011-08-27,2021-08-17,,,,,,,,['4bf58dd8d48988d151941735'],['Dining and Drinking > Restaurant > Mexican Restaurant > Taco Restaurant'],b'\x00\x00\x00\x00\x01\xc0Y\xd6\x96\xd4]z\x04@4\xaf4\xb4\x14\xfe_',"{'xmin': -103.35295590523316, 'ymin': 20.68439794075527, 'xmax': -103.35295590523316, 'ymax': 20.68439794075527}",dining and drinking > restaurant > mexican restaurant > taco restaurant,1
52d359d9498e37c04cdf1092,"Taqueria ""La Chávez""",21.874656,-102.294775,,,,,,,,MX,2014-01-13,2021-08-17,,,,,,,,['4bf58dd8d48988d151941735'],['Dining and Drinking > Restaurant > Mexican Restaurant > Taco Restaurant'],b'\x00\x00\x00\x00\x01\xc0Y\x92\xdd\x97\xf6+k@5\xdf\xe9t\xa3@\x0c',"{'xmin': -102.294775, 'ymin': 21.874656, 'xmax': -102.294775, 'ymax': 21.874656}",dining and drinking > restaurant > mexican restaurant > taco restaurant,1
54a1960f498e2489117bf42f,Tacos De Pescado Tía Olga,19.251310081369805,-103.75550807530526,Jacinto Treviño,Villa De Alvarez,Colima,28984,,,,MX,2014-12-29,2020-11-25,,,,,,,,['4bf58dd8d48988d151941735'],['Dining and Drinking > Restaurant > Mexican Restaurant > Taco Restaurant'],b'\x00\x00\x00\x00\x01\xc0Y\xf0Z>\x8a\xd33@3@U\xdb\x84\xa3o',"{'xmin': -103.75550807530526, 'ymin': 19.251310081369805, 'xmax': -103.75550807530526, 'ymax': 19.251310081369805}",dining and drinking > restaurant > mexican restaurant > taco restaurant,1
594ec4c2da70805cd9d60c45,Tacos Don Quique,22.146477,-100.9219,,Soledad de Graciano Sánchez,San Luis Potosí,,,,,MX,2017-06-24,2020-11-30,,,,,,,,['4bf58dd8d48988d151941735'],['Dining and Drinking > Restaurant > Mexican Restaurant > Taco Restaurant'],b'\x00\x00\x00\x00\x01\xc0Y;\x00h\xdb\x8b\xac@6%\x7f\x84D\x9d\xbf',"{'xmin': -100.9219, 'ymin': 22.146477, 'xmax': -100.9219, 'ymax': 22.146477}",dining and drinking > restaurant > mexican restaurant > taco restaurant,1
582a73b148fb401179e94b8b,"Tacos ""El Cebollin""",20.741386,-101.337204,,Ex-Hacienda del Copal,Guanajuato,,,,,MX,2016-11-15,2020-11-24,,,,,,,,['4bf58dd8d48988d151941735'],['Dining and Drinking > Restaurant > Mexican Restaurant > Taco Restaurant'],b'\x00\x00\x00\x00\x01\xc0YU\x94\xc0\x16\x05%@4\xbd\xcby\x0f\xb6V',"{'xmin': -101.337204, 'ymin': 20.741386, 'xmax': -101.337204, 'ymax': 20.741386}",dining and drinking > restaurant > mexican restaurant > taco restaurant,1
4faf360e108139586b921c86,Tacos el Maná,20.651037089166575,-105.21740555763245,Av. Emiliano Zapata #114,Puerto Vallarta,Jalisco,,,,,MX,2012-05-13,2020-11-21,,,,,,,,['4bf58dd8d48988d151941735'],['Dining and Drinking > Restaurant > Mexican Restaurant > Taco Restaurant'],b'\x00\x00\x00\x00\x01\xc0ZM\xe9\xf9\x00\x00\x00@4\xa6\xaa]\xdet\x17',"{'xmin': -105.21740555763245, 'ymin': 20.651037089166575, 'xmax': -105.21740555763245, 'ymax': 20.651037089166575}",dining and drinking > restaurant > mexican restaurant > taco restaurant,1
4dcf092952b1f8915ba6c601,Don Miguelón,20.69655779529022,-103.38639625613526,Terranova 1429,Guadalajara,JAL,44658,,,,MX,2011-05-14,2021-08-14,,,,,,,t_donmiguelon,['4bf58dd8d48988d151941735'],['Dining and Drinking > Restaurant > Mexican Restaurant > Taco Restaurant'],b'\x00\x00\x00\x00\x01\xc0Y\xd8\xba\xb7\\\xd9u@4\xb2Q\x9c\x96\x8b\x9d',"{'xmin': -103.38639625613526, 'ymin': 20.69655779529022, 'xmax': -103.38639625613526, 'ymax': 20.69655779529022}",dining and drinking > restaurant > mexican restaurant > taco restaurant,1
4dc410c5e4cd169dc62909b7,Tacos la ola,20.706245046635793,-101.35077511877897,,,Guanajuato,,,,,MX,2011-05-06,2021-08-16,,,,,,,,['4bf58dd8d48988d151941735'],['Dining and Drinking > Restaurant > Mexican Restaurant > Taco Restaurant'],b'\x00\x00\x00\x00\x01\xc0YVs\x19{\xd9\xff@4\xb4\xccy\xb2CB',"{'xmin': -101.35077511877897, 'ymin': 20.706245046635793, 'xmax': -101.35077511877897, 'ymax': 20.706245046635793}",dining and drinking > restaurant > mexican restaurant > taco restaurant,1
53bb68b5498ef9c1bef50c45,Tacos La Salud,21.87114715576172,-102.28167724609375,Av Heroe de Nacozari s/n Barrio de La Salud,,,,,,,MX,2014-07-08,2021-08-15,,,,,,,,['4bf58dd8d48988d151941735'],['Dining and Drinking > Restaurant > Mexican Restaurant > Taco Restaurant'],b'\x00\x00\x00\x00\x01\xc0Y\x92\x07\x00\x00\x00\x00@5\xdf\x03\x80\x00\x00\x00',"{'xmin': -102.28167724609375, 'ymin': 21.87114715576172, 'xmax': -102.28167724609375, 'ymax': 21.87114715576172}",dining and drinking > restaurant > mexican restaurant > taco restaurant,1
5460362e498e7ab0f04f2570,Ricos Tacos Con Sabor A Colima,19.28046226501465,-103.72914123535156,Prolongación Hidalgo 926b,Villa De Alvarez,colima,,,,,MX,2014-11-10,2020-11-21,,312 112 5693,,,,,,['4bf58dd8d48988d151941735'],['Dining and Drinking > Restaurant > Mexican Restaurant > Taco Restaurant'],b'\x00\x00\x00\x00\x01\xc0Y\xee\xaa@\x00\x00\x00@3G\xcc`\x00\x00\x00',"{'xmin': -103.72914123535156, 'ymin': 19.28046226501465, 'xmax': -103.72914123535156, 'ymax': 19.28046226501465}",dining and drinking > restaurant > mexican restaurant > taco restaurant,1
5096c8dce4b08365320b6d96,"Tortas Ahogadas ""Juanote""",20.682610137797454,-103.29817229636517,Abraham González,Guadalajara,Jalisco,44710,,,,MX,2012-11-04,2021-08-16,,,,,,,,['4bf58dd8d48988d151941735'],['Dining and Drinking > Restaurant > Mexican Restaurant > Taco Restaurant'],b'\x00\x00\x00\x00\x01\xc0Y\xd3\x15AA]\x8b@4\xae\xbf\x89\xb9\xc2\x14',"{'xmin': -103.29817229636517, 'ymin': 20.682610137797454, 'xmax': -103.29817229636517, 'ymax': 20.682610137797454}",dining and drinking > restaurant > mexican restaurant > taco restaurant,1
5c6e1bd7826444002c053498,Tacos Monty,20.951396,-101.425733,Luis H. Ducoing,Silao,GTO,36100,,,,MX,2019-02-21,2020-11-24,,,,,,,,['4bf58dd8d48988d151941735'],['Dining and Drinking > Restaurant > Mexican Restaurant > Taco Restaurant'],b'\x00\x00\x00\x00\x01\xc0Y[?5\x9f\xf4\xfd@4\xf3\x8e\xb01\x8b\x93',"{'xmin': -101.425733, 'ymin': 20.951396, 'xmax': -101.425733, 'ymax': 20.951396}",dining and drinking > restaurant > mexican restaurant > taco restaurant,1
55c7ce5e498e6a7f03bfd702,taco inn,20.542146,-100.81997,,,,,,,,MX,2015-08-09,2024-01-03,,,http://www.tacoinn.com.mx,,,,,['4bf58dd8d48988d151941735'],['Dining and Drinking > Restaurant > Mexican Restaurant > Taco Restaurant'],b'\x00\x00\x00\x00\x01\xc0Y4zcsl\xdf@4\x8a\xca\x14\x8b\xa8?',"{'xmin': -100.81997, 'ymin': 20.542146, 'xmax': -100.81997, 'ymax': 20.542146}",dining and drinking > restaurant > mexican restaurant > taco restaurant,1
52b7dda2498e5a7daa86fcc6,Tacos El Amigazo Nacho,21.858916078343217,-102.342000699599,Blvd Juan Pablo II,,,,,,,MX,2013-12-23,2021-08-15,,,,,,,,['4bf58dd8d48988d151941735' '4bf58dd8d48988d1cb941735'],"['Dining and Drinking > Restaurant > Mexican Restaurant > Taco Restaurant'
 'Dining and Drinking > Food Truck']",b'\x00\x00\x00\x00\x01\xc0Y\x95\xe3V\xe6\xff(@5\xdb\xe1\xec\x92~!',"{'xmin': -102.342000699599, 'ymin': 21.858916078343217, 'xmax': -102.342000699599, 'ymax': 21.858916078343217}","dining and drinking > restaurant > mexican restaurant > taco restaurant, dining and drinking > food truck",1
4d9834dde07ea35d62e8ec02,Tacos Chillis,21.899403400781257,-102.31542143908298,San Cayetano,Aguascalientes,AGS,,,,,MX,2011-04-03,2020-11-22,,,,,,,,['4bf58dd8d48988d1cb941735' '4bf58dd8d48988d151941735'],"['Dining and Drinking > Food Truck'
 'Dining and Drinking > Restaurant > Mexican Restaurant > Taco Restaurant']",b'\x00\x00\x00\x00\x01\xc0Y\x94/\xddgTe@5\xe6?M DE',"{'xmin': -102.31542143908298, 'ymin': 21.899403400781257, 'xmax': -102.31542143908298, 'ymax': 21.899403400781257}","dining and drinking > food truck, dining and drinking > restaurant > mexican restaurant > taco restaurant",1
5ca8e4cc7564f7002ccc73f7,Birrieria Eclipse,21.517635,-104.908877,,Tepic,NAY,63070,,,,MX,2019-04-06,2020-11-30,,,,,,,,['4bf58dd8d48988d151941735'],['Dining and Drinking > Restaurant > Mexican Restaurant > Taco Restaurant'],b'\x00\x00\x00\x00\x01\xc0Z:+\no\xc5\x8b@5\x84\x83\xba4C\xd4',"{'xmin': -104.908877, 'ymin': 21.517635, 'xmax': -104.908877, 'ymax': 21.517635}",dining and drinking > restaurant > mexican restaurant > taco restaurant,1
4f41355be4b062d5cc779744,Barbacoa estilo Toluca,20.651444053211186,-103.4335978925194,,,,,,,,MX,2012-02-19,2021-08-15,,,,,,,,['4bf58dd8d48988d151941735'],['Dining and Drinking > Restaurant > Mexican Restaurant > Taco Restaurant'],b'\x00\x00\x00\x00\x01\xc0Y\xdb\xc0\x11_\xff\x10@4\xa6\xc5\t\x97\xb7:',"{'xmin': -103.4335978925194, 'ymin': 20.651444053211186, 'xmax': -103.4335978925194, 'ymax': 20.651444053211186}",dining and drinking > restaurant > mexican restaurant > taco restaurant,1
5d1fc4017dc742002328ab63,Tacos Don Chepe,20.585645,-103.430935,Trebol Casi Esq Con guadalupe gallo,Tlajomulco de Zúñiga,JAL,45647,,,,MX,2019-07-05,2020-11-22,,,,,,,,['4bf58dd8d48988d151941735'],['Dining and Drinking > Restaurant > Mexican Restaurant > Taco Restaurant'],b'\x00\x00\x00\x00\x01\xc0Y\xdb\x94pd\xec\xea@4\x95\xec\xd4\xaa\x10\xe0',"{'xmin': -103.430935, 'ymin': 20.585645, 'xmax': -103.430935, 'ymax': 20.585645}",dining and drinking > restaurant > mexican restaurant > taco restaurant,1
5bb8125578782c002b1858eb,Asadas Zamora,20.614195,-103.33292,Calle Las Vegas #1350,San Pedro Tlaquepaque,Jalisco,45590,,,,MX,2018-10-06,2020-11-25,,,,,,,,['4bf58dd8d48988d151941735'],['Dining and Drinking > Restaurant > Mexican Restaurant > Taco Restaurant'],b'\x00\x00\x00\x00\x01\xc0Y\xd5N\x8f\xb0\x0b\xcc@4\x9d;\xe2.]\xe1',"{'xmin': -103.33292, 'ymin': 20.614195, 'xmax': -103.33292, 'ymax': 20.614195}",dining and drinking > restaurant > mexican restaurant > taco restaurant,1
5578f81f498ea2a1f6ab63dd,Taqueria Fermin,20.662606,-103.431008,,Zapopan,Jalisco,,,,,MX,2015-06-11,2021-06-27,,,,,,,,['4bf58dd8d48988d151941735'],['Dining and Drinking > Restaurant > Mexican Restaurant > Taco Restaurant'],"b'\x00\x00\x00\x00\x01\xc0Y\xdb\x95\xa2\x94\x14\x1f@4\xa9\xa0\x8b\xfc""%'","{'xmin': -103.431008, 'ymin': 20.662606, 'xmax': -103.431008, 'ymax': 20.662606}",dining and drinking > restaurant > mexican restaurant > taco restaurant,1
4eae1332e300f9b9198951ff,Tacos Tere y Pepe,20.664274191579977,-101.35058793058005,Pipila 799,Irapuato,Guanajuato,36570,,,,MX,2011-10-31,2020-11-26,,,,,,,,['4bf58dd8d48988d151941735'],['Dining and Drinking > Restaurant > Mexican Restaurant > Taco Restaurant'],b'\x00\x00\x00\x00\x01\xc0YVp\x08\\\r\xac@4\xaa\r\xdf\x98i\xb0',"{'xmin': -101.35058793058005, 'ymin': 20.664274191579977, 'xmax': -101.35058793058005, 'ymax': 20.664274191579977}",dining and drinking > restaurant > mexican restaurant > taco restaurant,1
4cc9a3ffd147a0934458e8ae,Taquitos El Amigo,22.122736371173023,-100.91871500995042,Eje 102,San Luis Potosí,San Luis Potosí,,,,,MX,2010-10-28,2020-11-24,,,,,,,,['4bf58dd8d48988d151941735'],['Dining and Drinking > Restaurant > Mexican Restaurant > Taco Restaurant'],b'\x00\x00\x00\x00\x01\xc0Y:\xcc:\n\x855@6\x1fk\xa6\x9c7\xc5',"{'xmin': -100.91871500995042, 'ymin': 22.122736371173023, 'xmax': -100.91871500995042, 'ymax': 22.122736371173023}",dining and drinking > restaurant > mexican restaurant > taco restaurant,1
56ad8c8d498e65c92098e299,"Tacos ""Victor""",20.20194986701215,-101.13146690724523,Atrás De La Joya,Yuriria,,,,,,MX,2016-01-31,2020-11-25,,,,,,,,['4bf58dd8d48988d151941735'],['Dining and Drinking > Restaurant > Mexican Restaurant > Taco Restaurant'],"b'\x00\x00\x00\x00\x01\xc0YHi\xf4,\xc7\xf8@43\xb2\xfc\x8a?\xad'","{'xmin': -101.13146690724523, 'ymin': 20.20194986701215, 'xmax': -101.13146690724523, 'ymax': 20.20194986701215}",dining and drinking > restaurant > mexican restaurant > taco restaurant,1
4f3d519ee4b0c30dff862cbb,Fonda Doña Sara,20.605919697930855,-103.34479459409148,,,,,,,,MX,2012-02-16,2021-08-17,,,,,,,,['4bf58dd8d48988d151941735'],['Dining and Drinking > Restaurant > Mexican Restaurant > Taco Restaurant'],b'\x00\x00\x00\x00\x01\xc0Y\xd6\x11\x1dX]y@4\x9b\x1d\x8d\xa6\x9d\x7f',"{'xmin': -103.34479459409148, 'ymin': 20.605919697930855, 'xmax': -103.34479459409148, 'ymax': 20.605919697930855}",dining and drinking > restaurant > mexican restaurant > taco restaurant,1
51d06324498e00f510b80599,Taqueria Y Birrieria Santa Lucia,20.804538,-103.499276,,,,,,,,MX,2013-06-30,2020-11-23,,,,,,,,['4bf58dd8d48988d151941735'],['Dining and Drinking > Restaurant > Mexican Restaurant > Taco Restaurant'],b'\x00\x00\x00\x00\x01\xc0Y\xdf\xf4#R\xeb_@4\xcd\xf63\xcec\xa6',"{'xmin': -103.499276, 'ymin': 20.804538, 'xmax': -103.499276, 'ymax': 20.804538}",dining and drinking > restaurant > mexican restaurant > taco restaurant,1
567b87fe498e6cbca1e500e9,Taco Vato,21.49443575624649,-104.90338606093306,"Chacala, Col. Morelos",Tepic,Nayarit,,,,,MX,2015-12-24,2020-11-25,,,,,,,,['4bf58dd8d48988d151941735'],['Dining and Drinking > Restaurant > Mexican Restaurant > Taco Restaurant'],b'\x00\x00\x00\x00\x01\xc0Z9\xd1\x13\xc4\xd7\xaa@5~\x93W{\r<',"{'xmin': -104.90338606093306, 'ymin': 21.49443575624649, 'xmax': -104.90338606093306, 'ymax': 21.49443575624649}",dining and drinking > restaurant > mexican restaurant > taco restaurant,1
4fc7c442e4b0acb7c5490b23,Taqueria El Ranchero,20.674657861280874,-103.34731566426744,Av. 16 de Septiembre,Guadalajara,Jalisco,44100,,,,MX,2012-05-31,2021-12-15,,,,,,,,['4bf58dd8d48988d151941735'],['Dining and Drinking > Restaurant > Mexican Restaurant > Taco Restaurant'],b'\x00\x00\x00\x00\x01\xc0Y\xd6:kz\xda\xb3@4\xac\xb6`\xaa0\xcf',"{'xmin': -103.34731566426744, 'ymin': 20.674657861280874, 'xmax': -103.34731566426744, 'ymax': 20.674657861280874}",dining and drinking > restaurant > mexican restaurant > taco restaurant,1
560c4e65498ed6076ccd84df,Taqueria los Carnalitos,20.663044,-103.38428,El Sol,Guadalajara,Jalisco,44520,,,,MX,2015-09-30,2021-08-15,,,,,,,,['4bf58dd8d48988d151941735'],['Dining and Drinking > Restaurant > Mexican Restaurant > Taco Restaurant'],b'\x00\x00\x00\x00\x01\xc0Y\xd8\x98\x0b$ q@4\xa9\xbd@g\xcf\x1c',"{'xmin': -103.38428, 'ymin': 20.663044, 'xmax': -103.38428, 'ymax': 20.663044}",dining and drinking > restaurant > mexican restaurant > taco restaurant,1
4ee57015aa1fd7f7555c265e,Kiki's tacos al pastor,19.691246084955235,-101.1876328039477,,,,,,,,MX,2011-12-12,2021-08-14,,,,,,,,['4bf58dd8d48988d151941735'],['Dining and Drinking > Restaurant > Mexican Restaurant > Taco Restaurant'],"b""\x00\x00\x00\x00\x01\xc0YL\x02-\x05'-@3\xb0\xf5\x80\xe0^\xeb""","{'xmin': -101.1876328039477, 'ymin': 19.691246084955235, 'xmax': -101.1876328039477, 'ymax': 19.691246084955235}",dining and drinking > restaurant > mexican restaurant > taco restaurant,1
5838fd026d63256686375826,Heavy Taco Metal,20.634328,-105.228806,Lucerna 142,Puerto Vallarta,Jalisco,,,,,MX,2016-11-26,2021-03-22,2021-03-22,,,,,,,['4bf58dd8d48988d151941735'],['Dining and Drinking > Restaurant > Mexican Restaurant > Taco Restaurant'],b'\x00\x00\x00\x00\x01\xc0ZN\xa4\xc1\xeb\xc8;@4\xa2cQ\xde\xef\xe5',"{'xmin': -105.228806, 'ymin': 20.634328, 'xmax': -105.228806, 'ymax': 20.634328}",dining and drinking > restaurant > mexican restaurant > taco restaurant,1
622e34376c69d066e7af5dbb,El Taco Dorado,20.643911,-103.455964,Puerto Guaymas 202,Zapopan,JAL,45060,,,,MX,2022-03-13,2022-03-13,,,,,,,,['4bf58dd8d48988d151941735'],['Dining and Drinking > Restaurant > Mexican Restaurant > Taco Restaurant'],b'\x00\x00\x00\x00\x01\xc0Y\xdd.\x83\xa1\t\xd0@4\xa4\xd7Y\xee\x88\xdf',"{'xmin': -103.455964, 'ymin': 20.643911, 'xmax': -103.455964, 'ymax': 20.643911}",dining and drinking > restaurant > mexican restaurant > taco restaurant,1
4fb8677de4b013c03b550f29,tacos checo,21.12783015308036,-101.69535181834266,,,,,,,,MX,2012-05-20,2021-08-15,,,,,,,,['4bf58dd8d48988d151941735'],['Dining and Drinking > Restaurant > Mexican Restaurant > Taco Restaurant'],b'\x00\x00\x00\x00\x01\xc0Yl\x80\xa4\xe9\xbf\xbc@5 \xb9z\x16\xec>',"{'xmin': -101.69535181834266, 'ymin': 21.12783015308036, 'xmax': -101.69535181834266, 'ymax': 21.12783015308036}",dining and drinking > restaurant > mexican restaurant > taco restaurant,1
5196dbdb498ea364338d1f80,Tacos Memo,20.71261275543363,-103.35001648339342,,Guadalajara,Jalisco,,,,,MX,2013-05-18,2021-08-13,,33 1871 2538,,,,,,['4bf58dd8d48988d151941735'],['Dining and Drinking > Restaurant > Mexican Restaurant > Taco Restaurant'],b'\x00\x00\x00\x00\x01\xc0Y\xd6f\xab\x89O\x15@4\xb6m\xca\x1fL\xc5',"{'xmin': -103.35001648339342, 'ymin': 20.71261275543363, 'xmax': -103.35001648339342, 'ymax': 20.71261275543363}",dining and drinking > restaurant > mexican restaurant > taco restaurant,1
4f2d62dee4b00ef1a50775e7,Tacos el momia,22.16547285504663,-101.00416421708557,,,,,,,,MX,2012-02-04,2021-08-14,,,,,,,,['4bf58dd8d48988d151941735'],['Dining and Drinking > Restaurant > Mexican Restaurant > Taco Restaurant'],b'\x00\x00\x00\x00\x01\xc0Y@D9\xfe\x0c\x8b@6*\\m\xd4\xcd\x10',"{'xmin': -101.00416421708557, 'ymin': 22.16547285504663, 'xmax': -101.00416421708557, 'ymax': 22.16547285504663}",dining and drinking > restaurant > mexican restaurant > taco restaurant,1
572b3dcb498eeee23985bed3,Tacos Bridge,20.606087,-103.40043,Periferico Sur,Tlaquepaque,Jalisco,,,,,MX,2016-05-05,2020-11-30,,,,,,,,['4bf58dd8d48988d151941735'],['Dining and Drinking > Restaurant > Mexican Restaurant > Taco Restaurant'],b'\x00\x00\x00\x00\x01\xc0Y\xd9\xa0\xa5&\x95\x96@4\x9b(\x84\x83\x87\xdf',"{'xmin': -103.40043, 'ymin': 20.606087, 'xmax': -103.40043, 'ymax': 20.606087}",dining and drinking > restaurant > mexican restaurant > taco restaurant,1
4fe682c7e4b0fa7dcd5e8954,Taqueria de la Torre,21.242076,-102.334063,Buen Viaje,San Juan de los Lagos,Jalisco,,,,,MX,2012-06-24,2020-11-23,,,,,,,,['4bf58dd8d48988d151941735'],['Dining and Drinking > Restaurant > Mexican Restaurant > Taco Restaurant'],b'\x00\x00\x00\x00\x01\xc0Y\x95aI\xc6\xf3o@5=\xf8\xb1W%\x81',"{'xmin': -102.334063, 'ymin': 21.242076, 'xmax': -102.334063, 'ymax': 21.242076}",dining and drinking > restaurant > mexican restaurant > taco restaurant,1
60c6c3f1c49e726ee5a8ccdf,Taquería El Chino,19.222912,-104.696884,,Villa Obregón,Jalisco,48980,,,,MX,2021-06-14,2021-06-14,,,,,,,,['4bf58dd8d48988d151941735'],['Dining and Drinking > Restaurant > Mexican Restaurant > Taco Restaurant'],"b'\x00\x00\x00\x00\x01\xc0Z,\x99\xbfYF\xc3@39\x10\xc2\xc5\xe2\xce'","{'xmin': -104.696884, 'ymin': 19.222912, 'xmax': -104.696884, 'ymax': 19.222912}",dining and drinking > restaurant > mexican restaurant > taco restaurant,1
50ab049ae4b050a2008397f8,Tacos Arandas,20.53645486633492,-100.8325528669865,Sauz,,,,,,,MX,2012-11-20,2021-08-15,,,,,,,,['4bf58dd8d48988d151941735'],['Dining and Drinking > Restaurant > Mexican Restaurant > Taco Restaurant'],b'\x00\x00\x00\x00\x01\xc0Y5H\x8b\xd1\xf9z@4\x89U\x1b*\xb0D',"{'xmin': -100.8325528669865, 'ymin': 20.53645486633492, 'xmax': -100.8325528669865, 'ymax': 20.53645486633492}",dining and drinking > restaurant > mexican restaurant > taco restaurant,1
56bffc37cd106d58c27b1bb4,La cochera veggie,22.168024,-100.997754,Rey Adriano 390,,,,,,,MX,2016-02-14,2023-12-19,,444 332 6429,,,,,,['4bf58dd8d48988d151941735'],['Dining and Drinking > Restaurant > Mexican Restaurant > Taco Restaurant'],b'\x00\x00\x00\x00\x01\xc0Y?\xdb3\x97\xdd\x01@6+\x03\x9e\xf0\xf1o',"{'xmin': -100.997754, 'ymin': 22.168024, 'xmax': -100.997754, 'ymax': 22.168024}",dining and drinking > restaurant > mexican restaurant > taco restaurant,1
595716cf7564f7427d293413,Tacos El Azaderin,20.634672,-103.37238,,Guadalajara,Jalisco,,,,,MX,2017-07-01,2021-08-15,,,,,,,,['4bf58dd8d48988d151941735'],['Dining and Drinking > Restaurant > Mexican Restaurant > Taco Restaurant'],b'\x00\x00\x00\x00\x01\xc0Y\xd7\xd5\x12\xeck\xcf@4\xa2y\xdd;\xaf\xd9',"{'xmin': -103.37238, 'ymin': 20.634672, 'xmax': -103.37238, 'ymax': 20.634672}",dining and drinking > restaurant > mexican restaurant > taco restaurant,1
5089e40fe4b0988210948d5e,Tortacos,20.795091,-103.477358,,,,,,,,MX,2012-10-26,2020-11-24,,,,,,,,['4bf58dd8d48988d151941735'],['Dining and Drinking > Restaurant > Mexican Restaurant > Taco Restaurant'],b'\x00\x00\x00\x00\x01\xc0Y\xde\x8d\x08\x91\x9e\xf9@4\xcb\x8b\x15rX\x0c',"{'xmin': -103.477358, 'ymin': 20.795091, 'xmax': -103.477358, 'ymax': 20.795091}",dining and drinking > restaurant > mexican restaurant > taco restaurant,1
4de66055c65b98fadafa2877,Tacos al Vapor y Gorditas el Gallo,20.667432465147385,-103.40988948410688,Santo Tomás De Aquino,Zapopan,Jalisco,,,,,MX,2011-06-01,2020-11-22,,,,,,,,['4bf58dd8d48988d151941735'],['Dining and Drinking > Restaurant > Mexican Restaurant > Taco Restaurant'],b'\x00\x00\x00\x00\x01\xc0Y\xda;\xa1\x1aM\xa8@4\xaa\xdc\xda\xa2\x18\xc0',"{'xmin': -103.40988948410688, 'ymin': 20.667432465147385, 'xmax': -103.40988948410688, 'ymax': 20.667432465147385}",dining and drinking > restaurant > mexican restaurant > taco restaurant,1
5887feb324fd717e1c9dab22,Tacos Panchos,21.022394,-101.26655,,,,,,,,MX,2017-01-25,2021-08-11,,,,,,,,['4bf58dd8d48988d151941735'],['Dining and Drinking > Restaurant > Mexican Restaurant > Taco Restaurant'],"b""\x00\x00\x00\x00\x01\xc0YQ\x0f'\xbb/\xec@5\x05\xbb\x9c\xf9\xa0j""","{'xmin': -101.26655, 'ymin': 21.022394, 'xmax': -101.26655, 'ymax': 21.022394}",dining and drinking > restaurant > mexican restaurant > taco restaurant,1
4e49d9b545dd81ecad86929c,quique taco,22.140851047064185,-101.011612255284,Lateral Av. Salvador Nava,San Luis Potosí,San Luis Potosí,,,,,MX,2011-08-16,2020-11-23,,,,,,,,['4bf58dd8d48988d151941735'],['Dining and Drinking > Restaurant > Mexican Restaurant > Taco Restaurant'],b'\x00\x00\x00\x00\x01\xc0Y@\xbeAT+^@6$\x0e\xd0p\xbf\x7f',"{'xmin': -101.011612255284, 'ymin': 22.140851047064185, 'xmax': -101.011612255284, 'ymax': 22.140851047064185}",dining and drinking > restaurant > mexican restaurant > taco restaurant,1
50d53ddae4b06bd2dd726e57,Tacos El Tolengo,21.353208087749913,-101.9367710135798,,Lagos De Moreno,Jalisco,,,,,MX,2012-12-22,2020-11-30,,,,,,,,['4bf58dd8d48988d151941735'],['Dining and Drinking > Restaurant > Mexican Restaurant > Taco Restaurant'],b'\x00\x00\x00\x00\x01\xc0Y{\xf4\x0eh\xca\xa0@5Zk\xd8a\x91\x8e',"{'xmin': -101.9367710135798, 'ymin': 21.353208087749913, 'xmax': -101.9367710135798, 'ymax': 21.353208087749913}",dining and drinking > restaurant > mexican restaurant > taco restaurant,1
568b4eb1498e1c5bbed67493,Tacos el güero,20.6939467974007,-103.280074819922,,,,,,,,MX,2016-01-05,2021-08-14,,,,,,,,['4bf58dd8d48988d151941735'],['Dining and Drinking > Restaurant > Mexican Restaurant > Taco Restaurant'],b'\x00\x00\x00\x00\x01\xc0Y\xd1\xec\xbe\xef\xff\xe1@4\xb1\xa6\x7fO\xff\xfc',"{'xmin': -103.280074819922, 'ymin': 20.6939467974007, 'xmax': -103.280074819922, 'ymax': 20.6939467974007}",dining and drinking > restaurant > mexican restaurant > taco restaurant,1
4da06c185970b1f76b39591e,Tacos Y Tortas Ernesto,21.13825880865971,-101.68244970107794,,,,,,,,MX,2011-04-09,2021-08-13,,,,,,,,['4bf58dd8d48988d151941735'],['Dining and Drinking > Restaurant > Mexican Restaurant > Taco Restaurant'],b'\x00\x00\x00\x00\x01\xc0Yk\xadA\x82\xd2\xdd@5#d\xed\xe5\x93\xcf',"{'xmin': -101.68244970107794, 'ymin': 21.13825880865971, 'xmax': -101.68244970107794, 'ymax': 21.13825880865971}",dining and drinking > restaurant > mexican restaurant > taco restaurant,1
66818125d9661763077b018c,Tacos De Birria Los 3 González,20.690351,-103.32104,Puerto Melaque 734,Guadalajara,Jalisco,44340,,,,MX,2024-06-30,2024-06-30,,,,,,,,['4bf58dd8d48988d151941735'],['Dining and Drinking > Restaurant > Mexican Restaurant > Taco Restaurant'],b'\x00\x00\x00\x00\x01\xc0Y\xd4\x8b\xeb[-M@4\xb0\xba\xd7\xd7\xc2\xca',"{'xmin': -103.32104, 'ymin': 20.690351, 'xmax': -103.32104, 'ymax': 20.690351}",dining and drinking > restaurant > mexican restaurant > taco restaurant,1
5e3a11cf46b3590008c4143e,La Orden Del Sir Loin,20.67199,-103.35858,"Calle Escorza #321, Col Americana, Americana, 44160 Guadalajara, Jal.",Guadalajara,Jalisco,44160,,,,MX,2020-02-05,2021-08-14,,,,,,,,['4bf58dd8d48988d151941735'],['Dining and Drinking > Restaurant > Mexican Restaurant > Taco Restaurant'],b'\x00\x00\x00\x00\x01\xc0Y\xd6\xf2\xf9\x87?\xfb@4\xac\x07\x89a=2',"{'xmin': -103.35858, 'ymin': 20.67199, 'xmax': -103.35858, 'ymax': 20.67199}",dining and drinking > restaurant > mexican restaurant > taco restaurant,1
51318aa9e4b02e87004c1335,Taqueria Roman,18.345022,-99.530439,,,,,,,,MX,2013-03-02,2021-08-17,,,,,,,,['4bf58dd8d48988d151941735'],['Dining and Drinking > Restaurant > Mexican Restaurant > Taco Restaurant'],b'\x00\x00\x00\x00\x01\xc0X\xe1\xf2\xb6kax@2XS\\\x9ef\x88',"{'xmin': -99.530439, 'ymin': 18.345022, 'xmax': -99.530439, 'ymax': 18.345022}",dining and drinking > restaurant > mexican restaurant > taco restaurant,1
57031f17498e4cade838f02e,Taquería Mexiquense,14.919483438754641,-92.25609883422854,Central Norte Esq. 27 Ote.,Tapachula,Chiapas,30700,,,,MX,2016-04-05,2020-11-22,,,,,,,,['4bf58dd8d48988d151941735'],['Dining and Drinking > Restaurant > Mexican Restaurant > Taco Restaurant'],b'\x00\x00\x00\x00\x01\xc0W\x10c\xec]c\x8a@-\xd6\xc6\x88\x85Ta',"{'xmin': -92.25609883422854, 'ymin': 14.919483438754641, 'xmax': -92.25609883422854, 'ymax': 14.919483438754641}",dining and drinking > restaurant > mexican restaurant > taco restaurant,1
4edd90650aaf49e02d5ba5f3,Tacos La Fama,19.587459269087763,-102.4758104099743,Galeana,Los Reyes,Michoacan,60300,,,,MX,2011-12-06,2020-11-25,,,,,,,,['4bf58dd8d48988d151941735'],['Dining and Drinking > Restaurant > Mexican Restaurant > Taco Restaurant'],b'\x00\x00\x00\x00\x01\xc0Y\x9es\xad\x81{\xe7@3\x96c\xbb\x0cv\xc9',"{'xmin': -102.4758104099743, 'ymin': 19.587459269087763, 'xmax': -102.4758104099743, 'ymax': 19.587459269087763}",dining and drinking > restaurant > mexican restaurant > taco restaurant,1
5394eeea498e2f3990639f4d,Taqueria Intercarnes,19.20838737487793,-99.58404541015625,,,,,,,,MX,2014-06-08,2021-08-15,,,,,,,,['4bf58dd8d48988d151941735'],['Dining and Drinking > Restaurant > Mexican Restaurant > Taco Restaurant'],b'\x00\x00\x00\x00\x01\xc0X\xe5a\x00\x00\x00\x00@35X\xe0\x00\x00\x00',"{'xmin': -99.58404541015625, 'ymin': 19.20838737487793, 'xmax': -99.58404541015625, 'ymax': 19.20838737487793}",dining and drinking > restaurant > mexican restaurant > taco restaurant,1
50f5d600e4b0572f31efa9d4,Tacos De Cabeza El Güero,19.7017025446112,-101.19048149304075,,,,,,,,MX,2013-01-15,2021-08-14,,,,,,,,['4bf58dd8d48988d151941735'],['Dining and Drinking > Restaurant > Mexican Restaurant > Taco Restaurant'],b'\x00\x00\x00\x00\x01\xc0YL0\xd9I\xc6\x9c@3\xb3\xa2\xc7(\xa0\x06',"{'xmin': -101.19048149304075, 'ymin': 19.7017025446112, 'xmax': -101.19048149304075, 'ymax': 19.7017025446112}",dining and drinking > restaurant > mexican restaurant > taco restaurant,1
53798b5a498eaa8a56bfcff6,taqueria lupita,18.767511,-95.755682,,,,,,,,MX,2014-05-19,2021-08-17,,,,,,,,['4bf58dd8d48988d151941735'],['Dining and Drinking > Restaurant > Mexican Restaurant > Taco Restaurant'],b'\x00\x00\x00\x00\x01\xc0W\xf0]\x18\t\x0bA@2\xc4{\x99\xd4Q\xfc',"{'xmin': -95.755682, 'ymin': 18.767511, 'xmax': -95.755682, 'ymax': 18.767511}",dining and drinking > restaurant > mexican restaurant > taco restaurant,1
507082cfe4b09fc3c2331430,Si Hay,19.314706,-99.119151,,,,,,,,MX,2012-10-06,2021-08-13,,,,,,,,['4bf58dd8d48988d151941735'],['Dining and Drinking > Restaurant > Mexican Restaurant > Taco Restaurant'],b'\x00\x00\x00\x00\x01\xc0X\xc7\xa0+\x84\x12I@3P\x90\x92\x89\xda\xe0',"{'xmin': -99.119151, 'ymin': 19.314706, 'xmax': -99.119151, 'ymax': 19.314706}",dining and drinking > restaurant > mexican restaurant > taco restaurant,1
51c0e1f6498e8cc3884eeecd,Super taco,19.2861,-99.5542,plaza sendero,Toluca,Mexico,,,,,MX,2013-06-18,2020-11-25,,,,,,,,['4bf58dd8d48988d151941735'],['Dining and Drinking > Restaurant > Mexican Restaurant > Taco Restaurant'],b'\x00\x00\x00\x00\x01\xc0X\xe3x\x03F\xdc]@3I=\xd9\x7fb\xb7',"{'xmin': -99.5542, 'ymin': 19.2861, 'xmax': -99.5542, 'ymax': 19.2861}",dining and drinking > restaurant > mexican restaurant > taco restaurant,1
4e9ddb8449017c00c8adab11,Don Raul,19.3258205,-99.22372060000001,,,,,,,,MX,2011-10-18,2021-08-17,,,,,,,,['4bf58dd8d48988d151941735'],['Dining and Drinking > Restaurant > Mexican Restaurant > Taco Restaurant'],b'\x00\x00\x00\x00\x01\xc0X\xceQp5\x1cB@3Sh\xf8\xe7\xdd\xca',"{'xmin': -99.22372060000001, 'ymin': 19.3258205, 'xmax': -99.22372060000001, 'ymax': 19.3258205}",dining and drinking > restaurant > mexican restaurant > taco restaurant,1
50a69e1de4b05a2a76080d5d,Barbacoa Don Poncho,19.302374900322267,-99.16413221084566,,,,,,,,MX,2012-11-16,2021-08-17,,,,,,,,['4bf58dd8d48988d151941735'],['Dining and Drinking > Restaurant > Mexican Restaurant > Taco Restaurant'],b'\x00\x00\x00\x00\x01\xc0X\xca\x81$csY@3Mhq\x04\x03\xf1',"{'xmin': -99.16413221084566, 'ymin': 19.302374900322267, 'xmax': -99.16413221084566, 'ymax': 19.302374900322267}",dining and drinking > restaurant > mexican restaurant > taco restaurant,1
50175279e4b0832ae18c040b,Tacos De CabeZa Arely,18.810065213342,-99.67139708350093,,,,,,,,MX,2012-07-31,2021-08-15,,,,,,,,['4bf58dd8d48988d151941735'],['Dining and Drinking > Restaurant > Mexican Restaurant > Taco Restaurant'],b'\x00\x00\x00\x00\x01\xc0X\xea\xf8+y\x11\x0b@2\xcf`o\x0e\xee`',"{'xmin': -99.67139708350093, 'ymin': 18.810065213342, 'xmax': -99.67139708350093, 'ymax': 18.810065213342}",dining and drinking > restaurant > mexican restaurant > taco restaurant,1
56703f69498e2d5d5054c1f8,Tortilleria y molino Guayangareo,19.703754,-101.160524,,,,,,,,MX,2015-12-15,2021-08-12,,,,,,,,['4bf58dd8d48988d151941735'],['Dining and Drinking > Restaurant > Mexican Restaurant > Taco Restaurant'],b'\x00\x00\x00\x00\x01\xc0YJF\x06t\x8eG@3\xb4)8\xdem\xdf',"{'xmin': -101.160524, 'ymin': 19.703754, 'xmax': -101.160524, 'ymax': 19.703754}",dining and drinking > restaurant > mexican restaurant > taco restaurant,1
50bbba0ae4b011c4a916b207,Mixiotes,19.304250760735357,-99.13680830436414,Ejido,Mexico,,,,,,MX,2012-12-02,2020-11-25,,,,,,,,['4bf58dd8d48988d151941735'],['Dining and Drinking > Restaurant > Mexican Restaurant > Taco Restaurant'],"b'\x00\x00\x00\x00\x01\xc0X\xc8\xc1w\x9eD,@3M\xe3`\xbb$8'","{'xmin': -99.13680830436414, 'ymin': 19.304250760735357, 'xmax': -99.13680830436414, 'ymax': 19.304250760735357}",dining and drinking > restaurant > mexican restaurant > taco restaurant,1
5427646e498e8525dc8cae5e,Tacos Don Moy,16.833291,-99.906775,,,,,,,,MX,2014-09-28,2021-08-12,,,,,,,,['4bf58dd8d48988d151941735'],['Dining and Drinking > Restaurant > Mexican Restaurant > Taco Restaurant'],b'\x00\x00\x00\x00\x01\xc0X\xfa\x08\x9a\x02u%@0\xd5R\x8f\x19\r\x17',"{'xmin': -99.906775, 'ymin': 16.833291, 'xmax': -99.906775, 'ymax': 16.833291}",dining and drinking > restaurant > mexican restaurant > taco restaurant,1
4fceb5c5e4b0bffbecf0ab4d,Tacos De Cabeza,19.265956358777178,-99.16904663765486,,,,,,,,MX,2012-06-06,2021-08-12,,,,,,,,['4bf58dd8d48988d151941735'],['Dining and Drinking > Restaurant > Mexican Restaurant > Taco Restaurant'],b'\x00\x00\x00\x00\x01\xc0X\xca\xd1\xa8\xfd\x0e}@3D\x15\xb7G\x1cy',"{'xmin': -99.16904663765486, 'ymin': 19.265956358777178, 'xmax': -99.16904663765486, 'ymax': 19.265956358777178}",dining and drinking > restaurant > mexican restaurant > taco restaurant,1
4ec7d1aa6c251306cbd1bec5,Taqueria La Hacienda,18.843492,-99.224406,,Temixco,Morelos,,,,,MX,2011-11-19,2020-11-30,,,,,,,,['4bf58dd8d48988d151941735'],['Dining and Drinking > Restaurant > Mexican Restaurant > Taco Restaurant'],b'\x00\x00\x00\x00\x01\xc0X\xce\\\xaa\xfb\xc1\xad@2\xd7\xef\x17zp\t',"{'xmin': -99.224406, 'ymin': 18.843492, 'xmax': -99.224406, 'ymax': 18.843492}",dining and drinking > restaurant > mexican restaurant > taco restaurant,1
4f74e4f7e4b0aef72c6ae0ae,Las Carolinas,16.863035544246568,-99.88128215578901,Cristóbal  Colón,Acapulco,Guerrero,,,,,MX,2012-03-29,2023-12-21,,744 485 9417,,,,,,['4bf58dd8d48988d1df931735' '4bf58dd8d48988d151941735'],"['Dining and Drinking > Restaurant > BBQ Joint'
 'Dining and Drinking > Restaurant > Mexican Restaurant > Taco Restaurant']",b'\x00\x00\x00\x00\x01\xc0X\xf8f\xedEja@0\xdc\xef\xe5\xbd\xd3\x17',"{'xmin': -99.88128215578901, 'ymin': 16.863035544246568, 'xmax': -99.88128215578901, 'ymax': 16.863035544246568}","dining and drinking > restaurant > bbq joint, dining and drinking > restaurant > mexican restaurant > taco restaurant",1
4e4fe2ae45ddff0031c609e8,Tacos Carnitas Tauro,19.295294057531695,-99.18220191444273,Mariano Escobedo,Tlalpan,D.F.,14710,,,,MX,2011-08-20,2020-11-30,,,,,,,,['4bf58dd8d48988d151941735'],['Dining and Drinking > Restaurant > Mexican Restaurant > Taco Restaurant'],b'\x00\x00\x00\x00\x01\xc0X\xcb\xa927\xf35@3K\x98d/\xcdA',"{'xmin': -99.18220191444273, 'ymin': 19.295294057531695, 'xmax': -99.18220191444273, 'ymax': 19.295294057531695}",dining and drinking > restaurant > mexican restaurant > taco restaurant,1
56d661c5498e4d019c65b5bc,Taqueria El Rabanito,19.20303923580862,-99.58627340281832,,,,,,,,MX,2016-03-02,2020-11-26,,,,,,,,['4bf58dd8d48988d151941735'],['Dining and Drinking > Restaurant > Mexican Restaurant > Taco Restaurant'],b'\x00\x00\x00\x00\x01\xc0X\xe5\x85\x80\xe0\xe7\xa3@33\xfaa\x1d\x9aU',"{'xmin': -99.58627340281832, 'ymin': 19.20303923580862, 'xmax': -99.58627340281832, 'ymax': 19.20303923580862}",dining and drinking > restaurant > mexican restaurant > taco restaurant,1
52d31ed611d2f129f5965192,Ta'cuturs,19.702885,-103.48119,,,,,,,,MX,2014-01-12,2021-08-11,,,,,,,,['4bf58dd8d48988d151941735'],['Dining and Drinking > Restaurant > Mexican Restaurant > Taco Restaurant'],b'\x00\x00\x00\x00\x01\xc0Y\xde\xcb\xd1$Jb@3\xb3\xf0Ew\xd9U',"{'xmin': -103.48119, 'ymin': 19.702885, 'xmax': -103.48119, 'ymax': 19.702885}",dining and drinking > restaurant > mexican restaurant > taco restaurant,1
5e233345378da20008882274,El Tacazo,16.97896,-96.50142,Carr. Internacional Cristobal Colón,Tlacolula de Matamoros,Oaxaca,70400,,,,MX,2020-01-18,2020-11-23,,,,,,,,['4bf58dd8d48988d151941735'],['Dining and Drinking > Restaurant > Mexican Restaurant > Taco Restaurant'],b'\x00\x00\x00\x00\x01\xc0X \x17C\xe9c\xdc@0\xfa\x9d\x1f`\x17\x98',"{'xmin': -96.50142, 'ymin': 16.97896, 'xmax': -96.50142, 'ymax': 16.97896}",dining and drinking > restaurant > mexican restaurant > taco restaurant,1
55cf8c72498ed5a6b54fc7b8,Fritas *Fabrica de quesadillas*,19.703174896914003,-101.18875025231696,Belisario Domínguez # 28,"Morelia, MICH",Michoacan,,,,,MX,2015-08-15,2024-01-04,,443 312 3582,http://www.fritas.mx,,,,,['4bf58dd8d48988d151941735'],['Dining and Drinking > Restaurant > Mexican Restaurant > Taco Restaurant'],b'\x00\x00\x00\x00\x01\xc0YL\x14{\xf04\n@3\xb4\x03E!\x9d#',"{'xmin': -101.18875025231696, 'ymin': 19.703174896914003, 'xmax': -101.18875025231696, 'ymax': 19.703174896914003}",dining and drinking > restaurant > mexican restaurant > taco restaurant,1
62adfadb8dc4241e1a27f8c3,Tacos Charly,19.163809,-96.1268,,Boca del Río,VER,94294,,,,MX,2022-06-18,2022-06-18,,,,,,,,['4bf58dd8d48988d151941735'],['Dining and Drinking > Restaurant > Mexican Restaurant > Taco Restaurant'],b'\x00\x00\x00\x00\x01\xc0X\x08\x1d}\xbfH\x80@3)\xefb\xf9\xca\\',"{'xmin': -96.1268, 'ymin': 19.163809, 'xmax': -96.1268, 'ymax': 19.163809}",dining and drinking > restaurant > mexican restaurant > taco restaurant,1
578981cb498e335f8dfa2792,El Amigo del Cuñadito,19.284555,-99.206452,,,,,,,,MX,2016-07-16,2021-08-13,,,,,,,,['4bf58dd8d48988d151941735'],['Dining and Drinking > Restaurant > Mexican Restaurant > Taco Restaurant'],b'\x00\x00\x00\x00\x01\xc0X\xcd6\x82s\x0cg@3H\xd8\x98\xb2\xe9\xcd',"{'xmin': -99.206452, 'ymin': 19.284555, 'xmax': -99.206452, 'ymax': 19.284555}",dining and drinking > restaurant > mexican restaurant > taco restaurant,1
4d85341c509137047e8c915b,Casa Lupita,19.557551854756298,-103.37501688802054,Zaragoza 41,Tuxpan,Jalisco,49800,,,,MX,2011-03-19,2020-11-24,2014-03-01,,,,,,,['4bf58dd8d48988d151941735'],['Dining and Drinking > Restaurant > Mexican Restaurant > Taco Restaurant'],b'\x00\x00\x00\x00\x01\xc0Y\xd8\x00F\xd5_\xbd@3\x8e\xbb\xb7\xe6\x00\xa0',"{'xmin': -103.37501688802054, 'ymin': 19.557551854756298, 'xmax': -103.37501688802054, 'ymax': 19.557551854756298}",dining and drinking > restaurant > mexican restaurant > taco restaurant,1
57e203e3498e1c8bdf7dbe19,Taqueria Setenta&Siete,19.689768,-101.165645,Teniente Alemán,Morelia,Michoacán,,,,,MX,2016-09-21,2020-11-21,,,,,,,,['4bf58dd8d48988d151941735'],['Dining and Drinking > Restaurant > Mexican Restaurant > Taco Restaurant'],b'\x00\x00\x00\x00\x01\xc0YJ\x99\xed|o\xbd@3\xb0\x94\xa2\xb9\xd3\xcc',"{'xmin': -101.165645, 'ymin': 19.689768, 'xmax': -101.165645, 'ymax': 19.689768}",dining and drinking > restaurant > mexican restaurant > taco restaurant,1
544df5c1498e7d4b1bf68089,Tacos de Canasta La Diana,16.802950422245626,-99.82395578358629,,,,,,,,MX,2014-10-27,2021-08-12,,,,,,,,['4bf58dd8d48988d151941735'],['Dining and Drinking > Restaurant > Mexican Restaurant > Taco Restaurant'],b'\x00\x00\x00\x00\x01\xc0X\xf4\xbb\xb1\t\xf6\x9a@0\xcd\x8e(\xab\xda\xb7',"{'xmin': -99.82395578358629, 'ymin': 16.802950422245626, 'xmax': -99.82395578358629, 'ymax': 16.802950422245626}",dining and drinking > restaurant > mexican restaurant > taco restaurant,1
55578101498e6e9052b41d28,Tacos de Birria,18.842265173128755,-97.09235419983173,,Orizaba,Veracruz,,,,,MX,2015-05-16,2020-11-25,,,,,,,,['4bf58dd8d48988d151941735'],['Dining and Drinking > Restaurant > Mexican Restaurant > Taco Restaurant'],b'\x00\x00\x00\x00\x01\xc0XE\xe9!\x96\xfb<@2\xd7\x9e\xb0\xbd%\xd5',"{'xmin': -97.09235419983173, 'ymin': 18.842265173128755, 'xmax': -97.09235419983173, 'ymax': 18.842265173128755}",dining and drinking > restaurant > mexican restaurant > taco restaurant,1
4f4dad9be4b052b87b1642ab,Taquitos El Mexicano,18.96697259441584,-99.22654991558774,,,,,,,,MX,2012-02-29,2021-08-16,,,,,,,,['4bf58dd8d48988d151941735'],['Dining and Drinking > Restaurant > Mexican Restaurant > Taco Restaurant'],b'\x00\x00\x00\x00\x01\xc0X\xce\x7f\xcb7\x97\x19@2\xf7\x8b\x84\x15$\xf1',"{'xmin': -99.22654991558774, 'ymin': 18.96697259441584, 'xmax': -99.22654991558774, 'ymax': 18.96697259441584}",dining and drinking > restaurant > mexican restaurant > taco restaurant,1
5312b9ea498ebef8b812422c,Tacos de Humo,17.075062,-96.714653,"Belisario Domínguez No. 512, Col. Reforma",Oaxaca,Oaxaca,68050,,,,MX,2014-03-02,2020-11-25,,,,,,,tacosdehumo,['4bf58dd8d48988d151941735'],['Dining and Drinking > Restaurant > Mexican Restaurant > Taco Restaurant'],"b'\x00\x00\x00\x00\x01\xc0X-\xbc\xdf\xef\xbf@@1\x137Cc,\x1f'","{'xmin': -96.714653, 'ymin': 17.075062, 'xmax': -96.714653, 'ymax': 17.075062}",dining and drinking > restaurant > mexican restaurant > taco restaurant,1
4c9eff9f2fb1a143e629f040,Tacos Don Goyo,19.285993441950026,-99.59432657077106,,,,,,,,MX,2010-09-26,2020-11-24,,,,,,,,['4bf58dd8d48988d151941735'],['Dining and Drinking > Restaurant > Mexican Restaurant > Taco Restaurant'],b'\x00\x00\x00\x00\x01\xc0X\xe6\trP&\xc1@3I6\xdd\xc0\x0b\xbc',"{'xmin': -99.59432657077106, 'ymin': 19.285993441950026, 'xmax': -99.59432657077106, 'ymax': 19.285993441950026}",dining and drinking > restaurant > mexican restaurant > taco restaurant,1
62942930d7443769384e8f34,Boca Ready,19.161509,-96.122969,,Boca del Río,VER,94296,,,,MX,2022-05-30,2022-05-30,,,,,,,,['4bf58dd8d48988d151941735'],['Dining and Drinking > Restaurant > Mexican Restaurant > Taco Restaurant'],b'\x00\x00\x00\x00\x01\xc0X\x07\xde\xb9^Z\xff@3)X\xa7a\x02y',"{'xmin': -96.122969, 'ymin': 19.161509, 'xmax': -96.122969, 'ymax': 19.161509}",dining and drinking > restaurant > mexican restaurant > taco restaurant,1
4f7d01d5e4b0d6e7f2cca588,Taquitos Nativitas,19.287598646644096,-99.69323138398359,Av. Torres Chicas 509,Toluca,México,,,,,MX,2012-04-05,2020-11-24,,,,,,,,['4bf58dd8d48988d151941735'],['Dining and Drinking > Restaurant > Mexican Restaurant > Taco Restaurant'],b'\x00\x00\x00\x00\x01\xc0X\xec]\xe7*\xb1M@3I\xa0\x10\x9d\xb5\xd3',"{'xmin': -99.69323138398359, 'ymin': 19.287598646644096, 'xmax': -99.69323138398359, 'ymax': 19.287598646644096}",dining and drinking > restaurant > mexican restaurant > taco restaurant,1
513ff74ce4b0937d55628152,Tacos Indecos,17.54978047471305,-99.49787013390113,,,,,,,,MX,2013-03-13,2021-08-12,,,,,,,,['4bf58dd8d48988d151941735'],['Dining and Drinking > Restaurant > Mexican Restaurant > Taco Restaurant'],b'\x00\x00\x00\x00\x01\xc0X\xdf\xdd\x1a\xb1\xb0\xac@1\x8c\xbei\xc6\xdf5',"{'xmin': -99.49787013390113, 'ymin': 17.54978047471305, 'xmax': -99.49787013390113, 'ymax': 17.54978047471305}",dining and drinking > restaurant > mexican restaurant > taco restaurant,1
566b150e498e1bdb1232c028,"Tacos, Quesadillas Y Algo Más.  Eben -Ezer",19.294329575323893,-99.07677718221532,,,,,,,,MX,2015-12-11,2021-08-11,,,,,,,,['4bf58dd8d48988d151941735'],['Dining and Drinking > Restaurant > Mexican Restaurant > Taco Restaurant'],b'\x00\x00\x00\x00\x01\xc0X\xc4\xe9\xea\xd7\xach@3KY.\xdcB\xfe',"{'xmin': -99.07677718221532, 'ymin': 19.294329575323893, 'xmax': -99.07677718221532, 'ymax': 19.294329575323893}",dining and drinking > restaurant > mexican restaurant > taco restaurant,1
4fcd609be4b0c9b3214476e6,la fogata,15.13789955141652,-92.46619779061442,Francisco I Madero,Huixtla,chiapas,30640,,,,MX,2012-06-05,2020-11-25,,,,,,,,['4bf58dd8d48988d151941735'],['Dining and Drinking > Restaurant > Mexican Restaurant > Taco Restaurant'],b'\x00\x00\x00\x00\x01\xc0W\x1d\xd6/B\n\x02@.F\x9a\xc5\x1e\xef\x1e',"{'xmin': -92.46619779061442, 'ymin': 15.13789955141652, 'xmax': -92.46619779061442, 'ymax': 15.13789955141652}",dining and drinking > restaurant > mexican restaurant > taco restaurant,1
5192d548498e10ab277e65b9,"Tacos Sergio (cabeza,suadero,tripa)",19.26724,-99.572626,,,,,,,,MX,2013-05-15,2020-11-22,,,,,,,,['4bf58dd8d48988d151941735'],['Dining and Drinking > Restaurant > Mexican Restaurant > Taco Restaurant'],b'\x00\x00\x00\x00\x01\xc0X\xe4\xa5\xe7\x85\xb5\xb7@3Di\xd74.\xdc',"{'xmin': -99.572626, 'ymin': 19.26724, 'xmax': -99.572626, 'ymax': 19.26724}",dining and drinking > restaurant > mexican restaurant > taco restaurant,1
54c2b916498e0e6e7f9c9719,Salmonella's Hallway,19.33505422734596,-99.18137998445975,,,,,,,,MX,2015-01-23,2021-08-16,,,,,,,,['4bf58dd8d48988d151941735'],['Dining and Drinking > Restaurant > Mexican Restaurant > Taco Restaurant'],b'\x00\x00\x00\x00\x01\xc0X\xcb\x9b\xba\xcbY\xd5@3U\xc6\x1d$\xd6c',"{'xmin': -99.18137998445975, 'ymin': 19.33505422734596, 'xmax': -99.18137998445975, 'ymax': 19.33505422734596}",dining and drinking > restaurant > mexican restaurant > taco restaurant,1
564fd748498e3f2b63a48d0c,Taquería Los Aztecas,19.312825718674624,-99.16905204423078,,,,,,,,MX,2015-11-21,2021-08-16,,,,,,,,['4bf58dd8d48988d151941735'],['Dining and Drinking > Restaurant > Mexican Restaurant > Taco Restaurant'],"b'\x00\x00\x00\x00\x01\xc0X\xca\xd1\xbf\xaaR\xc3@3P\x15X\xa7\x0e""'","{'xmin': -99.16905204423078, 'ymin': 19.312825718674624, 'xmax': -99.16905204423078, 'ymax': 19.312825718674624}",dining and drinking > restaurant > mexican restaurant > taco restaurant,1
4f0106f5c5126f14b89719c3,Iglesia Del Laborio,16.33024778887364,-95.23210966953827,,Tehuantepec,Oaxaca,,,,,MX,2012-01-02,2020-11-22,,,,,,,,['4bf58dd8d48988d151941735'],['Dining and Drinking > Restaurant > Mexican Restaurant > Taco Restaurant'],b'\x00\x00\x00\x00\x01\xc0W\xce\xda\xe2\x83\xf0%@0T\x8b\x1e|\xc9\xe1',"{'xmin': -95.23210966953827, 'ymin': 16.33024778887364, 'xmax': -95.23210966953827, 'ymax': 16.33024778887364}",dining and drinking > restaurant > mexican restaurant > taco restaurant,1
553e8e0f498e43a4ea80bd6e,Mixiotes Estilo Hidalgo Vaqueritos,19.28575190952503,-99.12456287079414,Boulevard Adolfo Ruiz Cortinez,,Ciudad de México,,,,,MX,2015-04-27,2021-08-14,,,,,,,,['4bf58dd8d48988d151941735'],['Dining and Drinking > Restaurant > Mexican Restaurant > Taco Restaurant'],"b""\x00\x00\x00\x00\x01\xc0X\xc7\xf8\xd6\x8c\x16\xd4@3I'\t\x82-\xf7""","{'xmin': -99.12456287079414, 'ymin': 19.28575190952503, 'xmax': -99.12456287079414, 'ymax': 19.28575190952503}",dining and drinking > restaurant > mexican restaurant > taco restaurant,1
52ed1948498e555aec8aa253,tacos la suprema,19.2931381703227,-99.22480777220562,,,,,,,,MX,2014-02-01,2021-08-11,,,,,,,,['4bf58dd8d48988d151941735'],['Dining and Drinking > Restaurant > Mexican Restaurant > Taco Restaurant'],b'\x00\x00\x00\x00\x01\xc0X\xcec@#`\xa0@3K\x0b\x1af\xbe\xca',"{'xmin': -99.22480777220562, 'ymin': 19.2931381703227, 'xmax': -99.22480777220562, 'ymax': 19.2931381703227}",dining and drinking > restaurant > mexican restaurant > taco restaurant,1
5a98bd6d98fbfc52203e5d5c,Taquerías El Chontal,17.062391,-96.670211,Carretera Internacional 53 A,San Sebastián Tutla,OAX,71228,,,,MX,2018-03-02,2020-11-24,,951 223 4552,,,,,,['4bf58dd8d48988d151941735'],['Dining and Drinking > Restaurant > Mexican Restaurant > Taco Restaurant'],b'\x00\x00\x00\x00\x01\xc0X*\xe4\xbc\xad\x9a\xd8@1\x0f\xf8\xdbH\x90\x93',"{'xmin': -96.670211, 'ymin': 17.062391, 'xmax': -96.670211, 'ymax': 17.062391}",dining and drinking > restaurant > mexican restaurant > taco restaurant,1
520e4f8411d2ee2147fc6b05,Tacos El Cuñado,18.905029,-99.231836,,,,,,,,MX,2013-08-16,2021-08-16,,,,,,,,['4bf58dd8d48988d151941735'],['Dining and Drinking > Restaurant > Mexican Restaurant > Taco Restaurant'],b'\x00\x00\x00\x00\x01\xc0X\xce\xd6f\xa9\x82E@2\xe7\xaf\xfb\x04\xee|',"{'xmin': -99.231836, 'ymin': 18.905029, 'xmax': -99.231836, 'ymax': 18.905029}",dining and drinking > restaurant > mexican restaurant > taco restaurant,1
60f8e994cefb7a48a070f1f2,Taqueria “Los Dos Toros”,19.326617,-99.124487,,Ciudad de México,CDMX,04470,,,,MX,2021-07-22,2021-07-22,,,,,,,,['4bf58dd8d48988d151941735'],['Dining and Drinking > Restaurant > Mexican Restaurant > Taco Restaurant'],b'\x00\x00\x00\x00\x01\xc0X\xc7\xf7\x98Rq\xbd@3S\x9d+\xf5QP',"{'xmin': -99.124487, 'ymin': 19.326617, 'xmax': -99.124487, 'ymax': 19.326617}",dining and drinking > restaurant > mexican restaurant > taco restaurant,1
5b00d984bf7dde002cd7aed9,Los Focos,17.083926,-96.713755,Prolongacion De Amapolas 1050,Oaxaca de Juárez,OAX,68050,,,,MX,2018-05-20,2020-11-23,,,,,,,,['4bf58dd8d48988d151941735'],['Dining and Drinking > Restaurant > Mexican Restaurant > Taco Restaurant'],"b'\x00\x00\x00\x00\x01\xc0X-\xae)s\x96\xd1@1\x15|,\xa1H\xbb'","{'xmin': -96.713755, 'ymin': 17.083926, 'xmax': -96.713755, 'ymax': 17.083926}",dining and drinking > restaurant > mexican restaurant > taco restaurant,1
521128cf498ef4370e4582e1,"Barbacoa ""El Amigo""",19.09930388370475,-96.15333438396561,Avenida Medellìn 16,Puente Moreno,Veracruz-Llave,,,,,MX,2013-08-18,2020-11-22,,,,,,,,['4bf58dd8d48988d151941735'],['Dining and Drinking > Restaurant > Mexican Restaurant > Taco Restaurant'],b'\x00\x00\x00\x00\x01\xc0X\t\xd0;\x05\x1f\x04@3\x19k\xfa\xb4\xe0\xb0',"{'xmin': -96.15333438396561, 'ymin': 19.09930388370475, 'xmax': -96.15333438396561, 'ymax': 19.09930388370475}",dining and drinking > restaurant > mexican restaurant > taco restaurant,1
54ee903d498e990be85a9ee0,Carnes Asadas El Compadre,19.278834393157794,-99.56800801242336,Al Lado De Plaza Real,La Asunción Metepec,metepec,,,,,MX,2015-02-26,2020-11-23,,722 250 7245,,,,,,['4bf58dd8d48988d151941735'],['Dining and Drinking > Restaurant > Mexican Restaurant > Taco Restaurant'],b'\x00\x00\x00\x00\x01\xc0X\xe4Z>GN[@3Ga\xb0\xd7\x9c\xdc',"{'xmin': -99.56800801242336, 'ymin': 19.278834393157794, 'xmax': -99.56800801242336, 'ymax': 19.278834393157794}",dining and drinking > restaurant > mexican restaurant > taco restaurant,1
549e407c498efecb7ead8de3,"Taquería ""El Chumbia""",17.807912238962178,-97.77600316795754,,,,,,,,MX,2014-12-27,2021-08-15,,,,,,,,['4bf58dd8d48988d151941735'],['Dining and Drinking > Restaurant > Mexican Restaurant > Taco Restaurant'],b'\x00\x00\x00\x00\x01\xc0Xq\xaa\t0\xfe\x15@1\xce\xd3V$au',"{'xmin': -97.77600316795754, 'ymin': 17.807912238962178, 'xmax': -97.77600316795754, 'ymax': 17.807912238962178}",dining and drinking > restaurant > mexican restaurant > taco restaurant,1
58e12fabd0bb3e2f45f453a6,Feria Del Taco Zinacantepec,19.284009,-99.734042,,San Miguel Zinacantepec,Edomex,51354,,,,MX,2017-04-02,2021-08-16,,,,,,,,['4bf58dd8d48988d151941735'],['Dining and Drinking > Restaurant > Mexican Restaurant > Taco Restaurant'],b'\x00\x00\x00\x00\x01\xc0X\xee\xfa\x8bK\xf8\xfd@3H\xb4\xd0V\xc5\t',"{'xmin': -99.734042, 'ymin': 19.284009, 'xmax': -99.734042, 'ymax': 19.284009}",dining and drinking > restaurant > mexican restaurant > taco restaurant,1
50c4d8ece4b0309a653e734a,Doctor ahogados,19.399006,-102.051092,,,,,,,,MX,2012-12-09,2021-08-14,,,,,,,,['4bf58dd8d48988d151941735'],['Dining and Drinking > Restaurant > Mexican Restaurant > Taco Restaurant'],b'\x00\x00\x00\x00\x01\xc0Y\x83E\x17aE\x95@3f%A\xd8\xe8d',"{'xmin': -102.051092, 'ymin': 19.399006, 'xmax': -102.051092, 'ymax': 19.399006}",dining and drinking > restaurant > mexican restaurant > taco restaurant,1
511f128ae4b0ad7c70cbe09f,Las quesadillas,19.29090524449217,-99.13882957565285,,,,,,,,MX,2013-02-16,2021-08-16,,,,,,,,['4bf58dd8d48988d151941735'],['Dining and Drinking > Restaurant > Mexican Restaurant > Taco Restaurant'],b'\x00\x00\x00\x00\x01\xc0X\xc8\xe2\x95q\xc9a@3Jx\xc4\x1fT)',"{'xmin': -99.13882957565285, 'ymin': 19.29090524449217, 'xmax': -99.13882957565285, 'ymax': 19.29090524449217}",dining and drinking > restaurant > mexican restaurant > taco restaurant,1
63895110416f647b2723974c,Tacos El Remolque,16.234987,-92.156773,Manzana 1 Lote 22,Comitán de Domínguez,Chiapas,30065,,,,MX,2022-12-02,2022-12-02,,,,,,,,['4bf58dd8d48988d151941735'],['Dining and Drinking > Restaurant > Mexican Restaurant > Taco Restaurant'],b'\x00\x00\x00\x00\x01\xc0W\n\x08\x91\x9e\xf9U@0<(\x1b\xa7\xfc3',"{'xmin': -92.156773, 'ymin': 16.234987, 'xmax': -92.156773, 'ymax': 16.234987}",dining and drinking > restaurant > mexican restaurant > taco restaurant,1
53d2fd5b498edbadfd0eece0,El Mexicano,18.909905,-103.88212,,,,,,,,MX,2014-07-26,2021-08-15,,,,,,,,['4bf58dd8d48988d151941735'],['Dining and Drinking > Restaurant > Mexican Restaurant > Taco Restaurant'],b'\x00\x00\x00\x00\x01\xc0Y\xf8t\xa7q\xc9q@2\xe8\xef\x88\xb9w\x85',"{'xmin': -103.88212, 'ymin': 18.909905, 'xmax': -103.88212, 'ymax': 18.909905}",dining and drinking > restaurant > mexican restaurant > taco restaurant,1
51ae2888498ec8ce639dde7d,Chepe Tacos De Barbacoa De Borrego,18.924496391081515,-99.76985917541111,,,,,,,,MX,2013-06-04,2020-11-24,,,,,,,,['4bf58dd8d48988d151941735'],['Dining and Drinking > Restaurant > Mexican Restaurant > Taco Restaurant'],b'\x00\x00\x00\x00\x01\xc0X\xf1E_k:\xa4@2\xec\xab\xcb\xa4\xf7\x13',"{'xmin': -99.76985917541111, 'ymin': 18.924496391081515, 'xmax': -99.76985917541111, 'ymax': 18.924496391081515}",dining and drinking > restaurant > mexican restaurant > taco restaurant,1
5c4d27d1e179100039a15888,Tacos Al Vapor,18.978123,-99.253496,,Cuernavaca,MOR,62100,,,,MX,2019-01-27,2020-11-24,,,,,,,,['4bf58dd8d48988d151941735'],['Dining and Drinking > Restaurant > Mexican Restaurant > Taco Restaurant'],b'\x00\x00\x00\x00\x01\xc0X\xd09GIj\xad@2\xfafD\xd8w%',"{'xmin': -99.253496, 'ymin': 18.978123, 'xmax': -99.253496, 'ymax': 18.978123}",dining and drinking > restaurant > mexican restaurant > taco restaurant,1
4f4af165e4b093da1447f76c,Tacos falcon,19.298320002749648,-99.58612367101317,,,,,,,,MX,2012-02-27,2021-08-14,,,,,,,,['4bf58dd8d48988d1cb941735' '4bf58dd8d48988d151941735'],"['Dining and Drinking > Food Truck'
 'Dining and Drinking > Restaurant > Mexican Restaurant > Taco Restaurant']",b'\x00\x00\x00\x00\x01\xc0X\xe5\x83\x0c\xdb\x9ao@3L^\xb3\x1f\x8dh',"{'xmin': -99.58612367101317, 'ymin': 19.298320002749648, 'xmax': -99.58612367101317, 'ymax': 19.298320002749648}","dining and drinking > food truck, dining and drinking > restaurant > mexican restaurant > taco restaurant",1
566db2ce498eb66b024afc9a,restaurant Karnitas,19.97558964515505,-102.28462322053596,,,,,,,,MX,2015-12-13,2021-08-10,,,,,,,,['4bf58dd8d48988d151941735'],['Dining and Drinking > Restaurant > Mexican Restaurant > Taco Restaurant'],b'\x00\x00\x00\x00\x01\xc0Y\x927DO\xf8\x96@3\xf9\xc0>4A\xd7',"{'xmin': -102.28462322053596, 'ymin': 19.97558964515505, 'xmax': -102.28462322053596, 'ymax': 19.97558964515505}",dining and drinking > restaurant > mexican restaurant > taco restaurant,1
5c4d2c7a16ef67002c552e5a,The Habanero Chilli Peppers,19.299887,-99.167244,Calle 12 Oriente,Ciudad de México,CDMX,14030,,,,MX,2019-01-27,2020-11-23,,,,,,,,['4bf58dd8d48988d151941735'],['Dining and Drinking > Restaurant > Mexican Restaurant > Taco Restaurant'],b'\x00\x00\x00\x00\x01\xc0X\xca\xb4 -\x9c\xf1@3L\xc5d\xf9~\xdc',"{'xmin': -99.167244, 'ymin': 19.299887, 'xmax': -99.167244, 'ymax': 19.299887}",dining and drinking > restaurant > mexican restaurant > taco restaurant,1
52ed2da911d28f9ccf1dd383,"Taquería ""3 Hermanos""",18.08429434392171,-96.13376261898618,Av. 20 de Noviembre#1793,Tuxtepec,Oaxaca,,,,,MX,2014-02-01,2020-11-22,,,,,,,,['4bf58dd8d48988d151941735'],['Dining and Drinking > Restaurant > Mexican Restaurant > Taco Restaurant'],b'\x00\x00\x00\x00\x01\xc0X\x08\x8f\x91\x16~E@2\x15\x94Pja\xab',"{'xmin': -96.13376261898618, 'ymin': 18.08429434392171, 'xmax': -96.13376261898618, 'ymax': 18.08429434392171}",dining and drinking > restaurant > mexican restaurant > taco restaurant,1
4fb67d1fe4b0b94cfc195bb7,Quecas del viernes,19.253692,-99.111194,,,,,,,,MX,2012-05-18,2021-08-11,,,,,,,,['4bf58dd8d48988d151941735'],['Dining and Drinking > Restaurant > Mexican Restaurant > Taco Restaurant'],b'\x00\x00\x00\x00\x01\xc0X\xc7\x1d\xcdp`\xbb@3@\xf1\xf5{A\xc0',"{'xmin': -99.111194, 'ymin': 19.253692, 'xmax': -99.111194, 'ymax': 19.253692}",dining and drinking > restaurant > mexican restaurant > taco restaurant,1
4f2d8468e4b0c1a818d4792c,Tacos Charly,19.326485733451587,-99.15356009309978,Chichimeca,,,,,,,MX,2012-02-04,2021-08-17,,,,,,,,['4bf58dd8d48988d151941735'],['Dining and Drinking > Restaurant > Mexican Restaurant > Taco Restaurant'],b'\x00\x00\x00\x00\x01\xc0X\xc9\xd3\xed\xb6ue@3S\x94\x91\xab\xc8\xff',"{'xmin': -99.15356009309978, 'ymin': 19.326485733451587, 'xmax': -99.15356009309978, 'ymax': 19.326485733451587}",dining and drinking > restaurant > mexican restaurant > taco restaurant,1
517b84dc498ea18aece41fc2,A Tausen Soses,19.298489,-99.131055,,,,,,,,MX,2013-04-27,2021-08-14,,,,,,,,['4bf58dd8d48988d151941735'],['Dining and Drinking > Restaurant > Mexican Restaurant > Taco Restaurant'],b'\x00\x00\x00\x00\x01\xc0X\xc8c4\x82\xbe\x8c@3Li\xc6m7;',"{'xmin': -99.131055, 'ymin': 19.298489, 'xmax': -99.131055, 'ymax': 19.298489}",dining and drinking > restaurant > mexican restaurant > taco restaurant,1
54ed51af498e5a9d28cdaedc,Taqueria El Primo,18.556852,-99.601902,,,,,,,,MX,2015-02-25,2021-08-10,,,,,,,,['4bf58dd8d48988d151941735'],['Dining and Drinking > Restaurant > Mexican Restaurant > Taco Restaurant'],b'\x00\x00\x00\x00\x01\xc0X\xe6\x85\x8f\xf7Yh@2\x8e\x8d\xdaH\xb6R',"{'xmin': -99.601902, 'ymin': 18.556852, 'xmax': -99.601902, 'ymax': 18.556852}",dining and drinking > restaurant > mexican restaurant > taco restaurant,1
5b73822a3fcee8002c5e2138,Taqueria El Original,16.331724,-95.23172,,Tehuantepec,Oaxaca,70760,,,,MX,2018-08-15,2020-11-22,,,,,,,,['4bf58dd8d48988d151941735'],['Dining and Drinking > Restaurant > Mexican Restaurant > Taco Restaurant'],b'\x00\x00\x00\x00\x01\xc0W\xce\xd4\x80\x1fu\x10@0T\xeb\xdd3L^',"{'xmin': -95.23172, 'ymin': 16.331724, 'xmax': -95.23172, 'ymax': 16.331724}",dining and drinking > restaurant > mexican restaurant > taco restaurant,1
569b0b6e498eb2bf9047147d,Tacos Puebla,17.06502,-96.710232,,,,,,,,MX,2016-01-17,2021-08-12,,,,,,,,['4bf58dd8d48988d151941735'],['Dining and Drinking > Restaurant > Mexican Restaurant > Taco Restaurant'],b'\x00\x00\x00\x00\x01\xc0X-tp\xeb$\xa7@1\x10\xa5&\x95\x95\xff',"{'xmin': -96.710232, 'ymin': 17.06502, 'xmax': -96.710232, 'ymax': 17.06502}",dining and drinking > restaurant > mexican restaurant > taco restaurant,1
559decb9498e8685ec31bb62,"Taqueria ""El Tigre Toño""",17.64732971151933,-101.53894517723032,,,,,,,,MX,2015-07-09,2020-11-25,,,,,,,,['4bf58dd8d48988d151941735'],['Dining and Drinking > Restaurant > Mexican Restaurant > Taco Restaurant'],b'\x00\x00\x00\x00\x01\xc0Yb~\x13\xe9\xa2\xa2@1\xa5\xb7fd\xb4c',"{'xmin': -101.53894517723032, 'ymin': 17.64732971151933, 'xmax': -101.53894517723032, 'ymax': 17.64732971151933}",dining and drinking > restaurant > mexican restaurant > taco restaurant,1
4fe0d986e4b0fccda0dce6b8,Tacos Yecapixtla,19.32330664422667,-99.1528285505603,,,,,,,,MX,2012-06-19,2021-08-15,,,,,,,,['4bf58dd8d48988d151941735'],['Dining and Drinking > Restaurant > Mexican Restaurant > Taco Restaurant'],b'\x00\x00\x00\x00\x01\xc0X\xc9\xc7\xf1f\xa3M@3R\xc49g\x88v',"{'xmin': -99.1528285505603, 'ymin': 19.32330664422667, 'xmax': -99.1528285505603, 'ymax': 19.32330664422667}",dining and drinking > restaurant > mexican restaurant > taco restaurant,1
59c869327918717eb3075491,Tacos Los Orientales,18.453629,-96.354897,,Tierra Blanca,VER,95110,,,,MX,2017-09-25,2020-11-25,,,,,,,,['4bf58dd8d48988d151941735'],['Dining and Drinking > Restaurant > Mexican Restaurant > Taco Restaurant'],b'\x00\x00\x00\x00\x01\xc0X\x16\xb6\xa1\xe8\x1c\xb4@2t!\x07\xb7\x84f',"{'xmin': -96.354897, 'ymin': 18.453629, 'xmax': -96.354897, 'ymax': 18.453629}",dining and drinking > restaurant > mexican restaurant > taco restaurant,1
55d29f65498ee2458a3b3bab,los tarascos,19.306511,-99.118407,Rancho Vistahermosa,,DF,,,,,MX,2015-08-18,2021-08-13,,,,,,,,['4bf58dd8d48988d151941735'],['Dining and Drinking > Restaurant > Mexican Restaurant > Taco Restaurant'],"b""\x00\x00\x00\x00\x01\xc0X\xc7\x93\xfa\xf4'\x85@3Nw\x81@\xdd@""","{'xmin': -99.118407, 'ymin': 19.306511, 'xmax': -99.118407, 'ymax': 19.306511}",dining and drinking > restaurant > mexican restaurant > taco restaurant,1
4fa69eb8e4b063f122ff5a1e,Carnitas Chidas San To 8,19.317628258673896,-99.1711065694544,,,,,,,,MX,2012-05-06,2021-08-14,,,,,,,,['4bf58dd8d48988d151941735'],['Dining and Drinking > Restaurant > Mexican Restaurant > Taco Restaurant'],b'\x00\x00\x00\x00\x01\xc0X\xca\xf3h\xf7\xfb\xfe@3QP\x15\xe7J1',"{'xmin': -99.1711065694544, 'ymin': 19.317628258673896, 'xmax': -99.1711065694544, 'ymax': 19.317628258673896}",dining and drinking > restaurant > mexican restaurant > taco restaurant,1
6338eed07301673c11c69582,Riviera Taco By Barricast,19.078427,-96.093643,,Playas del Conchal,VER,95264,,,,MX,2022-10-02,2022-10-02,,,,,,,,['4bf58dd8d48988d151941735'],['Dining and Drinking > Restaurant > Mexican Restaurant > Taco Restaurant'],b'\x00\x00\x00\x00\x01\xc0X\x05\xfe?5\x9f\xf5@3\x14\x13\xca\xb8\x1f\x97',"{'xmin': -96.093643, 'ymin': 19.078427, 'xmax': -96.093643, 'ymax': 19.078427}",dining and drinking > restaurant > mexican restaurant > taco restaurant,1
571c31d6498eaa31fefcfde5,D'Beefers,19.278458,-99.57474,,,,,,,,MX,2016-04-24,2020-11-25,,,,,,,,['4bf58dd8d48988d151941735'],['Dining and Drinking > Restaurant > Mexican Restaurant > Taco Restaurant'],b'\x00\x00\x00\x00\x01\xc0X\xe4\xc8\x8aG\xec\xff@3GI\x06\x03O@',"{'xmin': -99.57474, 'ymin': 19.278458, 'xmax': -99.57474, 'ymax': 19.278458}",dining and drinking > restaurant > mexican restaurant > taco restaurant,1
4fc424b7e4b074b87a2fa70c,Las Regulas,17.272901,-97.683219,,,,,,,,MX,2012-05-29,2020-11-24,,,,,,,,['4bf58dd8d48988d151941735'],['Dining and Drinking > Restaurant > Mexican Restaurant > Taco Restaurant'],b'\x00\x00\x00\x00\x01\xc0Xk\xb9\xdc/@_@1E\xdc\xd7\x06\x0b\xb3',"{'xmin': -97.683219, 'ymin': 17.272901, 'xmax': -97.683219, 'ymax': 17.272901}",dining and drinking > restaurant > mexican restaurant > taco restaurant,1
4fa19acee4b03d0eba13caff,Medio Oriente,17.075054686546384,-96.7584143674746,,,,,,,,MX,2012-05-02,2021-08-13,,,,,,,,['4bf58dd8d48988d151941735'],['Dining and Drinking > Restaurant > Mexican Restaurant > Taco Restaurant'],b'\x00\x00\x00\x00\x01\xc0X0\x89\xdcjG\xad@1\x136\xc8\xb0 \xd5',"{'xmin': -96.7584143674746, 'ymin': 17.075054686546384, 'xmax': -96.7584143674746, 'ymax': 17.075054686546384}",dining and drinking > restaurant > mexican restaurant > taco restaurant,1
525c158f11d2a0480d7589eb,Comida Corrida Lupita's,18.91902980786891,-99.2410836702808,J. H. Preciado,Cuernavaca,Morelos,62020,,,,MX,2013-10-14,2020-11-25,,,,,,,,['4bf58dd8d48988d151941735'],['Dining and Drinking > Restaurant > Mexican Restaurant > Taco Restaurant'],b'\x00\x00\x00\x00\x01\xc0X\xcfm\xea3\xdd*@2\xebE\x89\x98\xd8\x9c',"{'xmin': -99.2410836702808, 'ymin': 18.91902980786891, 'xmax': -99.2410836702808, 'ymax': 18.91902980786891}",dining and drinking > restaurant > mexican restaurant > taco restaurant,1
51b412d7498ee782f5eb6e85,Tacos Mary,19.104938607663534,-99.58918861644369,,,,,,,,MX,2013-06-09,2021-08-11,,,,,,,,['4bf58dd8d48988d151941735'],['Dining and Drinking > Restaurant > Mexican Restaurant > Taco Restaurant'],b'\x00\x00\x00\x00\x01\xc0X\xe5\xb5D+\xb3F@3\x1a\xddA\xb0\x00\xae',"{'xmin': -99.58918861644369, 'ymin': 19.104938607663534, 'xmax': -99.58918861644369, 'ymax': 19.104938607663534}",dining and drinking > restaurant > mexican restaurant > taco restaurant,1
5a2e209e6cf01a75c896bede,Taqueria El Gallo,19.310163,-99.047905,,Ciudad de México,Ciudad de México,13300,,,,MX,2017-12-11,2020-11-30,,,,,,,,['4bf58dd8d48988d151941735'],['Dining and Drinking > Restaurant > Mexican Restaurant > Taco Restaurant'],"b'\x00\x00\x00\x00\x01\xc0X\xc3\x10\xe0""\x14\'@3Of\xd7\xa5m\xe3'","{'xmin': -99.047905, 'ymin': 19.310163, 'xmax': -99.047905, 'ymax': 19.310163}",dining and drinking > restaurant > mexican restaurant > taco restaurant,1
609607cc7832402bfa250dcf,Tacos El Trompo,19.284728,-99.205643,,Ciudad de México,CDMX,14250,,,,MX,2021-05-08,2021-05-08,,,,,,,,['4bf58dd8d48988d151941735'],['Dining and Drinking > Restaurant > Mexican Restaurant > Taco Restaurant'],b'\x00\x00\x00\x00\x01\xc0X\xcd)AA\xe9\xaf@3H\xe3\xef(Ah',"{'xmin': -99.205643, 'ymin': 19.284728, 'xmax': -99.205643, 'ymax': 19.284728}",dining and drinking > restaurant > mexican restaurant > taco restaurant,1
53bd65f5498e6c1d3bc8e752,"Barbacoa de chivo ""Chuy""",16.860218,-99.902298,,,,,,,,MX,2014-07-09,2021-08-12,,,,,,,,['4bf58dd8d48988d151941735'],['Dining and Drinking > Restaurant > Mexican Restaurant > Taco Restaurant'],b'\x00\x00\x00\x00\x01\xc0X\xf9\xbf@\x1cO\xc2@0\xdc7?1n7',"{'xmin': -99.902298, 'ymin': 16.860218, 'xmax': -99.902298, 'ymax': 16.860218}",dining and drinking > restaurant > mexican restaurant > taco restaurant,1
