fsq_place_id,name,latitude,longitude,address,locality,region,postcode,admin_region,post_town,po_box,country,date_created,date_refreshed,date_closed,tel,website,email,facebook_id,instagram,twitter,fsq_category_ids,fsq_category_labels,geom,bbox,labels_str,taco_restaurant
f63cd12c13804bf7ce5ef05f,Tacos de Birria la Comadre,,,Juarez 223,Ahome,Sinaloa,81200,,,,MX,2013-09-13,2023-12-06,,668 815 1650,,tacosdebirrialacomadre@hotmail.com,,,,['4bf58dd8d48988d151941735'],['Dining and Drinking > Restaurant > Mexican Restaurant > Taco Restaurant'],,"{'xmin': None, 'ymin': None, 'xmax': None, 'ymax': None}",dining and drinking > restaurant > mexican restaurant > taco restaurant,1
4cb22d929b34199c1813b963,Carnitas La Prietita,32.656972463376526,-115.43270587921143,Vazco de Quiroga,Mexicali,B.C.,,,,,MX,2010-10-10,2020-11-23,,686 567 5464,,,,,,['4bf58dd8d48988d151941735'],['Dining and Drinking > Restaurant > Mexican Restaurant > Taco Restaurant'],b'\x00\x00\x00\x00\x01\xc0\\\xdb\xb1t\x00\x00\x00@@T\x17\xacvI\x91',"{'xmin': -115.43270587921143, 'ymin': 32.656972463376526, 'xmax': -115.43270587921143, 'ymax': 32.656972463376526}",dining and drinking > restaurant > mexican restaurant > taco restaurant,1
6161ebb62367e8357a532de5,Xolo-Tacos La Cuesta Otay,32.533585,-116.944379,,Tijuana,BC,22430,,,,MX,2021-10-09,2021-10-09,,,,,,,,['4bf58dd8d48988d151941735'],['Dining and Drinking > Restaurant > Mexican Restaurant > Taco Restaurant'],b'\x00\x00\x00\x00\x01\xc0]<p\xb4\x9e\x01\xde@@DL\x83fQn',"{'xmin': -116.944379, 'ymin': 32.533585, 'xmax': -116.944379, 'ymax': 32.533585}",dining and drinking > restaurant > mexican restaurant > taco restaurant,1
515f8fd9e4b0e553dd236ec2,Tacos Polo Monte Carlo,32.5245624338997,-116.88800811767578,,,,,,,,MX,2013-04-06,2021-08-15,,,,,,,,['4bf58dd8d48988d151941735'],['Dining and Drinking > Restaurant > Mexican Restaurant > Taco Restaurant'],"b""\x00\x00\x00\x00\x01\xc0]8\xd5 \x00\x00\x00@@C$\xdc\xa1'\x9a""","{'xmin': -116.88800811767578, 'ymin': 32.5245624338997, 'xmax': -116.88800811767578, 'ymax': 32.5245624338997}",dining and drinking > restaurant > mexican restaurant > taco restaurant,1
4cfdcbe9ee9cb60cdf729cad,El Danny's Asadero,32.64933823646009,-115.50629751145831,Calle 10,Mexicali,BC,,,,,MX,2010-12-07,2020-11-24,,,,,,,,['4bf58dd8d48988d151941735'],['Dining and Drinking > Restaurant > Mexican Restaurant > Taco Restaurant'],b'\x00\x00\x00\x00\x01\xc0\\\xe0g-\xadp\x9e@@S\x1d\x83\xec\xd1\xb7',"{'xmin': -115.50629751145831, 'ymin': 32.64933823646009, 'xmax': -115.50629751145831, 'ymax': 32.64933823646009}",dining and drinking > restaurant > mexican restaurant > taco restaurant,1
5a82536b3abcaf07ee7c03d4,Los Machetes,32.436488,-117.030895,,Tijuana,BC,22664,,,,MX,2018-02-13,2020-11-24,,,,,,,,['4bf58dd8d48988d151941735'],['Dining and Drinking > Restaurant > Mexican Restaurant > Taco Restaurant'],b'\x00\x00\x00\x00\x01\xc0]A\xfa/\x05\xa7\t@@7\xde\xd6\xba\x8cX',"{'xmin': -117.030895, 'ymin': 32.436488, 'xmax': -117.030895, 'ymax': 32.436488}",dining and drinking > restaurant > mexican restaurant > taco restaurant,1
52cc2ceb498e23316ee8e9bf,Tacos Fernas,32.59676742553711,-115.4334716796875,,,,,,,,MX,2014-01-07,2021-08-14,,,,,,,,['4bf58dd8d48988d151941735'],['Dining and Drinking > Restaurant > Mexican Restaurant > Taco Restaurant'],b'\x00\x00\x00\x00\x01\xc0\\\xdb\xbe\x00\x00\x00\x00@@Lb\xe0\x00\x00\x00',"{'xmin': -115.4334716796875, 'ymin': 32.59676742553711, 'xmax': -115.4334716796875, 'ymax': 32.59676742553711}",dining and drinking > restaurant > mexican restaurant > taco restaurant,1
4eb49eb9be7bfc2849f77c66,Tacos La Choza,32.52132486112528,-117.1158483711227,paseo ensenada,playas de tijuana,,22500,,,,MX,2011-11-05,2020-11-22,,,,,,,,['4bf58dd8d48988d151941735'],['Dining and Drinking > Restaurant > Mexican Restaurant > Taco Restaurant'],b'\x00\x00\x00\x00\x01\xc0]Gj\x0fIQ\x14@@B\xba\xc5\xe6\x8f\xfa',"{'xmin': -117.1158483711227, 'ymin': 32.52132486112528, 'xmax': -117.1158483711227, 'ymax': 32.52132486112528}",dining and drinking > restaurant > mexican restaurant > taco restaurant,1
4d4f2255a0b0a09389e05483,Mariscos Tito's,32.531265,-117.11125,P.º Estrella del Mar #605,Tijuana,BC,22504,,,,MX,2010-03-20,2023-08-06,,664 804 2260,https://mariscostitos.com,,922125314497570.0,mariscostitos,,['4bf58dd8d48988d1ce941735' '4bf58dd8d48988d151941735'],"['Dining and Drinking > Restaurant > Seafood Restaurant'
 'Dining and Drinking > Restaurant > Mexican Restaurant > Taco Restaurant']",b'\x00\x00\x00\x00\x01\xc0]G\x1e\xb8Q\xeb\x85@@D\x00}\xd4A5',"{'xmin': -117.11125, 'ymin': 32.531265, 'xmax': -117.11125, 'ymax': 32.531265}","dining and drinking > restaurant > seafood restaurant, dining and drinking > restaurant > mexican restaurant > taco restaurant",1
4e4ea7921495fc2ca3f3b126,Tacos El Birriringuis,32.472141,-116.921104,,Tijuana,BC,,,,,MX,2011-08-19,2020-11-24,,,,,,,,['4bf58dd8d48988d151941735'],['Dining and Drinking > Restaurant > Mexican Restaurant > Taco Restaurant'],b'\x00\x00\x00\x00\x01\xc0]:\xf3^1\r\xbf@@<o\x1d\xc5\x0c\xe5',"{'xmin': -116.921104, 'ymin': 32.472141, 'xmax': -116.921104, 'ymax': 32.472141}",dining and drinking > restaurant > mexican restaurant > taco restaurant,1
4da351919935a09356f2c66f,El Chino Taquerias,32.65396,-115.45283,Calz Justo Sierra,Mexicali,BC,,,,,MX,2011-04-11,2020-11-24,,,,,,,,['4bf58dd8d48988d151941735'],['Dining and Drinking > Restaurant > Mexican Restaurant > Taco Restaurant'],b'\x00\x00\x00\x00\x01\xc0\\\xdc\xfb*\xae)t@@S\xb4\xf6\x16r2',"{'xmin': -115.45283, 'ymin': 32.65396, 'xmax': -115.45283, 'ymax': 32.65396}",dining and drinking > restaurant > mexican restaurant > taco restaurant,1
4f75ebf4e4b0ca03a377698a,Tacos de Guisado Bubba's,32.61124389510545,-115.43894032210831,,,,,,,,MX,2012-03-30,2021-08-16,,,,,,,,['4bf58dd8d48988d1cb941735' '4bf58dd8d48988d151941735'],"['Dining and Drinking > Food Truck'
 'Dining and Drinking > Restaurant > Mexican Restaurant > Taco Restaurant']",b'\x00\x00\x00\x00\x01\xc0\\\xdc\x17\x99&\x16u@@N==m\xad\xc5',"{'xmin': -115.43894032210831, 'ymin': 32.61124389510545, 'xmax': -115.43894032210831, 'ymax': 32.61124389510545}","dining and drinking > food truck, dining and drinking > restaurant > mexican restaurant > taco restaurant",1
4f41c50ce4b0102f0f0481a7,Tacos del Sol,31.86068723972977,-116.62182725534956,,,,,,,,MX,2012-02-20,2021-08-12,,,,,,,,['4bf58dd8d48988d151941735'],['Dining and Drinking > Restaurant > Mexican Restaurant > Taco Restaurant'],"b""\x00\x00\x00\x00\x01\xc0]'\xcc\x04\x8b_8@?\xdcU\xff\xba\xb9P""","{'xmin': -116.62182725534956, 'ymin': 31.86068723972977, 'xmax': -116.62182725534956, 'ymax': 31.86068723972977}",dining and drinking > restaurant > mexican restaurant > taco restaurant,1
4f7240eee4b010795c9244d2,Tacos El Toro,32.63911473220834,-115.4329702687991,Independencia,,,,,,,MX,2012-03-27,2021-08-13,,,,,,,,['4bf58dd8d48988d151941735'],['Dining and Drinking > Restaurant > Mexican Restaurant > Taco Restaurant'],b'\x00\x00\x00\x00\x01\xc0\\\xdb\xb5\xc8\xee(z@@Q\xce\x82\xf4\x9d\x02',"{'xmin': -115.4329702687991, 'ymin': 32.63911473220834, 'xmax': -115.4329702687991, 'ymax': 32.63911473220834}",dining and drinking > restaurant > mexican restaurant > taco restaurant,1
4e331debae60795fcfd270c3,Tacos El Tury,32.6272870792717,-115.44471687872907,,Mexicali,Baja California,,,,,MX,2011-07-29,2020-11-30,,,,,,,,['4bf58dd8d48988d151941735'],['Dining and Drinking > Restaurant > Mexican Restaurant > Taco Restaurant'],b'\x00\x00\x00\x00\x01\xc0\\\xdcv=\xc8\x87\xb7@@PJ\xf1iVq',"{'xmin': -115.44471687872907, 'ymin': 32.6272870792717, 'xmax': -115.44471687872907, 'ymax': 32.6272870792717}",dining and drinking > restaurant > mexican restaurant > taco restaurant,1
4d686658b8d5cbff80d280a2,La Vianda,31.881815227254105,-116.61888917348007,Av. Ambar,Ensenada,Baja California,,,,,MX,2011-02-26,2020-11-24,,,,,,,,['4bf58dd8d48988d151941735'],['Dining and Drinking > Restaurant > Mexican Restaurant > Taco Restaurant'],"b""\x00\x00\x00\x00\x01\xc0]'\x9b\xe1U\xfc\x81@?\xe1\xbe\xa4\x8a+\xd3""","{'xmin': -116.61888917348007, 'ymin': 31.881815227254105, 'xmax': -116.61888917348007, 'ymax': 31.881815227254105}",dining and drinking > restaurant > mexican restaurant > taco restaurant,1
507398a4e4b01efe2a37467d,Cenaduria Reina,20.67836168274729,-101.35025550421902,,,,,,,,MX,2012-10-09,2021-08-17,,,,,,,,['4bf58dd8d48988d151941735'],['Dining and Drinking > Restaurant > Mexican Restaurant > Taco Restaurant'],b'\x00\x00\x00\x00\x01\xc0YVj\x96\x0f\xf7W@4\xad\xa9\x1czBW',"{'xmin': -101.35025550421902, 'ymin': 20.67836168274729, 'xmax': -101.35025550421902, 'ymax': 20.67836168274729}",dining and drinking > restaurant > mexican restaurant > taco restaurant,1
4e31a2b32271cfd3d04d6bec,CocinArt (Lonches y Gorditas),20.642927248169425,-103.38647480563193,,Guadalajara,Jalisco,,,,,MX,2011-07-28,2021-08-17,,,,,,,,['4bf58dd8d48988d151941735'],['Dining and Drinking > Restaurant > Mexican Restaurant > Taco Restaurant'],b'\x00\x00\x00\x00\x01\xc0Y\xd8\xbc\x00\xd2\xba\xb2@4\xa4\x96\xe1P\x98O',"{'xmin': -103.38647480563193, 'ymin': 20.642927248169425, 'xmax': -103.38647480563193, 'ymax': 20.642927248169425}",dining and drinking > restaurant > mexican restaurant > taco restaurant,1
56970cb0498ef29869611306,tacos de 3.50,20.508396301538223,-100.79626172296943,,,,,,,,MX,2016-01-14,2021-08-11,,,,,,,,['4bf58dd8d48988d151941735'],['Dining and Drinking > Restaurant > Mexican Restaurant > Taco Restaurant'],b'\x00\x00\x00\x00\x01\xc0Y2\xf5\xf3\xba\xcdv@4\x82&B\x90\x83\x97',"{'xmin': -100.79626172296943, 'ymin': 20.508396301538223, 'xmax': -100.79626172296943, 'ymax': 20.508396301538223}",dining and drinking > restaurant > mexican restaurant > taco restaurant,1
54e0f67b498e80dff1635f2e,Carnitas LALO - Tortas y Tacos,21.10513,-101.652167,Mariano Escobedo 3402,Leon,Guanajuato,,,,,MX,2015-02-15,2020-11-23,,477 256 6687,,,,,,['4bf58dd8d48988d151941735'],['Dining and Drinking > Restaurant > Mexican Restaurant > Taco Restaurant'],b'\x00\x00\x00\x00\x01\xc0Yi\xbd\x1a\xa8!\xf3@5\x1a\xe9\xcc\xb7\xd4\x17',"{'xmin': -101.652167, 'ymin': 21.10513, 'xmax': -101.652167, 'ymax': 21.10513}",dining and drinking > restaurant > mexican restaurant > taco restaurant,1
513c0181e4b02357e3730bfd,Tacos Jaime,20.702750377939182,-103.31173768068138,Av. De La Cruz 2462,Guadalajara,Jalisco,,,,,MX,2013-03-10,2021-08-17,,,,,,,,['4bf58dd8d48988d151941735'],['Dining and Drinking > Restaurant > Mexican Restaurant > Taco Restaurant'],b'\x00\x00\x00\x00\x01\xc0Y\xd3\xf3\x82\x99\xddF@4\xb3\xe7r\xe2\x80\x1c',"{'xmin': -103.31173768068138, 'ymin': 20.702750377939182, 'xmax': -103.31173768068138, 'ymax': 20.702750377939182}",dining and drinking > restaurant > mexican restaurant > taco restaurant,1
5934693dc9f9071ab373e268,"Tacos De Barbacoa ""El Pueblito""",20.62919,-103.42747,Isaac Newton 4180,Zapopan,Jalisco,45070,,,,MX,2017-06-04,2020-11-24,,,,,,,,['4bf58dd8d48988d151941735'],['Dining and Drinking > Restaurant > Mexican Restaurant > Taco Restaurant'],b'\x00\x00\x00\x00\x01\xc0Y\xdb[\xab!\x81Z@4\xa1\x12\x98\x88\xf8b',"{'xmin': -103.42747, 'ymin': 20.62919, 'xmax': -103.42747, 'ymax': 20.62919}",dining and drinking > restaurant > mexican restaurant > taco restaurant,1
56207763498ef11de3dd800f,Sahuaros Grill - Patria y Vallarta,20.677983127829787,-103.42193752527237,Av. Patria 22,Zapopan,Jalisco,45020,,,,MX,2015-10-16,2020-11-24,,,,,,,,['4bf58dd8d48988d151941735'],['Dining and Drinking > Restaurant > Mexican Restaurant > Taco Restaurant'],b'\x00\x00\x00\x00\x01\xc0Y\xdb\x01\x06@\x00\x00@4\xad\x90MaD\xcb',"{'xmin': -103.42193752527237, 'ymin': 20.677983127829787, 'xmax': -103.42193752527237, 'ymax': 20.677983127829787}",dining and drinking > restaurant > mexican restaurant > taco restaurant,1
56b416b8498e4202411006fc,"Taqueria ""La Tuta""",21.98681,-103.596405,,,,,,,,MX,2016-02-05,2021-08-17,,,,,,,,['4bf58dd8d48988d151941735'],['Dining and Drinking > Restaurant > Mexican Restaurant > Taco Restaurant'],b'\x00\x00\x00\x00\x01\xc0Y\xe6+\x7f\xe0\x8a\xf0@5\xfc\x9f\x94\x85]\xa2',"{'xmin': -103.596405, 'ymin': 21.98681, 'xmax': -103.596405, 'ymax': 21.98681}",dining and drinking > restaurant > mexican restaurant > taco restaurant,1
56a55320498ea4930e251ef1,Taqueria el parquesito,20.70607,-102.34749,,,,,,,,MX,2016-01-24,2021-08-16,,,,,,,,['4bf58dd8d48988d151941735'],['Dining and Drinking > Restaurant > Mexican Restaurant > Taco Restaurant'],b'\x00\x00\x00\x00\x01\xc0Y\x96=F\xb2k\xf8@4\xb4\xc1\x00\xe6\xaf\xcd',"{'xmin': -102.34749, 'ymin': 20.70607, 'xmax': -102.34749, 'ymax': 20.70607}",dining and drinking > restaurant > mexican restaurant > taco restaurant,1
59b367c5b0405661b61a10a3,Tacos Del Arco De Foresta,22.147087,-100.92199,,Soledad de Graciano Sánchez,San Luis Potosí,78437,,,,MX,2017-09-09,2020-11-24,,,,,,,,['4bf58dd8d48988d151941735'],['Dining and Drinking > Restaurant > Mexican Restaurant > Taco Restaurant'],b'\x00\x00\x00\x00\x01\xc0Y;\x01\xe2XOL@6%\xa7~^\xaa\xb0',"{'xmin': -100.92199, 'ymin': 22.147087, 'xmax': -100.92199, 'ymax': 22.147087}",dining and drinking > restaurant > mexican restaurant > taco restaurant,1
50c23a20e4b0309a634aa126,Tacos De Canasta El Güero,21.2430988647027,-104.90217713162421,,,,,,,,MX,2012-12-07,2021-08-11,,,,,,,,['4bf58dd8d48988d151941735'],['Dining and Drinking > Restaurant > Mexican Restaurant > Taco Restaurant'],b'\x00\x00\x00\x00\x01\xc0Z9\xbdE&\xe1\x9b@5>;\xba)\x97\xc3',"{'xmin': -104.90217713162421, 'ymin': 21.2430988647027, 'xmax': -104.90217713162421, 'ymax': 21.2430988647027}",dining and drinking > restaurant > mexican restaurant > taco restaurant,1
587cff2f88641b157ea4bd55,El Hostalito,21.928728,-102.305312,,Aguascalientes,,,,,,MX,2017-01-16,2020-11-23,,,,,,,,"['4bf58dd8d48988d151941735' '4bf58dd8d48988d153941735'
 '4bf58dd8d48988d1c1941735']","['Dining and Drinking > Restaurant > Mexican Restaurant > Taco Restaurant'
 'Dining and Drinking > Restaurant > Mexican Restaurant > Burrito Restaurant'
 'Dining and Drinking > Restaurant > Mexican Restaurant']",b'\x00\x00\x00\x00\x01\xc0Y\x93\x8a;W\xc4\xe3@5\xed\xc1\x1eB\xe1&',"{'xmin': -102.305312, 'ymin': 21.928728, 'xmax': -102.305312, 'ymax': 21.928728}","dining and drinking > restaurant > mexican restaurant > taco restaurant, dining and drinking > restaurant > mexican restaurant > burrito restaurant, dining and drinking > restaurant > mexican restaurant",1
4d390c399ae66dcbe0a11ce7,Las Jaulas del Porio,20.72882299463767,-103.45271587371826,Av. Aviación,Zapopan,Jalisco,,,,,MX,2011-01-21,2020-11-25,2013-07-04,,,,,,,['4bf58dd8d48988d151941735'],['Dining and Drinking > Restaurant > Mexican Restaurant > Taco Restaurant'],b'\x00\x00\x00\x00\x01\xc0Y\xdc\xf9L\x00\x00\x00@4\xba\x94$\xce\x8a\xa5',"{'xmin': -103.45271587371826, 'ymin': 20.72882299463767, 'xmax': -103.45271587371826, 'ymax': 20.72882299463767}",dining and drinking > restaurant > mexican restaurant > taco restaurant,1
55eceed9498eb91aecd4d112,Tacos Los Leones,20.658722,-103.415278,,,,,,,,MX,2015-09-07,2021-08-15,,,,,,,,['4bf58dd8d48988d151941735'],['Dining and Drinking > Restaurant > Mexican Restaurant > Taco Restaurant'],"b""\x00\x00\x00\x00\x01\xc0Y\xda\x93\xea-/\xe4@4\xa8\xa2\x01G'\xdd""","{'xmin': -103.415278, 'ymin': 20.658722, 'xmax': -103.415278, 'ymax': 20.658722}",dining and drinking > restaurant > mexican restaurant > taco restaurant,1
5475400e498ec0beb56f2ee1,La Takeria Santa Anita,20.56619309125924,-103.48121817388743,,,,,,,,MX,2014-11-26,2021-08-12,,,,,,,,['4bf58dd8d48988d151941735'],['Dining and Drinking > Restaurant > Mexican Restaurant > Taco Restaurant'],b'\x00\x00\x00\x00\x01\xc0Y\xde\xccGO\xc5\x97@4\x90\xf2\x07\xca-\xf9',"{'xmin': -103.48121817388743, 'ymin': 20.56619309125924, 'xmax': -103.48121817388743, 'ymax': 20.56619309125924}",dining and drinking > restaurant > mexican restaurant > taco restaurant,1
5cf1be097564f7002ca1b2fb,Peinecillo Grill,20.594482,-103.355283,,Tlaquepaque,JAL,45599,,,,MX,2019-05-31,2020-11-25,,,,,,,,['4bf58dd8d48988d151941735'],['Dining and Drinking > Restaurant > Mexican Restaurant > Taco Restaurant'],b'\x00\x00\x00\x00\x01\xc0Y\xd6\xbc\xf4\xe8t\xc9@4\x98/\xf8\xec\x0f\x88',"{'xmin': -103.355283, 'ymin': 20.594482, 'xmax': -103.355283, 'ymax': 20.594482}",dining and drinking > restaurant > mexican restaurant > taco restaurant,1
4f35cc25e4b0beedd041bf9c,La Costilla,20.639469501694876,-100.98723722207104,,Juventino Rosas,Guanajuato,,,,,MX,2012-02-11,2020-11-23,,,,,,,,['4bf58dd8d48988d151941735'],['Dining and Drinking > Restaurant > Mexican Restaurant > Taco Restaurant'],b'\x00\x00\x00\x00\x01\xc0Y?.\xe5\x07\x8c\x19@4\xa3\xb4E\xf4\x91\xa4',"{'xmin': -100.98723722207104, 'ymin': 20.639469501694876, 'xmax': -100.98723722207104, 'ymax': 20.639469501694876}",dining and drinking > restaurant > mexican restaurant > taco restaurant,1
500cc484e4b02b2a7ff580f9,Taqueria Cuauhtémoc,20.807842425757272,-104.40540048242129,,,,,,,,MX,2012-07-23,2021-08-11,,,,,,,,['4bf58dd8d48988d151941735'],['Dining and Drinking > Restaurant > Mexican Restaurant > Taco Restaurant'],b'\x00\x00\x00\x00\x01\xc0Z\x19\xf2\x14\xddr\r@4\xce\xce\xc2\xde\xf2\xe4',"{'xmin': -104.40540048242129, 'ymin': 20.807842425757272, 'xmax': -104.40540048242129, 'ymax': 20.807842425757272}",dining and drinking > restaurant > mexican restaurant > taco restaurant,1
517af3f9e4b0478d078b4091,Quesadillas la Doña 2,20.024658280945275,-100.72206382981376,,,,,,,,MX,2013-04-26,2021-08-15,,,,,,,,['4bf58dd8d48988d151941735'],['Dining and Drinking > Restaurant > Mexican Restaurant > Taco Restaurant'],b'\x00\x00\x00\x00\x01\xc0Y.6K5\xab-@4\x06P\x01N<L',"{'xmin': -100.72206382981376, 'ymin': 20.024658280945275, 'xmax': -100.72206382981376, 'ymax': 20.024658280945275}",dining and drinking > restaurant > mexican restaurant > taco restaurant,1
528055f611d25a27d02cdfd7,Tacos Neto,20.607363603524735,-105.22627824581188,Atmosfera,Puerto Vallarta,Jalisco,,,,,MX,2013-11-11,2020-11-26,,,,,,,,['4bf58dd8d48988d151941735'],['Dining and Drinking > Restaurant > Mexican Restaurant > Taco Restaurant'],b'\x00\x00\x00\x00\x01\xc0ZN{W\xc0c\xbb@4\x9b|.]\xeba',"{'xmin': -105.22627824581188, 'ymin': 20.607363603524735, 'xmax': -105.22627824581188, 'ymax': 20.607363603524735}",dining and drinking > restaurant > mexican restaurant > taco restaurant,1
5927ada1c21cb17f3497f113,Tacos Abajo De La Guanajuatense,21.014828,-101.251755,,Guanajuato,Guanajuato,,,,,MX,2017-05-26,2020-11-23,,,,,,,,['4bf58dd8d48988d151941735'],['Dining and Drinking > Restaurant > Mexican Restaurant > Taco Restaurant'],b'\x00\x00\x00\x00\x01\xc0YP\x1c\xc1\x00\xe6\xb0@5\x03\xcb\xc4\x8f\x10\xaa',"{'xmin': -101.251755, 'ymin': 21.014828, 'xmax': -101.251755, 'ymax': 21.014828}",dining and drinking > restaurant > mexican restaurant > taco restaurant,1
4dea521cfa76cc1b8ae15bad,"Taqueria ""El Comelon""",20.74548188956803,-103.43009875637149,Av. Del Valle,Zapopan,Jalisco,,,,,MX,2011-06-04,2020-11-23,,,,,,,,['4bf58dd8d48988d151941735'],['Dining and Drinking > Restaurant > Mexican Restaurant > Taco Restaurant'],b'\x00\x00\x00\x00\x01\xc0Y\xdb\x86\xbc\xef*\x9d@4\xbe\xd7\xe6\xafty',"{'xmin': -103.43009875637149, 'ymin': 20.74548188956803, 'xmax': -103.43009875637149, 'ymax': 20.74548188956803}",dining and drinking > restaurant > mexican restaurant > taco restaurant,1
51deda63498e3239cdc199fe,yakaiba,20.68891334280934,-103.30099125047926,,,,,,,,MX,2013-07-11,2021-08-17,,,,,,,,['4bf58dd8d48988d151941735'],['Dining and Drinking > Restaurant > Mexican Restaurant > Taco Restaurant'],b'\x00\x00\x00\x00\x01\xc0Y\xd3Cp\xceL2@4\xb0\\\x9f\xf5$\xe7',"{'xmin': -103.30099125047926, 'ymin': 20.68891334280934, 'xmax': -103.30099125047926, 'ymax': 20.68891334280934}",dining and drinking > restaurant > mexican restaurant > taco restaurant,1
615f94e91970e9198ac4e540,Tacos El Chairo,20.669771,-103.425742,Miguel Angel,Zapopan,JAL,45030,,,,MX,2021-10-08,2021-10-08,,,,,,,,"['4bf58dd8d48988d151941735' '4bf58dd8d48988d1c1941735'
 '56aa371be4b08b9a8d57350b']","['Dining and Drinking > Restaurant > Mexican Restaurant > Taco Restaurant'
 'Dining and Drinking > Restaurant > Mexican Restaurant'
 'Dining and Drinking > Food Stand']","b""\x00\x00\x00\x00\x01\xc0Y\xdb?[_\xa2'@4\xabv\x1c\xbc\xcf)""","{'xmin': -103.425742, 'ymin': 20.669771, 'xmax': -103.425742, 'ymax': 20.669771}","dining and drinking > restaurant > mexican restaurant > taco restaurant, dining and drinking > restaurant > mexican restaurant, dining and drinking > food stand",1
4efe5cbb77c885c3345866bd,La Roka,20.900881,-105.41425,Av. Tercer Mundo,San Pancho,Nayarit,,,,,MX,2011-12-31,2020-11-22,,,,,,,,['4bf58dd8d48988d151941735'],['Dining and Drinking > Restaurant > Mexican Restaurant > Taco Restaurant'],b'\x00\x00\x00\x00\x01\xc0ZZ\x83\x12n\x97\x8d@4\xe6\xa0# \x96x',"{'xmin': -105.41425, 'ymin': 20.900881, 'xmax': -105.41425, 'ymax': 20.900881}",dining and drinking > restaurant > mexican restaurant > taco restaurant,1
4e97df7b29c239fa2834e96e,"Taquería ""No Que No""",21.135590410919814,-101.68690216800243,,León de Los Aldama,Guanajuato,,,,,MX,2011-10-14,2023-12-19,,477 311 2193,,,,,,['4bf58dd8d48988d151941735'],['Dining and Drinking > Restaurant > Mexican Restaurant > Taco Restaurant'],"b'\x00\x00\x00\x00\x01\xc0Yk\xf64\x82\xc7\xce@5""\xb6\r\x9c\x8dC'","{'xmin': -101.68690216800243, 'ymin': 21.135590410919814, 'xmax': -101.68690216800243, 'ymax': 21.135590410919814}",dining and drinking > restaurant > mexican restaurant > taco restaurant,1
50a467d2e4b065dfa2578d67,"Tacos ""El Toletazo""",21.24378768635298,-104.90475467125923,Calzada Gilberto Flores Muñoz,Compostela,Nayarit,63700,,,,MX,2012-11-15,2020-11-24,,,,,,,,['4bf58dd8d48988d151941735'],['Dining and Drinking > Restaurant > Mexican Restaurant > Taco Restaurant'],"b'\x00\x00\x00\x00\x01\xc0Z9\xe7\x80""\xfd\x8b@5>h\xde\xac\r\xb6'","{'xmin': -104.90475467125923, 'ymin': 21.24378768635298, 'xmax': -104.90475467125923, 'ymax': 21.24378768635298}",dining and drinking > restaurant > mexican restaurant > taco restaurant,1
50b030e1e4b0d8a9f04e4247,Hidalgo esquina colon,20.812671661376953,-102.75845336914062,,,,,,,,MX,2012-11-24,2021-08-13,,,,,,,,['4bf58dd8d48988d151941735'],['Dining and Drinking > Restaurant > Mexican Restaurant > Taco Restaurant'],b'\x00\x00\x00\x00\x01\xc0Y\xb0\x8a\x80\x00\x00\x00@4\xd0\x0b@\x00\x00\x00',"{'xmin': -102.75845336914062, 'ymin': 20.812671661376953, 'xmax': -102.75845336914062, 'ymax': 20.812671661376953}",dining and drinking > restaurant > mexican restaurant > taco restaurant,1
527560e311d2a82afa2533b5,El Cachanilla,20.685261,-103.348816,,,,,,,,MX,2013-11-02,2021-08-15,,,,,,,,['4bf58dd8d48988d151941735'],['Dining and Drinking > Restaurant > Mexican Restaurant > Taco Restaurant'],b'\x00\x00\x00\x00\x01\xc0Y\xd6S\x00X\x14\x94@4\xafmC\xd09i',"{'xmin': -103.348816, 'ymin': 20.685261, 'xmax': -103.348816, 'ymax': 20.685261}",dining and drinking > restaurant > mexican restaurant > taco restaurant,1
50c660ffe4b0fb71458052b6,Taquería Lupita,21.63368,-102.97596,,,,,,,,MX,2012-12-10,2023-12-19,,463 955 4105,,,,,,['4bf58dd8d48988d151941735'],['Dining and Drinking > Restaurant > Mexican Restaurant > Taco Restaurant'],b'\x00\x00\x00\x00\x01\xc0Y\xbev \xee\x8d\x11@5\xa28\xda<!\x18',"{'xmin': -102.97596, 'ymin': 21.63368, 'xmax': -102.97596, 'ymax': 21.63368}",dining and drinking > restaurant > mexican restaurant > taco restaurant,1
562d95d9498e41e8f685daad,Tacos Mago,20.620973587036133,-103.35582733154297,Jose Guillermo Carbo,Guadalajara,jalisco,,,,,MX,2015-10-26,2021-08-13,,,,,,,,['4bf58dd8d48988d151941735'],['Dining and Drinking > Restaurant > Mexican Restaurant > Taco Restaurant'],b'\x00\x00\x00\x00\x01\xc0Y\xd6\xc5\xe0\x00\x00\x00@4\x9e\xf8 \x00\x00\x00',"{'xmin': -103.35582733154297, 'ymin': 20.620973587036133, 'xmax': -103.35582733154297, 'ymax': 20.620973587036133}",dining and drinking > restaurant > mexican restaurant > taco restaurant,1
546f6c38498e591c7c5b210e,Tacos Don Chino,20.536681,-100.789794,,,,,,,,MX,2014-11-21,2021-08-12,,,,,,,,['4bf58dd8d48988d151941735'],['Dining and Drinking > Restaurant > Mexican Restaurant > Taco Restaurant'],"b'\x00\x00\x00\x00\x01\xc0Y2\x8b\xfc""$\xee@4\x89c\xed\x0fbt'","{'xmin': -100.789794, 'ymin': 20.536681, 'xmax': -100.789794, 'ymax': 20.536681}",dining and drinking > restaurant > mexican restaurant > taco restaurant,1
53f40879498e49acc2e1715e,La Taqueria,21.16954010512926,-101.69614678789874,Av. Panorama 1404,,,,,,,MX,2014-08-20,2021-08-15,,,,,,,,['4bf58dd8d48988d151941735'],['Dining and Drinking > Restaurant > Mexican Restaurant > Taco Restaurant'],b'\x00\x00\x00\x00\x01\xc0Yl\x8d\xabA\xcfe@5+f\xfa\xf6\xe3\xfd',"{'xmin': -101.69614678789874, 'ymin': 21.16954010512926, 'xmax': -101.69614678789874, 'ymax': 21.16954010512926}",dining and drinking > restaurant > mexican restaurant > taco restaurant,1
56303cc5498e86f0e79c5157,Antojitos Mexicanos Otra Cosa,20.916466,-100.750212,"Av Guadalupe, En Frente Simi, Literal",,,,,,,MX,2015-10-28,2021-08-11,,,,,,,,['4bf58dd8d48988d151941735'],['Dining and Drinking > Restaurant > Mexican Restaurant > Taco Restaurant'],b'\x00\x00\x00\x00\x01\xc0Y0\x03y1DF@4\xea\x9d\x84\t\xe5\\',"{'xmin': -100.750212, 'ymin': 20.916466, 'xmax': -100.750212, 'ymax': 20.916466}",dining and drinking > restaurant > mexican restaurant > taco restaurant,1
5c29785a286fda002c9835b5,El Nopalito,20.898533,-105.411551,,San Francisco,NAY,63729,,,,MX,2018-12-31,2020-11-22,,,,,,,,['4bf58dd8d48988d1c1941735' '4bf58dd8d48988d151941735'],"['Dining and Drinking > Restaurant > Mexican Restaurant'
 'Dining and Drinking > Restaurant > Mexican Restaurant > Taco Restaurant']",b'\x00\x00\x00\x00\x01\xc0ZZV\xda\x01h\xb6@4\xe6\x06B9`t',"{'xmin': -105.411551, 'ymin': 20.898533, 'xmax': -105.411551, 'ymax': 20.898533}","dining and drinking > restaurant > mexican restaurant, dining and drinking > restaurant > mexican restaurant > taco restaurant",1
4dec428422713dd973c32d02,Carnes Asadas Don Chava,20.636218119998507,-103.31141710281372,Progreso 159,Tlaquepaque,Jalisco,,,,,MX,2011-06-06,2020-11-24,,,,,,,,['4bf58dd8d48988d151941735'],['Dining and Drinking > Restaurant > Mexican Restaurant > Taco Restaurant'],b'\x00\x00\x00\x00\x01\xc0Y\xd3\xeeB\x00\x00\x00@4\xa2\xdf0\xd2\x84%',"{'xmin': -103.31141710281372, 'ymin': 20.636218119998507, 'xmax': -103.31141710281372, 'ymax': 20.636218119998507}",dining and drinking > restaurant > mexican restaurant > taco restaurant,1
4ea869e7775bdf7c381ee68f,Los Pinguinos,20.68017985379191,-101.38015240147986,Plaza Cibeles,Irapuato,GTO,,,,,MX,2011-10-26,2020-11-30,,,,,,,,['4bf58dd8d48988d151941735'],['Dining and Drinking > Restaurant > Mexican Restaurant > Taco Restaurant'],b'\x00\x00\x00\x00\x01\xc0YXTj\xbc\xf6\x85@4\xae DSo/',"{'xmin': -101.38015240147986, 'ymin': 20.68017985379191, 'xmax': -101.38015240147986, 'ymax': 20.68017985379191}",dining and drinking > restaurant > mexican restaurant > taco restaurant,1
5008c4dce4b013da82afb2ed,Tacos De Tripa,21.88199106198066,-102.28380711923242,,Aguascalientes,,,,,,MX,2012-07-20,2022-11-08,,,,,,,,['4bf58dd8d48988d1cb941735' '4bf58dd8d48988d151941735'],"['Dining and Drinking > Food Truck'
 'Dining and Drinking > Restaurant > Mexican Restaurant > Taco Restaurant']",b'\x00\x00\x00\x00\x01\xc0Y\x92)\xe5U\xdej@5\xe1\xca*\x8e\x92=',"{'xmin': -102.28380711923242, 'ymin': 21.88199106198066, 'xmax': -102.28380711923242, 'ymax': 21.88199106198066}","dining and drinking > food truck, dining and drinking > restaurant > mexican restaurant > taco restaurant",1
56898a89498e81a9608de149,Mexi-taco,21.879642989499967,-102.25984100691284,Av. Tecnológico 120,,Aguascalientes,,,,,MX,2016-01-03,2021-08-16,,,,,,,,['4bf58dd8d48988d151941735'],['Dining and Drinking > Restaurant > Mexican Restaurant > Taco Restaurant'],"b'\x00\x00\x00\x00\x01\xc0Y\x90\xa1<,\xb6l@5\xe10Hp\x0e\xdb'","{'xmin': -102.25984100691284, 'ymin': 21.879642989499967, 'xmax': -102.25984100691284, 'ymax': 21.879642989499967}",dining and drinking > restaurant > mexican restaurant > taco restaurant,1
564e479f498ef79f1b618945,La Taqueria,20.606981276197004,-103.41664490203478,,,,,,,,MX,2015-11-19,2021-08-15,,,,,,,,['4bf58dd8d48988d151941735'],['Dining and Drinking > Restaurant > Mexican Restaurant > Taco Restaurant'],b'\x00\x00\x00\x00\x01\xc0Y\xda\xaaOa\x125@4\x9bc\x1f\xfa\x8c\xec',"{'xmin': -103.41664490203478, 'ymin': 20.606981276197004, 'xmax': -103.41664490203478, 'ymax': 20.606981276197004}",dining and drinking > restaurant > mexican restaurant > taco restaurant,1
51623e26e4b0f61e934d23a4,Tacos Tere,20.625882195638003,-105.22655723483972,Sierra Rocallosa,Puerto Vallarta,Jalisco,48330,,,,MX,2013-04-08,2020-11-22,,,,,,,,['4bf58dd8d48988d151941735'],['Dining and Drinking > Restaurant > Mexican Restaurant > Taco Restaurant'],b'\x00\x00\x00\x00\x01\xc0ZN\x7f\xe9\xea\x93\xc3@4\xa09\xd0\xc9i\xf5',"{'xmin': -105.22655723483972, 'ymin': 20.625882195638003, 'xmax': -105.22655723483972, 'ymax': 20.625882195638003}",dining and drinking > restaurant > mexican restaurant > taco restaurant,1
4eb57fda722e578a4f7a52d8,Tacos y Lonches El Pirata,20.6682031987809,-103.36182265959292,,,,,,,,MX,2011-11-05,2021-08-14,,,,,,,,['4bf58dd8d48988d151941735'],['Dining and Drinking > Restaurant > Mexican Restaurant > Taco Restaurant'],b'\x00\x00\x00\x00\x01\xc0Y\xd7(\x1a:y\xd0@4\xab\x0f]e\xd8\xb8',"{'xmin': -103.36182265959292, 'ymin': 20.6682031987809, 'xmax': -103.36182265959292, 'ymax': 20.6682031987809}",dining and drinking > restaurant > mexican restaurant > taco restaurant,1
4f937a3fe4b01143d232587a,Tacos El Paisa,20.744764844761484,-103.40441688943639,Av. Arco Del Triunfo,Zapopan,Jalisco,45130,,,,MX,2012-04-22,2023-12-20,,373 832 4807,,,,,,['4bf58dd8d48988d151941735'],['Dining and Drinking > Restaurant > Mexican Restaurant > Taco Restaurant'],b'\x00\x00\x00\x00\x01\xc0Y\xd9\xe1\xf7`\x85\x14@4\xbe\xa8\xe8\xabv\n',"{'xmin': -103.40441688943639, 'ymin': 20.744764844761484, 'xmax': -103.40441688943639, 'ymax': 20.744764844761484}",dining and drinking > restaurant > mexican restaurant > taco restaurant,1
5c5e4c9ce0c0c9002c287381,El Pingüino,20.668942,-101.371676,Independencia 1809,Irapuato,GTO,36550,,,,MX,2019-02-09,2020-11-25,,,,,,,,['4bf58dd8d48988d151941735'],['Dining and Drinking > Restaurant > Mexican Restaurant > Taco Restaurant'],"b'\x00\x00\x00\x00\x01\xc0YW\xc9\x8a""-Q@4\xab?\xc8l\xeb\xbc'","{'xmin': -101.371676, 'ymin': 20.668942, 'xmax': -101.371676, 'ymax': 20.668942}",dining and drinking > restaurant > mexican restaurant > taco restaurant,1
4eacb1939a52ba78472b1c7b,Taqueria Aguascalientes,21.87933483701182,-102.31238540462225,,,,,,,,MX,2011-10-30,2021-08-11,,,,,,,,['4bf58dd8d48988d151941735'],['Dining and Drinking > Restaurant > Mexican Restaurant > Taco Restaurant'],b'\x00\x00\x00\x00\x01\xc0Y\x93\xfe\x1fZ&k@5\xe1\x1c\x16\x7f3\x03',"{'xmin': -102.31238540462225, 'ymin': 21.87933483701182, 'xmax': -102.31238540462225, 'ymax': 21.87933483701182}",dining and drinking > restaurant > mexican restaurant > taco restaurant,1
51b00a1d498eee8b6a360614,el tengo,21.352958880067348,-101.93657042347265,,,,,,,,MX,2013-06-06,2021-08-16,,,,,,,,['4bf58dd8d48988d151941735'],['Dining and Drinking > Restaurant > Mexican Restaurant > Taco Restaurant'],b'\x00\x00\x00\x00\x01\xc0Y{\xf0\xc5\x12\xcd\xd1@5Z[\x83^\xb8\xd8',"{'xmin': -101.93657042347265, 'ymin': 21.352958880067348, 'xmax': -101.93657042347265, 'ymax': 21.352958880067348}",dining and drinking > restaurant > mexican restaurant > taco restaurant,1
5738a95d498ef9eb1c0036c4,Tacos Maleni,21.947071,-102.29034,,Aguascalientes,Aguascalientes,,,,,MX,2016-05-15,2020-11-30,,,,,,,,['4bf58dd8d48988d151941735'],['Dining and Drinking > Restaurant > Mexican Restaurant > Taco Restaurant'],b'\x00\x00\x00\x00\x01\xc0Y\x92\x94\xee9.\x1f@5\xf2s>\xbb\xfdr',"{'xmin': -102.29034, 'ymin': 21.947071, 'xmax': -102.29034, 'ymax': 21.947071}",dining and drinking > restaurant > mexican restaurant > taco restaurant,1
4f59963de4b08b52a67c71f4,Lechuzas S.A.,22.150937437825437,-100.99154969049316,,,,,,,,MX,2012-03-09,2021-08-11,,,,,,,,['4bf58dd8d48988d151941735'],['Dining and Drinking > Restaurant > Mexican Restaurant > Taco Restaurant'],b'\x00\x00\x00\x00\x01\xc0Y?u\x8c\xd5A\xbb@6&\xa3\xd5\xff3\xc9',"{'xmin': -100.99154969049316, 'ymin': 22.150937437825437, 'xmax': -100.99154969049316, 'ymax': 22.150937437825437}",dining and drinking > restaurant > mexican restaurant > taco restaurant,1
55e7aded498e5e343408cfab,Taquería La Flamita,21.106022532082065,-101.70402454188296,Blvd.  Juan José Torres Landa,León,Guanajuato,,,,,MX,2015-09-03,2020-11-30,,,,,,,,['4bf58dd8d48988d151941735'],['Dining and Drinking > Restaurant > Mexican Restaurant > Taco Restaurant'],b'\x00\x00\x00\x00\x01\xc0Ym\x0e\xbc\xf3\xbd\xff@5\x1b$J\xeb\xee|',"{'xmin': -101.70402454188296, 'ymin': 21.106022532082065, 'xmax': -101.70402454188296, 'ymax': 21.106022532082065}",dining and drinking > restaurant > mexican restaurant > taco restaurant,1
4f3bcd75e4b08b7acf140f36,Gorditas Licha,21.896216696367947,-102.31933541741884,Río Bravo,Aguascalientes,AGS,,,,,MX,2012-02-15,2023-12-19,,449 912 8321,,,,,,['4bf58dd8d48988d151941735'],['Dining and Drinking > Restaurant > Mexican Restaurant > Taco Restaurant'],b'\x00\x00\x00\x00\x01\xc0Y\x94o\xfd\xd1\x91.@5\xe5nu\x19\x07\x8d',"{'xmin': -102.31933541741884, 'ymin': 21.896216696367947, 'xmax': -102.31933541741884, 'ymax': 21.896216696367947}",dining and drinking > restaurant > mexican restaurant > taco restaurant,1
6340d45f973bed6ef7805488,Lupe Candor - Taqueria,20.678643,-103.37274,Bernardo De Balbuena 145,Guadalajara,JAL,44600,,,,MX,2022-10-08,2022-10-08,,,,,,,,['4bf58dd8d48988d151941735'],['Dining and Drinking > Restaurant > Mexican Restaurant > Taco Restaurant'],b'\x00\x00\x00\x00\x01\xc0Y\xd7\xda\xf8\xdfzN@4\xad\xbb\x8c2\xa8\xca',"{'xmin': -103.37274, 'ymin': 20.678643, 'xmax': -103.37274, 'ymax': 20.678643}",dining and drinking > restaurant > mexican restaurant > taco restaurant,1
50707754e4b0cff861b6e856,La Cabaña Del Pescador,22.123610478029224,-100.92039834702024,,,,,,,,MX,2012-10-06,2021-08-15,,,,,,,,['4bf58dd8d48988d151941735'],['Dining and Drinking > Restaurant > Mexican Restaurant > Taco Restaurant'],b'\x00\x00\x00\x00\x01\xc0Y:\xe7\xcew\xef\xa4@6\x1f\xa4\xef\xb0\x94\x15',"{'xmin': -100.92039834702024, 'ymin': 22.123610478029224, 'xmax': -100.92039834702024, 'ymax': 22.123610478029224}",dining and drinking > restaurant > mexican restaurant > taco restaurant,1
50e77a08e4b0651ebe3ba2f9,taqueria chuyin,20.607397648767886,-105.23600248089117,,,,,,,,MX,2013-01-05,2021-08-17,,,,,,,,['4bf58dd8d48988d151941735'],['Dining and Drinking > Restaurant > Mexican Restaurant > Taco Restaurant'],b'\x00\x00\x00\x00\x01\xc0ZO\x1a\xaa&L\xf5@4\x9b~i\x8d \x18',"{'xmin': -105.23600248089117, 'ymin': 20.607397648767886, 'xmax': -105.23600248089117, 'ymax': 20.607397648767886}",dining and drinking > restaurant > mexican restaurant > taco restaurant,1
4d913ad780d33704f15c9806,Pepe's Tacos,20.64444290610858,-105.24127102255233,,,,,,,,MX,2011-03-29,2021-08-17,,,,,,,,['4bf58dd8d48988d151941735' '4bf58dd8d48988d1c1941735'],"['Dining and Drinking > Restaurant > Mexican Restaurant > Taco Restaurant'
 'Dining and Drinking > Restaurant > Mexican Restaurant']",b'\x00\x00\x00\x00\x01\xc0ZOp\xfc\x03\xd5l@4\xa4\xfa5\xd5\xe0$',"{'xmin': -105.24127102255233, 'ymin': 20.64444290610858, 'xmax': -105.24127102255233, 'ymax': 20.64444290610858}","dining and drinking > restaurant > mexican restaurant > taco restaurant, dining and drinking > restaurant > mexican restaurant",1
4e6c6d43fa76fa035841a1f4,Taqueria El Santuario,20.705330817143878,-102.34122680316595,,,,,,,,MX,2011-09-11,2021-08-13,,,,,,,,['4bf58dd8d48988d151941735'],['Dining and Drinking > Restaurant > Mexican Restaurant > Taco Restaurant'],b'\x00\x00\x00\x00\x01\xc0Y\x95\xd6\xa8\xf2\x07s@4\xb4\x90\x8fx~q',"{'xmin': -102.34122680316595, 'ymin': 20.705330817143878, 'xmax': -102.34122680316595, 'ymax': 20.705330817143878}",dining and drinking > restaurant > mexican restaurant > taco restaurant,1
53e27311498e45efd3f9e02f,tacosgilligansgdl,20.678242,-103.436095,,,,,,,,MX,2014-08-06,2021-08-16,,,,,,,,['4bf58dd8d48988d151941735'],['Dining and Drinking > Restaurant > Mexican Restaurant > Taco Restaurant'],b'\x00\x00\x00\x00\x01\xc0Y\xdb\xe8\xfb\x00\xbc\xbe@4\xad\xa1D\x88\xc6\r',"{'xmin': -103.436095, 'ymin': 20.678242, 'xmax': -103.436095, 'ymax': 20.678242}",dining and drinking > restaurant > mexican restaurant > taco restaurant,1
51ff0c11498ef01cd9d395ba,Carnes Asadas Vaquero's,20.647330356402428,-103.28842483848213,Av. Historiadores,Guadalajara,,,,,,MX,2013-08-05,2021-08-11,2014-03-12,,,,,,,['4bf58dd8d48988d151941735'],['Dining and Drinking > Restaurant > Mexican Restaurant > Taco Restaurant'],b'\x00\x00\x00\x00\x01\xc0Y\xd2u\x8dt(\xa1@4\xa5\xb7q6t\xda',"{'xmin': -103.28842483848213, 'ymin': 20.647330356402428, 'xmax': -103.28842483848213, 'ymax': 20.647330356402428}",dining and drinking > restaurant > mexican restaurant > taco restaurant,1
505203a6e4b0313e6d51dca9,Tacos el Tio,20.630660258059187,-103.3681234523857,,8 de julio #3099,,44960,,,,MX,2012-09-13,2021-08-13,,,,,,,,['4bf58dd8d48988d151941735'],['Dining and Drinking > Restaurant > Mexican Restaurant > Taco Restaurant'],b'\x00\x00\x00\x00\x01\xc0Y\xd7\x8fU\xab8\xc8@4\xa1r\xf3_@J',"{'xmin': -103.3681234523857, 'ymin': 20.630660258059187, 'xmax': -103.3681234523857, 'ymax': 20.630660258059187}",dining and drinking > restaurant > mexican restaurant > taco restaurant,1
572cd074cd10eebee4854e59,"Lonchería y Gorditas ""July""",21.88877129031739,-102.28453244662975,Calle Decreto 27 De Septiembre,,AGUASCALIENTES,,,,,MX,2016-05-06,2021-08-15,,,,,,,,"['4bf58dd8d48988d151941735' '4bf58dd8d48988d1c5941735'
 '4bf58dd8d48988d153941735']","['Dining and Drinking > Restaurant > Mexican Restaurant > Taco Restaurant'
 'Dining and Drinking > Restaurant > Sandwich Spot'
 'Dining and Drinking > Restaurant > Mexican Restaurant > Burrito Restaurant']",b'\x00\x00\x00\x00\x01\xc0Y\x925\xc7\x94;>@5\xe3\x86\x83\xe9\x89s',"{'xmin': -102.28453244662975, 'ymin': 21.88877129031739, 'xmax': -102.28453244662975, 'ymax': 21.88877129031739}","dining and drinking > restaurant > mexican restaurant > taco restaurant, dining and drinking > restaurant > sandwich spot, dining and drinking > restaurant > mexican restaurant > burrito restaurant",1
5e651dfa6921be0007894d0e,Brirria El Primo,20.759007,-103.44004,,Nuevo México,Jalisco,,,,,MX,2020-03-08,2020-11-23,,,,,,,,['4bf58dd8d48988d151941735'],['Dining and Drinking > Restaurant > Mexican Restaurant > Taco Restaurant'],b'\x00\x00\x00\x00\x01\xc0Y\xdc)\x9d\x88;\xa3@4\xc2NHboa',"{'xmin': -103.44004, 'ymin': 20.759007, 'xmax': -103.44004, 'ymax': 20.759007}",dining and drinking > restaurant > mexican restaurant > taco restaurant,1
521054e511d2db6dd31a49c6,Tacos Miguelon,20.68492978983183,-103.34438288045011,Pino Suarez y Jesús Garcia,Guadalajara,Jalisco,,,,,MX,2013-08-18,2021-08-14,,,,,,,,['4bf58dd8d48988d151941735'],['Dining and Drinking > Restaurant > Mexican Restaurant > Taco Restaurant'],b'\x00\x00\x00\x00\x01\xc0Y\xd6\n^~5y@4\xafW\x8f\x07bE',"{'xmin': -103.34438288045011, 'ymin': 20.68492978983183, 'xmax': -103.34438288045011, 'ymax': 20.68492978983183}",dining and drinking > restaurant > mexican restaurant > taco restaurant,1
5d1b90b23f069d0023610061,Tacos Teco,21.877017,-102.283013,,Aguascalientes,AGS,20240,,,,MX,2019-07-02,2020-11-24,,,,,,,,['4bf58dd8d48988d151941735' '4bf58dd8d48988d1c1941735'],"['Dining and Drinking > Restaurant > Mexican Restaurant > Taco Restaurant'
 'Dining and Drinking > Restaurant > Mexican Restaurant']",b'\x00\x00\x00\x00\x01\xc0Y\x92\x1c\xe2\x8e\xd5\xf1@5\xe0\x84/\xa5\t9',"{'xmin': -102.283013, 'ymin': 21.877017, 'xmax': -102.283013, 'ymax': 21.877017}","dining and drinking > restaurant > mexican restaurant > taco restaurant, dining and drinking > restaurant > mexican restaurant",1
53a4767b498e70c5a2fe1c04,El Primo,20.6599700422527,-103.33149071538256,,,,,,,,MX,2014-06-20,2021-08-13,,,,,,,,['4bf58dd8d48988d151941735'],['Dining and Drinking > Restaurant > Mexican Restaurant > Taco Restaurant'],b'\x00\x00\x00\x00\x01\xc0Y\xd57$\xd5_\xba@4\xa8\xf3\xcb\xf3\xd0\xa9',"{'xmin': -103.33149071538256, 'ymin': 20.6599700422527, 'xmax': -103.33149071538256, 'ymax': 20.6599700422527}",dining and drinking > restaurant > mexican restaurant > taco restaurant,1
5214ea9111d2d21202e01361,Tacos Toño (El Bolillo),21.906445,-102.292153,,,,,,,,MX,2013-08-21,2021-08-15,,,,,,,,['4bf58dd8d48988d151941735'],['Dining and Drinking > Restaurant > Mexican Restaurant > Taco Restaurant'],b'\x00\x00\x00\x00\x01\xc0Y\x92\xb2\xa2\x7f\x1bi@5\xe8\x0c\xc7\x8e\x9fk',"{'xmin': -102.292153, 'ymin': 21.906445, 'xmax': -102.292153, 'ymax': 21.906445}",dining and drinking > restaurant > mexican restaurant > taco restaurant,1
4d3625f0eba454812b7b04f5,Tacos Paza,20.674498212852363,-103.34641263538637,Corona,Guadalajara,Jalisco,CP  44100,,,,MX,2011-01-18,2021-08-12,,33 3658 2368,,,,,,['4bf58dd8d48988d151941735'],['Dining and Drinking > Restaurant > Mexican Restaurant > Taco Restaurant'],b'\x00\x00\x00\x00\x01\xc0Y\xd6+\x9f\xe6\xf9\xf6@4\xac\xab\xea5iN',"{'xmin': -103.34641263538637, 'ymin': 20.674498212852363, 'xmax': -103.34641263538637, 'ymax': 20.674498212852363}",dining and drinking > restaurant > mexican restaurant > taco restaurant,1
58445e7e44689a5eabc4d18a,Tacos de barbacoa Vicky,20.645858,-103.288496,,,,,,,,MX,2016-12-04,2023-12-19,,33 3680 6017,,,,,,['4bf58dd8d48988d151941735'],['Dining and Drinking > Restaurant > Mexican Restaurant > Taco Restaurant'],"b""\x00\x00\x00\x00\x01\xc0Y\xd2v\xb7\xedA\xb7@4\xa5V\xf3+\xdc'""","{'xmin': -103.288496, 'ymin': 20.645858, 'xmax': -103.288496, 'ymax': 20.645858}",dining and drinking > restaurant > mexican restaurant > taco restaurant,1
508756eae4b095f041bcedf9,Tacos Jaime,20.62120246887207,-105.22786712646484,Ecuador,Puerto Vallarta,Jalisco,48350,,,,MX,2012-10-24,2020-11-26,,,,,,,,['4bf58dd8d48988d151941735'],['Dining and Drinking > Restaurant > Mexican Restaurant > Taco Restaurant'],b'\x00\x00\x00\x00\x01\xc0ZN\x95`\x00\x00\x00@4\x9f\x07 \x00\x00\x00',"{'xmin': -105.22786712646484, 'ymin': 20.62120246887207, 'xmax': -105.22786712646484, 'ymax': 20.62120246887207}",dining and drinking > restaurant > mexican restaurant > taco restaurant,1
5287bbfd11d233923e1cdae4,Tacos el amigo,20.685617692192817,-103.36940959701786,,,,,,,,MX,2013-11-16,2021-08-17,,,,,,,,['4bf58dd8d48988d151941735'],['Dining and Drinking > Restaurant > Mexican Restaurant > Taco Restaurant'],b'\x00\x00\x00\x00\x01\xc0Y\xd7\xa4h&\x81L@4\xaf\x84\xa4\x1d\x86\xf3',"{'xmin': -103.36940959701786, 'ymin': 20.685617692192817, 'xmax': -103.36940959701786, 'ymax': 20.685617692192817}",dining and drinking > restaurant > mexican restaurant > taco restaurant,1
57a4d4d5498e914a291e87e9,Tacos Arroyos,22.053432,-100.90819,,,,,,,,MX,2016-08-05,2020-11-30,,,,,,,,['4bf58dd8d48988d151941735'],['Dining and Drinking > Restaurant > Mexican Restaurant > Taco Restaurant'],b'\x00\x00\x00\x00\x01\xc0Y:\x1f\xc8\xf3#y@6\r\xad\xb84\x8fT',"{'xmin': -100.90819, 'ymin': 22.053432, 'xmax': -100.90819, 'ymax': 22.053432}",dining and drinking > restaurant > mexican restaurant > taco restaurant,1
52b73379498eadb7571053e9,Quesitortas de Carnitas Germán,21.13290439735264,-101.6779140509306,,,,,,,,MX,2013-12-22,2021-08-12,,,,,,,,['4bf58dd8d48988d151941735'],['Dining and Drinking > Restaurant > Mexican Restaurant > Taco Restaurant'],"b'\x00\x00\x00\x00\x01\xc0Ykb\xf1\x9d\x8f\xbb@5""\x06\x05\xc8\x1f\xca'","{'xmin': -101.6779140509306, 'ymin': 21.13290439735264, 'xmax': -101.6779140509306, 'ymax': 21.13290439735264}",dining and drinking > restaurant > mexican restaurant > taco restaurant,1
4c58d84eb8b3c9b61ef987b6,Tacos Plaza,20.651935873628567,-103.40031579495843,Plaza del Sol,Zapopan,JAL,45050,,,,MX,2010-08-04,2020-11-24,,,http://tacospaza.com,,,,,"['4bf58dd8d48988d151941735' '4bf58dd8d48988d1c1941735'
 '4bf58dd8d48988d16e941735']","['Dining and Drinking > Restaurant > Mexican Restaurant > Taco Restaurant'
 'Dining and Drinking > Restaurant > Mexican Restaurant'
 'Dining and Drinking > Restaurant > Fast Food Restaurant']",b'\x00\x00\x00\x00\x01\xc0Y\xd9\x9e\xc6#\xda\xcc@4\xa6\xe5D\xf8R\xea',"{'xmin': -103.40031579495843, 'ymin': 20.651935873628567, 'xmax': -103.40031579495843, 'ymax': 20.651935873628567}","dining and drinking > restaurant > mexican restaurant > taco restaurant, dining and drinking > restaurant > mexican restaurant, dining and drinking > restaurant > fast food restaurant",1
4ef8a69d5c5c68fa0c625c88,Tacos de canasta don ramon,20.190567839945377,-104.03869373315696,Carretera A Tecolotlan,,,,,,,MX,2011-12-26,2021-08-12,,,,,,,,['4bf58dd8d48988d151941735'],['Dining and Drinking > Restaurant > Mexican Restaurant > Taco Restaurant'],b'\x00\x00\x00\x00\x01\xc0Z\x02y\xf5G\x9e\t@40\xc9\r\xd0<\x19',"{'xmin': -104.03869373315696, 'ymin': 20.190567839945377, 'xmax': -104.03869373315696, 'ymax': 20.190567839945377}",dining and drinking > restaurant > mexican restaurant > taco restaurant,1
535403cb498ee6e6ce5074f7,mercadito tepatitlan,20.81648239516397,-102.7583368646306,,,,,,,,MX,2014-04-20,2021-08-11,,,,,,,,['4bf58dd8d48988d151941735'],['Dining and Drinking > Restaurant > Mexican Restaurant > Taco Restaurant'],b'\x00\x00\x00\x00\x01\xc0Y\xb0\x88\x97X<#@4\xd1\x04\xfd\x80\xfd/',"{'xmin': -102.7583368646306, 'ymin': 20.81648239516397, 'xmax': -102.7583368646306, 'ymax': 20.81648239516397}",dining and drinking > restaurant > mexican restaurant > taco restaurant,1
53267ee1498e4785c4c48625,"Tacos ""El Monchis""",19.684312829839275,-101.21500575443412,,,,,,,,MX,2014-03-17,2021-08-16,,,,,,,,['4bf58dd8d48988d151941735'],['Dining and Drinking > Restaurant > Mexican Restaurant > Taco Restaurant'],b'\x00\x00\x00\x00\x01\xc0YM\xc2\xa7~\xef\xc4@3\xaf/ (d\x95',"{'xmin': -101.21500575443412, 'ymin': 19.684312829839275, 'xmax': -101.21500575443412, 'ymax': 19.684312829839275}",dining and drinking > restaurant > mexican restaurant > taco restaurant,1
59414cede679bc120c302945,Tacos de asada y gorditas,20.861582,-103.247122,,Ixtlahuacán del Río,JAL,45205,,,,MX,2017-06-14,2020-11-25,,,,,,,,['4bf58dd8d48988d151941735'],['Dining and Drinking > Restaurant > Mexican Restaurant > Taco Restaurant'],b'\x00\x00\x00\x00\x01\xc0Y\xcf\xd0\xd8\xcb\x07\xd1@4\xdc\x90\xa3P\xd2\x80',"{'xmin': -103.247122, 'ymin': 20.861582, 'xmax': -103.247122, 'ymax': 20.861582}",dining and drinking > restaurant > mexican restaurant > taco restaurant,1
5717d37a498e5fc951ba45db,Tacos y Burros,20.669291743001462,-103.38124499327955,Calle Efrain González Luna,Guadalajara,Jalisco,,,,,MX,2016-04-20,2021-08-16,,,,,,,,['4bf58dd8d48988d151941735'],['Dining and Drinking > Restaurant > Mexican Restaurant > Taco Restaurant'],b'\x00\x00\x00\x00\x01\xc0Y\xd8fQfy\x90@4\xabV\xb4#\xac\x93',"{'xmin': -103.38124499327955, 'ymin': 20.669291743001462, 'xmax': -103.38124499327955, 'ymax': 20.669291743001462}",dining and drinking > restaurant > mexican restaurant > taco restaurant,1
58d7ed9b113efc277d01f8af,El Dorado,21.842266,-102.324161,,Aguascalientes,AGS,,,,,MX,2017-03-26,2020-11-23,,,,,,,,['4bf58dd8d48988d151941735'],['Dining and Drinking > Restaurant > Mexican Restaurant > Taco Restaurant'],b'\x00\x00\x00\x00\x01\xc0Y\x94\xbf\r\xc7h\xe0@5\xd7\x9e\xbe\x9c\x88a',"{'xmin': -102.324161, 'ymin': 21.842266, 'xmax': -102.324161, 'ymax': 21.842266}",dining and drinking > restaurant > mexican restaurant > taco restaurant,1
4e5521b045dd5c591f526e3e,Tortas Poncho,21.099418626680123,-101.63717991434956,,,,,,,,MX,2011-08-24,2023-12-20,,477 711 5555,,,,,,['4bf58dd8d48988d151941735'],['Dining and Drinking > Restaurant > Mexican Restaurant > Taco Restaurant'],b'\x00\x00\x00\x00\x01\xc0Yh\xc7\x8eCs*@5\x19s\x7f\xc64Q',"{'xmin': -101.63717991434956, 'ymin': 21.099418626680123, 'xmax': -101.63717991434956, 'ymax': 21.099418626680123}",dining and drinking > restaurant > mexican restaurant > taco restaurant,1
55eef6e4498ea54dbcef01d1,rico mac taco,21.11270749885142,-101.62011858023273,,,,,,,,MX,2015-09-08,2021-08-11,,,,,,,,['4bf58dd8d48988d151941735'],['Dining and Drinking > Restaurant > Mexican Restaurant > Taco Restaurant'],b'\x00\x00\x00\x00\x01\xc0Yg\xb0\x05\xd7ou@5\x1c\xdaf\r\x94\xb0',"{'xmin': -101.62011858023273, 'ymin': 21.11270749885142, 'xmax': -101.62011858023273, 'ymax': 21.11270749885142}",dining and drinking > restaurant > mexican restaurant > taco restaurant,1
4feb2c44e4b0452f62b77dc5,"Gorditas ""La Baby""",20.68828779188848,-103.33367879455311,,Guadalajara,,,,,,MX,2012-06-27,2021-08-14,,,,,,,,['4bf58dd8d48988d151941735'],['Dining and Drinking > Restaurant > Mexican Restaurant > Taco Restaurant'],b'\x00\x00\x00\x00\x01\xc0Y\xd5Z\xfeM~[@4\xb03\xa0\xf4e\xa7',"{'xmin': -103.33367879455311, 'ymin': 20.68828779188848, 'xmax': -103.33367879455311, 'ymax': 20.68828779188848}",dining and drinking > restaurant > mexican restaurant > taco restaurant,1
5e515e55b8662f0007d97701,Taquería Felox,21.866678,-102.282843,Av. De La Convención De 1914,Aguascalientes,AGS,20240,,,,MX,2020-02-22,2020-11-23,,,,,,,,['4bf58dd8d48988d151941735'],['Dining and Drinking > Restaurant > Mexican Restaurant > Taco Restaurant'],b'\x00\x00\x00\x00\x01\xc0Y\x92\x1a\x19\x86\xb9\xc3@5\xdd\xde\x9c\x02)\xa6',"{'xmin': -102.282843, 'ymin': 21.866678, 'xmax': -102.282843, 'ymax': 21.866678}",dining and drinking > restaurant > mexican restaurant > taco restaurant,1
4ed97b188231efe38e4fc276,El Pariente,20.675672599909454,-103.38869111828701,"Diagonal Golfo de Cortez, Guadalajara, JAL",Guadalajara,Jalisco,44130,,,,MX,2011-12-03,2021-08-11,,,,,,,,['4bf58dd8d48988d151941735' '4bf58dd8d48988d153941735'],"['Dining and Drinking > Restaurant > Mexican Restaurant > Taco Restaurant'
 'Dining and Drinking > Restaurant > Mexican Restaurant > Burrito Restaurant']","b""\x00\x00\x00\x00\x01\xc0Y\xd8\xe0P\xb6Ru@4\xac\xf8\xe1'j\x16""","{'xmin': -103.38869111828701, 'ymin': 20.675672599909454, 'xmax': -103.38869111828701, 'ymax': 20.675672599909454}","dining and drinking > restaurant > mexican restaurant > taco restaurant, dining and drinking > restaurant > mexican restaurant > burrito restaurant",1
532a0b6d11d259b4fe467ac1,Tacos La Union,20.659188914371708,-105.20857572555542,Calle 21 de marzo,Pitillal,Jalisco,,,,,MX,2014-03-19,2020-11-24,,,,,,,,['4bf58dd8d48988d151941735'],['Dining and Drinking > Restaurant > Mexican Restaurant > Taco Restaurant'],b'\x00\x00\x00\x00\x01\xc0ZMYN\x00\x00\x00@4\xa8\xc0\x9a\xcd\x1c\xbb',"{'xmin': -105.20857572555542, 'ymin': 20.659188914371708, 'xmax': -105.20857572555542, 'ymax': 20.659188914371708}",dining and drinking > restaurant > mexican restaurant > taco restaurant,1
52c7b1b511d2ac16e9072fc2,Tacos el Cuñado,20.617574,-103.266159,,,,,,,,MX,2014-01-04,2021-08-13,,,,,,,,['4bf58dd8d48988d151941735'],['Dining and Drinking > Restaurant > Mexican Restaurant > Taco Restaurant'],"b'\x00\x00\x00\x00\x01\xc0Y\xd1\x08\xbf\xc2""O@4\x9e\x19Td\xdc#'","{'xmin': -103.266159, 'ymin': 20.617574, 'xmax': -103.266159, 'ymax': 20.617574}",dining and drinking > restaurant > mexican restaurant > taco restaurant,1
5178718445b0527486d4796b,Morrison TacosyTortas,21.146962782766,-101.68819785118103,Av. Guanajuato #205,Leon,Guanajuato,37160,,,,MX,2013-04-24,2020-11-23,,,,,,,,['4bf58dd8d48988d151941735'],['Dining and Drinking > Restaurant > Mexican Restaurant > Taco Restaurant'],b'\x00\x00\x00\x00\x01\xc0Yl\x0bo\x00\x00\x00@5%\x9fZY\xb5\x89',"{'xmin': -101.68819785118103, 'ymin': 21.146962782766, 'xmax': -101.68819785118103, 'ymax': 21.146962782766}",dining and drinking > restaurant > mexican restaurant > taco restaurant,1
538fdf2b498eb5789f1cc183,tacos el amigazo,20.634527,-103.268638,,,,,,,,MX,2014-06-05,2021-08-15,,,,,,,,['4bf58dd8d48988d151941735'],['Dining and Drinking > Restaurant > Mexican Restaurant > Taco Restaurant'],b'\x00\x00\x00\x00\x01\xc0Y\xd11]p\x1d\x9f@4\xa2p\\\x89m\xd2',"{'xmin': -103.268638, 'ymin': 20.634527, 'xmax': -103.268638, 'ymax': 20.634527}",dining and drinking > restaurant > mexican restaurant > taco restaurant,1
580180ad38fab3327ec73e83,tacos Mi Pueblito,20.524941,-101.371179,,Pueblo Nuevo,Guanajuato,36890,,,,MX,2016-10-15,2020-11-30,,,,,,,,['4bf58dd8d48988d151941735'],['Dining and Drinking > Restaurant > Mexican Restaurant > Taco Restaurant'],b'\x00\x00\x00\x00\x01\xc0YW\xc1e\x90}\x91@4\x86b\x88\x8bT\\',"{'xmin': -101.371179, 'ymin': 20.524941, 'xmax': -101.371179, 'ymax': 20.524941}",dining and drinking > restaurant > mexican restaurant > taco restaurant,1
5e22161167d52a00081ccca0,Los Colorados,21.91569,-102.31191,,Aguascalientes,Aguascalientes,20130,,,,MX,2020-01-17,2020-11-22,,,,,,,,['4bf58dd8d48988d151941735'],['Dining and Drinking > Restaurant > Mexican Restaurant > Taco Restaurant'],b'\x00\x00\x00\x00\x01\xc0Y\x93\xf6U\\R\xe7@5\xeaj\xa8\xebF5',"{'xmin': -102.31191, 'ymin': 21.91569, 'xmax': -102.31191, 'ymax': 21.91569}",dining and drinking > restaurant > mexican restaurant > taco restaurant,1
57952b3b498ee2536c4d6bce,Tacos Mike Restaurant,20.092907,-101.51545,,Puruándiro,Michoacán,,,,,MX,2016-07-24,2023-12-21,,438 383 3191,,,,,,['4bf58dd8d48988d151941735'],['Dining and Drinking > Restaurant > Mexican Restaurant > Taco Restaurant'],b'\x00\x00\x00\x00\x01\xc0Y`\xfd!\xff.I@4\x17\xc8\xc0\xce\x91\xc9',"{'xmin': -101.51545, 'ymin': 20.092907, 'xmax': -101.51545, 'ymax': 20.092907}",dining and drinking > restaurant > mexican restaurant > taco restaurant,1
4fa553e2e4b09571df1255f7,Tacos Porfirio,21.1352267555702,-101.69471251157009,,,,,,,,MX,2012-05-05,2021-08-14,,,,,,,,['4bf58dd8d48988d151941735'],['Dining and Drinking > Restaurant > Mexican Restaurant > Taco Restaurant'],"b'\x00\x00\x00\x00\x01\xc0Ylv+wT2@5""\x9e8|\xb7\xdc'","{'xmin': -101.69471251157009, 'ymin': 21.1352267555702, 'xmax': -101.69471251157009, 'ymax': 21.1352267555702}",dining and drinking > restaurant > mexican restaurant > taco restaurant,1
4e666f0718a85f333e68b0b2,Antojitos Ares,22.18262280049111,-100.99930591065252,,,,,,,,MX,2011-09-06,2021-08-16,,,,,,,,['4bf58dd8d48988d151941735'],['Dining and Drinking > Restaurant > Mexican Restaurant > Taco Restaurant'],b'\x00\x00\x00\x00\x01\xc0Y?\xf4\xa0\xc7<\xef@6.\xc0^+\x9c\xfe',"{'xmin': -100.99930591065252, 'ymin': 22.18262280049111, 'xmax': -100.99930591065252, 'ymax': 22.18262280049111}",dining and drinking > restaurant > mexican restaurant > taco restaurant,1
5080dee7582fca391dad49ab,Taco Inn,20.53216649249516,-100.77861280207104,EJE NOR-ORIENTE NO.200 COMPUERTAS DEL CAMPESTRE,Celaya,Guanajuato,,,,,MX,2012-10-19,2020-11-22,,,,,,,,"['4bf58dd8d48988d151941735' '4bf58dd8d48988d1f9941735'
 '4bf58dd8d48988d16e941735']","['Dining and Drinking > Restaurant > Mexican Restaurant > Taco Restaurant'
 'Retail > Food and Beverage Retail'
 'Dining and Drinking > Restaurant > Fast Food Restaurant']",b'\x00\x00\x00\x00\x01\xc0Y1\xd4\xca\xcaI\x17@4\x88<\x101K3',"{'xmin': -100.77861280207104, 'ymin': 20.53216649249516, 'xmax': -100.77861280207104, 'ymax': 20.53216649249516}","dining and drinking > restaurant > mexican restaurant > taco restaurant, retail > food and beverage retail, dining and drinking > restaurant > fast food restaurant",1
5f413fb06689f23c3d9e1731,Diodata,20.732072,-103.395284,,Zapopan,JAL,45147,,,,MX,2020-08-22,2020-11-30,,,,,,,,['4bf58dd8d48988d151941735'],['Dining and Drinking > Restaurant > Mexican Restaurant > Taco Restaurant'],b'\x00\x00\x00\x00\x01\xc0Y\xd9LUC(t@4\xbbi\x12\x12Q;',"{'xmin': -103.395284, 'ymin': 20.732072, 'xmax': -103.395284, 'ymax': 20.732072}",dining and drinking > restaurant > mexican restaurant > taco restaurant,1
659ad03a4083296c3c0dfa30,Tacos De Canasta Capuleto,21.931374,-102.29812,Av. Independencia # 2101,Aguascalientes,Aguascalientes,20110,,,,MX,2024-01-07,2024-01-07,,,,,,,,['4bf58dd8d48988d151941735'],['Dining and Drinking > Restaurant > Mexican Restaurant > Taco Restaurant'],b'\x00\x00\x00\x00\x01\xc0Y\x93\x14e\xe8\x92%@5\xeen\x86\xc6X?',"{'xmin': -102.29812, 'ymin': 21.931374, 'xmax': -102.29812, 'ymax': 21.931374}",dining and drinking > restaurant > mexican restaurant > taco restaurant,1
5133d930e4b01507f6fb9c2c,Tacos de Asada El Cochón,20.705478,-103.318332,,Guadalajara,Jalisco,,,,,MX,2013-03-03,2021-08-15,,,,,,,,['4bf58dd8d48988d151941735'],['Dining and Drinking > Restaurant > Mexican Restaurant > Taco Restaurant'],b'\x00\x00\x00\x00\x01\xc0Y\xd4_\x8d.QL@4\xb4\x9a4\xca\x0c(',"{'xmin': -103.318332, 'ymin': 20.705478, 'xmax': -103.318332, 'ymax': 20.705478}",dining and drinking > restaurant > mexican restaurant > taco restaurant,1
5e5df1d523d418000893eb34,Tacos La Perla,20.752457,-103.405796,,Zapopan,JAL,45130,,,,MX,2020-03-03,2020-11-25,,,,,,,,['4bf58dd8d48988d151941735'],['Dining and Drinking > Restaurant > Mexican Restaurant > Taco Restaurant'],b'\x00\x00\x00\x00\x01\xc0Y\xd9\xf8\x8f\xc96?@4\xc0\xa1\x05\x9e\xa5r',"{'xmin': -103.405796, 'ymin': 20.752457, 'xmax': -103.405796, 'ymax': 20.752457}",dining and drinking > restaurant > mexican restaurant > taco restaurant,1
5b3449d2f709c1002cc87d49,Takos Arturo,20.681326,-103.336676,,Guadalajara,JAL,44360,,,,MX,2018-06-28,2021-08-13,,,,,,,,['4bf58dd8d48988d151941735'],['Dining and Drinking > Restaurant > Mexican Restaurant > Taco Restaurant'],b'\x00\x00\x00\x00\x01\xc0Y\xd5\x8c\x19~VG@4\xaekaw\xea\x1c',"{'xmin': -103.336676, 'ymin': 20.681326, 'xmax': -103.336676, 'ymax': 20.681326}",dining and drinking > restaurant > mexican restaurant > taco restaurant,1
51cc902d498ef8de1fc58a2a,Tacos al Carbon,20.665719,-103.385368,,,,,,,,MX,2013-06-27,2021-08-15,,,,,,,,['4bf58dd8d48988d151941735'],['Dining and Drinking > Restaurant > Mexican Restaurant > Taco Restaurant'],b'\x00\x00\x00\x00\x01\xc0Y\xd8\xa9\xde\x8b;2@4\xaal\x8fuSi',"{'xmin': -103.385368, 'ymin': 20.665719, 'xmax': -103.385368, 'ymax': 20.665719}",dining and drinking > restaurant > mexican restaurant > taco restaurant,1
4fc2f7cee4b00dd50efb362b,Taquería La 28,20.666321921134237,-103.33146815806202,,,,,,,,MX,2012-05-28,2021-08-17,,,,,,,,['4bf58dd8d48988d151941735' '4bf58dd8d48988d1cb941735'],"['Dining and Drinking > Restaurant > Mexican Restaurant > Taco Restaurant'
 'Dining and Drinking > Food Truck']",b'\x00\x00\x00\x00\x01\xc0Y\xd56\xc68\xa2\xac@4\xaa\x94\x12\xcb\xe1#',"{'xmin': -103.33146815806202, 'ymin': 20.666321921134237, 'xmax': -103.33146815806202, 'ymax': 20.666321921134237}","dining and drinking > restaurant > mexican restaurant > taco restaurant, dining and drinking > food truck",1
552a2c41498e7f53858f4b7d,La Fogata Oaxaqueña,22.149820356024765,-100.99688747212613,Venustiano Carranza 1495,,,,,,,MX,2015-04-12,2021-08-16,,,,,,,,['4bf58dd8d48988d151941735' '4bf58dd8d48988d1c1941735'],"['Dining and Drinking > Restaurant > Mexican Restaurant > Taco Restaurant'
 'Dining and Drinking > Restaurant > Mexican Restaurant']",b'\x00\x00\x00\x00\x01\xc0Y?\xcd\x01\x1c\xa4\xba@6&Z\xa0yf\xc5',"{'xmin': -100.99688747212613, 'ymin': 22.149820356024765, 'xmax': -100.99688747212613, 'ymax': 22.149820356024765}","dining and drinking > restaurant > mexican restaurant > taco restaurant, dining and drinking > restaurant > mexican restaurant",1
4df82635b0fb9724c5d7f130,Tacos Los Monjes,21.15683682628451,-101.68331456423321,Av. Haciendas el Rosario s/n,León,GTO,,,,,MX,2011-06-15,2020-11-30,,,,,,,,['4bf58dd8d48988d151941735'],['Dining and Drinking > Restaurant > Mexican Restaurant > Taco Restaurant'],b'\x00\x00\x00\x00\x01\xc0Yk\xbbm\x02\x90\xc7@5(&uO\xb3N',"{'xmin': -101.68331456423321, 'ymin': 21.15683682628451, 'xmax': -101.68331456423321, 'ymax': 21.15683682628451}",dining and drinking > restaurant > mexican restaurant > taco restaurant,1
585e9aa645c3ed1e7d67d624,Taqueria El Vaquero,20.218517,-100.87916,,,,,,,,MX,2016-12-24,2021-08-11,,,,,,,,['4bf58dd8d48988d151941735'],['Dining and Drinking > Restaurant > Mexican Restaurant > Taco Restaurant'],b'\x00\x00\x00\x00\x01\xc0Y8D(M\xfc\xe3@47\xf0\xba\xe8\x9e\xba',"{'xmin': -100.87916, 'ymin': 20.218517, 'xmax': -100.87916, 'ymax': 20.218517}",dining and drinking > restaurant > mexican restaurant > taco restaurant,1
4d0bc984b93b224b71e64dbf,Barbacoa El Güero,20.71548627256666,-105.27142760453124,Valle Dorado,Jarretaderas,Nayarit,,,,,MX,2010-12-17,2021-08-14,,,,,,,,['4bf58dd8d48988d151941735'],['Dining and Drinking > Restaurant > Mexican Restaurant > Taco Restaurant'],"b""\x00\x00\x00\x00\x01\xc0ZQ_\x11\xe3,_@4\xb7*\x1b\xbdi'""","{'xmin': -105.27142760453124, 'ymin': 20.71548627256666, 'xmax': -105.27142760453124, 'ymax': 20.71548627256666}",dining and drinking > restaurant > mexican restaurant > taco restaurant,1
5369a01d498e3b60e5d96fdb,"tacos ""mama chelo""",21.50909134969662,-104.88720313899519,,,,,,,,MX,2014-05-07,2021-08-15,,,,,,,,['4bf58dd8d48988d151941735'],['Dining and Drinking > Restaurant > Mexican Restaurant > Taco Restaurant'],b'\x00\x00\x00\x00\x01\xc0Z8\xc7\xef\xac\xb9%@5\x82S\xcf\x89\x9f\x9d',"{'xmin': -104.88720313899519, 'ymin': 21.50909134969662, 'xmax': -104.88720313899519, 'ymax': 21.50909134969662}",dining and drinking > restaurant > mexican restaurant > taco restaurant,1
66e7a56102ce2f338ecb23f5,Tacos El Kalusha,20.700571,-103.356452,Tamaulipas,Guadalajara,Jal.,44260,,,,MX,2024-09-16,2024-09-16,,,,,,,,['4bf58dd8d48988d151941735'],['Dining and Drinking > Restaurant > Mexican Restaurant > Taco Restaurant'],b'\x00\x00\x00\x00\x01\xc0Y\xd6\xd0\x1c\x0c\xa6\x01@4\xb3X\x9e\xfd\x86\xa9',"{'xmin': -103.356452, 'ymin': 20.700571, 'xmax': -103.356452, 'ymax': 20.700571}",dining and drinking > restaurant > mexican restaurant > taco restaurant,1
5c71e1c586f4cc0039d2c54a,Antojitos Casa Blanca,21.856161,-102.275304,,Aguascalientes,AGS,20297,,,,MX,2019-02-24,2020-11-30,,,,,,,,['4bf58dd8d48988d151941735'],['Dining and Drinking > Restaurant > Mexican Restaurant > Taco Restaurant'],b'\x00\x00\x00\x00\x01\xc0Y\x91\x9e\x94\xab\x1dP@5\xdb-^\x07\x1cT',"{'xmin': -102.275304, 'ymin': 21.856161, 'xmax': -102.275304, 'ymax': 21.856161}",dining and drinking > restaurant > mexican restaurant > taco restaurant,1
5424c2f9498ef381c7e6ae27,tacos ibarra,21.086478326375957,-101.64304730903977,,,,,,,,MX,2014-09-26,2021-08-11,,,,,,,,['4bf58dd8d48988d151941735'],['Dining and Drinking > Restaurant > Mexican Restaurant > Taco Restaurant'],"b""\x00\x00\x00\x00\x01\xc0Yi'\xaf\xe6\x86\xd3@5\x16#q\x8f\x98\xf9""","{'xmin': -101.64304730903977, 'ymin': 21.086478326375957, 'xmax': -101.64304730903977, 'ymax': 21.086478326375957}",dining and drinking > restaurant > mexican restaurant > taco restaurant,1
515c6201e4b0129953bfa241,Taquería El Calvo,21.12957769303539,-101.65075432675583,,,,,,,,MX,2013-04-03,2021-08-15,,,,,,,,['4bf58dd8d48988d151941735'],['Dining and Drinking > Restaurant > Mexican Restaurant > Taco Restaurant'],"b'\x00\x00\x00\x00\x01\xc0Yi\xa5\xf5y\xc9e@5!,\x00\xf1\xe0\xcd'","{'xmin': -101.65075432675583, 'ymin': 21.12957769303539, 'xmax': -101.65075432675583, 'ymax': 21.12957769303539}",dining and drinking > restaurant > mexican restaurant > taco restaurant,1
569ab296498e051e219feaee,Tacos El Kanibal,21.12072,-101.677414,Libertad #104,León,guanajuato,37000,,,,MX,2016-01-16,2020-11-24,,,,,,,,['4bf58dd8d48988d151941735'],['Dining and Drinking > Restaurant > Mexican Restaurant > Taco Restaurant'],b'\x00\x00\x00\x00\x01\xc0YkZ\xc0?\xf6\x90@5\x1e\xe7\x81\x83\xf9\x1e',"{'xmin': -101.677414, 'ymin': 21.12072, 'xmax': -101.677414, 'ymax': 21.12072}",dining and drinking > restaurant > mexican restaurant > taco restaurant,1
4ce4835742f0b1f763e88dce,Los Volcanes,22.135253364080125,-100.9793036460755,Himno Nacional,San Luis Potosí,SLP,,,,,MX,2010-11-18,2023-12-21,,444 820 8735,,,,,,['4bf58dd8d48988d151941735'],['Dining and Drinking > Restaurant > Mexican Restaurant > Taco Restaurant'],"b'\x00\x00\x00\x00\x01\xc0Y>\xac\xe93/\xdc@6""\x9f\xf6\xe7e\xeb'","{'xmin': -100.9793036460755, 'ymin': 22.135253364080125, 'xmax': -100.9793036460755, 'ymax': 22.135253364080125}",dining and drinking > restaurant > mexican restaurant > taco restaurant,1
5de6dacab892320008e7511c,Carnes  Asadas Y Carnitas Gaitan,19.254319,-103.746606,Av Niños Heroes 479,Villa de Álvarez,COL,,,,,MX,2019-12-03,2020-11-24,,312 314 1530,,,,,,['4bf58dd8d48988d151941735'],['Dining and Drinking > Restaurant > Mexican Restaurant > Taco Restaurant'],b'\x00\x00\x00\x00\x01\xc0Y\xef\xc8d\x88?\xd5@3A\x1b\x0c\xcb\xc0]',"{'xmin': -103.746606, 'ymin': 19.254319, 'xmax': -103.746606, 'ymax': 19.254319}",dining and drinking > restaurant > mexican restaurant > taco restaurant,1
51566e00e4b00f5f9180bb31,Tacos la Hormiga ET,20.603853225708008,-105.23367309570312,,,,,,,,MX,2013-03-30,2021-08-12,,,,,,,,['4bf58dd8d48988d151941735'],['Dining and Drinking > Restaurant > Mexican Restaurant > Taco Restaurant'],b'\x00\x00\x00\x00\x01\xc0ZN\xf4\x80\x00\x00\x00@4\x9a\x96 \x00\x00\x00',"{'xmin': -105.23367309570312, 'ymin': 20.603853225708008, 'xmax': -105.23367309570312, 'ymax': 20.603853225708008}",dining and drinking > restaurant > mexican restaurant > taco restaurant,1
4de79d8e52b19568bd8068a2,Tacolandia,19.248421144538916,-103.7570526372825,Pablo Silva,Villa de Álvarez,COL,,,,,MX,2011-06-02,2020-11-25,2012-09-10,,,,,,,['4bf58dd8d48988d151941735'],['Dining and Drinking > Restaurant > Mexican Restaurant > Taco Restaurant'],b'\x00\x00\x00\x00\x01\xc0Y\xf0s\x8c\xe7\x9e\xa6@3?\x98\x873m\xf6',"{'xmin': -103.7570526372825, 'ymin': 19.248421144538916, 'xmax': -103.7570526372825, 'ymax': 19.248421144538916}",dining and drinking > restaurant > mexican restaurant > taco restaurant,1
4cb01202562d224bef911388,Tacos El Chino,20.73696006443751,-103.36105062487148,De Los Tabachines 1468A,Zapopan,Jalisco,,,,,MX,2010-10-09,2020-11-23,,,,,,,,['4bf58dd8d48988d151941735'],['Dining and Drinking > Restaurant > Mexican Restaurant > Taco Restaurant'],b'\x00\x00\x00\x00\x01\xc0Y\xd7\x1bt\x14\x81\x7f@4\xbc\xa9j/7\x98',"{'xmin': -103.36105062487148, 'ymin': 20.73696006443751, 'xmax': -103.36105062487148, 'ymax': 20.73696006443751}",dining and drinking > restaurant > mexican restaurant > taco restaurant,1
5336faf2498e940581bc5373,Tortas Santa Eduwiges,20.640893936157227,-103.39411163330078,,,,,,,,MX,2014-03-29,2021-08-16,,,,,,,,['4bf58dd8d48988d151941735'],['Dining and Drinking > Restaurant > Mexican Restaurant > Taco Restaurant'],b'\x00\x00\x00\x00\x01\xc0Y\xd99 \x00\x00\x00@4\xa4\x11\xa0\x00\x00\x00',"{'xmin': -103.39411163330078, 'ymin': 20.640893936157227, 'xmax': -103.39411163330078, 'ymax': 20.640893936157227}",dining and drinking > restaurant > mexican restaurant > taco restaurant,1
504bf496e4b0ef19b0f3ce4b,tacos mich's,20.64829114275794,-103.33120874916435,,,,,,,,MX,2012-09-09,2021-08-16,,,,,,,,['4bf58dd8d48988d151941735'],['Dining and Drinking > Restaurant > Mexican Restaurant > Taco Restaurant'],b'\x00\x00\x00\x00\x01\xc0Y\xd52\x86.s\xd6@4\xa5\xf6h\x88n\x8c',"{'xmin': -103.33120874916435, 'ymin': 20.64829114275794, 'xmax': -103.33120874916435, 'ymax': 20.64829114275794}",dining and drinking > restaurant > mexican restaurant > taco restaurant,1
5313f301498e8486d7f11f38,tacos lola y lupillo,20.724145,-103.348812,,,,,,,,MX,2014-03-03,2021-08-11,,,,,,,,['4bf58dd8d48988d151941735'],['Dining and Drinking > Restaurant > Mexican Restaurant > Taco Restaurant'],b'\x00\x00\x00\x00\x01\xc0Y\xd6R\xef\x91\x1c\xf3@4\xb9a\x91\x14\x8f\xda',"{'xmin': -103.348812, 'ymin': 20.724145, 'xmax': -103.348812, 'ymax': 20.724145}",dining and drinking > restaurant > mexican restaurant > taco restaurant,1
56f021c7498e57695b277ace,pastor city,20.673832,-103.368293,,,,,,,,MX,2016-03-21,2021-08-11,,,,,,,,['4bf58dd8d48988d151941735'],['Dining and Drinking > Restaurant > Mexican Restaurant > Taco Restaurant'],b'\x00\x00\x00\x00\x01\xc0Y\xd7\x92\x1c\xcd\x96 @4\xac\x80A\x02\xff\x8f',"{'xmin': -103.368293, 'ymin': 20.673832, 'xmax': -103.368293, 'ymax': 20.673832}",dining and drinking > restaurant > mexican restaurant > taco restaurant,1
4fc97483e4b0ac9638fd2036,taquisimo,20.58050877581956,-103.44630281513416,,,,,,,,MX,2012-06-02,2020-11-25,,,,,,,,['4bf58dd8d48988d151941735'],['Dining and Drinking > Restaurant > Mexican Restaurant > Taco Restaurant'],b'\x00\x00\x00\x00\x01\xc0Y\xdc\x909\xae\xc7K@4\x94\x9c9\x1f/\x9e',"{'xmin': -103.44630281513416, 'ymin': 20.58050877581956, 'xmax': -103.44630281513416, 'ymax': 20.58050877581956}",dining and drinking > restaurant > mexican restaurant > taco restaurant,1
579a1eb438fad61114970056,Tacos el Papi,21.059155,-101.582311,,,,,,,,MX,2016-07-28,2021-08-13,,,,,,,,['4bf58dd8d48988d151941735'],['Dining and Drinking > Restaurant > Mexican Restaurant > Taco Restaurant'],b'\x00\x00\x00\x00\x01\xc0YeD\x95[Fx@5\x0f$\xc86e\x17',"{'xmin': -101.582311, 'ymin': 21.059155, 'xmax': -101.582311, 'ymax': 21.059155}",dining and drinking > restaurant > mexican restaurant > taco restaurant,1
520657a711d2cb931dd24117,tacos de barbacoa el chino,20.610179287853096,-103.34232997208235,,,,,,,,MX,2013-08-10,2021-08-11,,,,,,,,['4bf58dd8d48988d151941735'],['Dining and Drinking > Restaurant > Mexican Restaurant > Taco Restaurant'],b'\x00\x00\x00\x00\x01\xc0Y\xd5\xe8\xbb\xf8\xa22@4\x9c4\xb5\xb6\x06\x8f',"{'xmin': -103.34232997208235, 'ymin': 20.610179287853096, 'xmax': -103.34232997208235, 'ymax': 20.610179287853096}",dining and drinking > restaurant > mexican restaurant > taco restaurant,1
4d01ba6b37caa1cd6165e047,Taqueria Rigo,20.70800595285869,-103.33164360401285,Monte San Elias,Guadalajara,JAL,,,,,MX,2010-12-10,2021-08-14,,,,,,,,['4bf58dd8d48988d151941735'],['Dining and Drinking > Restaurant > Mexican Restaurant > Taco Restaurant'],b'\x00\x00\x00\x00\x01\xc0Y\xd59\xa6\x18Jk@4\xb5?\xe0\xcc\xe6\xc2',"{'xmin': -103.33164360401285, 'ymin': 20.70800595285869, 'xmax': -103.33164360401285, 'ymax': 20.70800595285869}",dining and drinking > restaurant > mexican restaurant > taco restaurant,1
5d1ac802ca49b3002f4b3976,El Trompito,19.675881,-101.187456,JJ Tablada,Morelia,MICH,58090,,,,MX,2019-07-02,2020-11-24,,,,,,,,['4bf58dd8d48988d151941735'],['Dining and Drinking > Restaurant > Mexican Restaurant > Taco Restaurant'],b'\x00\x00\x00\x00\x01\xc0YK\xffGs\\\x18@3\xad\x06\x89\x86\xfc\xdf',"{'xmin': -101.187456, 'ymin': 19.675881, 'xmax': -101.187456, 'ymax': 19.675881}",dining and drinking > restaurant > mexican restaurant > taco restaurant,1
54446581498e4180ba5eadd2,Ricos Tacos,20.665927386135426,-103.39197564848838,,,,,,,,MX,2014-10-20,2022-09-02,,,,,,,,['4bf58dd8d48988d151941735'],['Dining and Drinking > Restaurant > Mexican Restaurant > Taco Restaurant'],b'\x00\x00\x00\x00\x01\xc0Y\xd9\x16!\x07\xc5\x81@4\xaaz7\x98\xf6a',"{'xmin': -103.39197564848838, 'ymin': 20.665927386135426, 'xmax': -103.39197564848838, 'ymax': 20.665927386135426}",dining and drinking > restaurant > mexican restaurant > taco restaurant,1
50c759d0e4b0f360f187361a,Tacos Don Mamey,21.115864,-101.665071,,,,,,,,MX,2012-12-11,2021-08-10,,,,,,,,['4bf58dd8d48988d151941735'],['Dining and Drinking > Restaurant > Mexican Restaurant > Taco Restaurant'],"b""\x00\x00\x00\x00\x01\xc0Yj\x90\x85\xf4\xa1'@5\x1d\xa9CZ\xc8\xa3""","{'xmin': -101.665071, 'ymin': 21.115864, 'xmax': -101.665071, 'ymax': 21.115864}",dining and drinking > restaurant > mexican restaurant > taco restaurant,1
6577da8a9f87a8524ffb5a3c,San Miguel Tacos,20.710672,-103.33751,Av. Fidel Velázquez #552,Guadalajara,Jalisco,44230,,,,MX,2023-12-12,2023-12-12,,,,,,,,['4bf58dd8d48988d151941735'],['Dining and Drinking > Restaurant > Mexican Restaurant > Taco Restaurant'],b'\x00\x00\x00\x00\x01\xc0Y\xd5\x99\xc3\x8b\x04\xab@4\xb5\xee\x99\xa6.\xd3',"{'xmin': -103.33751, 'ymin': 20.710672, 'xmax': -103.33751, 'ymax': 20.710672}",dining and drinking > restaurant > mexican restaurant > taco restaurant,1
4cd8de537d4546882dffeded,Taquería La Alteña,19.270981982912797,-103.71606453172112,Av. Venustiano Carranza 1640,Colima,COL,28017,,,,MX,2010-11-09,2020-11-21,,,,,,,,['4bf58dd8d48988d151941735'],['Dining and Drinking > Restaurant > Mexican Restaurant > Taco Restaurant'],b'\x00\x00\x00\x00\x01\xc0Y\xed\xd4\x00TdV@3E_\x13Bjk',"{'xmin': -103.71606453172112, 'ymin': 19.270981982912797, 'xmax': -103.71606453172112, 'ymax': 19.270981982912797}",dining and drinking > restaurant > mexican restaurant > taco restaurant,1
50bec20ae4b04b6b16009557,Tacos Secos,20.638159613866602,-103.37551896132058,,,,,,,,MX,2012-12-05,2021-08-11,,,,,,,,['4bf58dd8d48988d151941735'],['Dining and Drinking > Restaurant > Mexican Restaurant > Taco Restaurant'],b'\x00\x00\x00\x00\x01\xc0Y\xd8\x08\x80\xaey\x96@4\xa3^m\xaf/_',"{'xmin': -103.37551896132058, 'ymin': 20.638159613866602, 'xmax': -103.37551896132058, 'ymax': 20.638159613866602}",dining and drinking > restaurant > mexican restaurant > taco restaurant,1
4e527860d4c075ade75b1e6e,Tortas El Chispas Las Torres,21.147328,-101.655815,,León de Los Aldama,Guanajuato,,,,,MX,2011-08-22,2020-11-24,,,,,,,,['4bf58dd8d48988d151941735'],['Dining and Drinking > Restaurant > Mexican Restaurant > Taco Restaurant'],b'\x00\x00\x00\x00\x01\xc0Yi\xf8\xdfzN{@5%\xb7I\xad\xc8\xfc',"{'xmin': -101.655815, 'ymin': 21.147328, 'xmax': -101.655815, 'ymax': 21.147328}",dining and drinking > restaurant > mexican restaurant > taco restaurant,1
5990e061f870fd39d4414d8b,Taqueria Las Cuatas,20.694975,-103.297547,,Guadalajara,JAL,44700,,,,MX,2017-08-13,2021-08-12,,,,,,,,['4bf58dd8d48988d151941735'],['Dining and Drinking > Restaurant > Mexican Restaurant > Taco Restaurant'],b'\x00\x00\x00\x00\x01\xc0Y\xd3\x0b\x02\x92\x81w@4\xb1\xe9\xe1\xb0\x89\xa0',"{'xmin': -103.297547, 'ymin': 20.694975, 'xmax': -103.297547, 'ymax': 20.694975}",dining and drinking > restaurant > mexican restaurant > taco restaurant,1
53494c44498e429cc00d2d24,Súperqueca,19.244085,-103.741589,Mercado El Manchón Local # 8,Colima,Colima,,,,,MX,2014-04-12,2020-11-30,,,,,,,,['4bf58dd8d48988d151941735'],['Dining and Drinking > Restaurant > Mexican Restaurant > Taco Restaurant'],b'\x00\x00\x00\x00\x01\xc0Y\xefv1\xb5\x84\xb2@3>|Z\xc4q\xb4',"{'xmin': -103.741589, 'ymin': 19.244085, 'xmax': -103.741589, 'ymax': 19.244085}",dining and drinking > restaurant > mexican restaurant > taco restaurant,1
5ceac824dbde1100257de1fd,"Tacos De Barbacoa ""El Güero""",21.88037,-102.2457,San Francisco de los Viveros,Aguascalientes,Aguascalientes,20196,,,,MX,2019-05-26,2020-11-26,,,,,,,,['4bf58dd8d48988d151941735'],['Dining and Drinking > Restaurant > Mexican Restaurant > Taco Restaurant'],b'\x00\x00\x00\x00\x01\xc0Y\x8f\xb9\x8c~($@5\xe1_\xed\xa6a(',"{'xmin': -102.2457, 'ymin': 21.88037, 'xmax': -102.2457, 'ymax': 21.88037}",dining and drinking > restaurant > mexican restaurant > taco restaurant,1
56dc5f77cd105a91dbebb34e,Tacos El Zacatecano,21.931750131225503,-102.28287923050051,Av. Constitución,Aguascalientes,AGS,,,,,MX,2016-03-06,2021-02-27,,,,,,,,['4bf58dd8d48988d151941735'],['Dining and Drinking > Restaurant > Mexican Restaurant > Taco Restaurant'],b'\x00\x00\x00\x00\x01\xc0Y\x92\x1a\xb1|\xed\xe9@5\xee\x87-5\xa8A',"{'xmin': -102.28287923050051, 'ymin': 21.931750131225503, 'xmax': -102.28287923050051, 'ymax': 21.931750131225503}",dining and drinking > restaurant > mexican restaurant > taco restaurant,1
5a83a8e13c858d73f42381a0,El Tacorriendo,21.031758,-101.258351,,Guanajuato,GTO,36020,,,,MX,2018-02-14,2020-11-30,,,,,,,,['4bf58dd8d48988d151941735'],['Dining and Drinking > Restaurant > Mexican Restaurant > Taco Restaurant'],b'\x00\x00\x00\x00\x01\xc0YP\x88\xd2\xa1\xf8\xe4@5\x08!J\xd3b\xe9',"{'xmin': -101.258351, 'ymin': 21.031758, 'xmax': -101.258351, 'ymax': 21.031758}",dining and drinking > restaurant > mexican restaurant > taco restaurant,1
51a8d17c498e6a145db3e1d5,"Birrieria ""Lupita"" De Ruiz",21.483654455165638,-104.89600147133336,Perú,Tepic,Nayarit,,,,,MX,2013-05-31,2020-11-30,,,,,,,,['4bf58dd8d48988d151941735'],['Dining and Drinking > Restaurant > Mexican Restaurant > Taco Restaurant'],"b'\x00\x00\x00\x00\x01\xc0Z9X\x16\x8e""\xdc@5{\xd0\xc7C\x80I'","{'xmin': -104.89600147133336, 'ymin': 21.483654455165638, 'xmax': -104.89600147133336, 'ymax': 21.483654455165638}",dining and drinking > restaurant > mexican restaurant > taco restaurant,1
4d9924adaf3d236a29794dc7,Tortas Pancho,20.684383549842533,-103.34937993348383,Juan Álvarez 599,Guadalajara,Jalisco,,,,,MX,2011-04-04,2021-08-11,,,,,,,,['4bf58dd8d48988d1c1941735' '4bf58dd8d48988d151941735'],"['Dining and Drinking > Restaurant > Mexican Restaurant'
 'Dining and Drinking > Restaurant > Mexican Restaurant > Taco Restaurant']",b'\x00\x00\x00\x00\x01\xc0Y\xd6\\=\xa7\x0cE@4\xaf3\xc2\xa4~{',"{'xmin': -103.34937993348383, 'ymin': 20.684383549842533, 'xmax': -103.34937993348383, 'ymax': 20.684383549842533}","dining and drinking > restaurant > mexican restaurant, dining and drinking > restaurant > mexican restaurant > taco restaurant",1
56cc99c7cd10af0dc4bf74ba,Las Chilakas de la arbide suc. centro,21.120257668496002,-101.68623511960412,,,,,,,,MX,2016-02-23,2021-08-15,,,,,,,,['4bf58dd8d48988d151941735'],['Dining and Drinking > Restaurant > Mexican Restaurant > Taco Restaurant'],b'\x00\x00\x00\x00\x01\xc0Yk\xebF\xb5\x04?@5\x1e\xc94\xe1H\x96',"{'xmin': -101.68623511960412, 'ymin': 21.120257668496002, 'xmax': -101.68623511960412, 'ymax': 21.120257668496002}",dining and drinking > restaurant > mexican restaurant > taco restaurant,1
587e427076f2ca5827c2bdcd,"Tacos Doña Mary ""Pelos""",20.653862,-103.30112,,,,,,,,MX,2017-01-17,2021-08-16,,,,,,,,['4bf58dd8d48988d151941735'],['Dining and Drinking > Restaurant > Mexican Restaurant > Taco Restaurant'],b'\x00\x00\x00\x00\x01\xc0Y\xd3E\x8c\xd2\n\xfa@4\xa7c\x80\x02\x18\xdf',"{'xmin': -103.30112, 'ymin': 20.653862, 'xmax': -103.30112, 'ymax': 20.653862}",dining and drinking > restaurant > mexican restaurant > taco restaurant,1
58b8d711bbd6d17a40ba6387,"Tacos ""El Paisa""",20.57273,-101.19988,,,,,,,,MX,2017-03-03,2021-08-12,,,,,,,,['4bf58dd8d48988d151941735'],['Dining and Drinking > Restaurant > Mexican Restaurant > Taco Restaurant'],b'\x00\x00\x00\x00\x01\xc0YL\xca\xd5{\xc7\xf7@4\x92\x9en\xebp&',"{'xmin': -101.19988, 'ymin': 20.57273, 'xmax': -101.19988, 'ymax': 20.57273}",dining and drinking > restaurant > mexican restaurant > taco restaurant,1
5123aa70e4b0ba7e4e8e82d4,"Tacos ""4x20""",22.13738144346819,-100.93341177381639,,,,,,,,MX,2013-02-19,2021-08-13,,,,,,,,['4bf58dd8d48988d151941735'],['Dining and Drinking > Restaurant > Mexican Restaurant > Taco Restaurant'],b'\x00\x00\x00\x00\x01\xc0Y;\xbd\x04\xbc\x8f\x89@6#+n&\xc5\xed',"{'xmin': -100.93341177381639, 'ymin': 22.13738144346819, 'xmax': -100.93341177381639, 'ymax': 22.13738144346819}",dining and drinking > restaurant > mexican restaurant > taco restaurant,1
57da2ad3498ef70099b10e96,El Tacomiendo,22.164564,-101.016335,,,,,,,,MX,2016-09-15,2021-08-14,,,,,,,,['4bf58dd8d48988d151941735'],['Dining and Drinking > Restaurant > Mexican Restaurant > Taco Restaurant'],b'\x00\x00\x00\x00\x01\xc0YA\x0b\xa1\xf4\xb1\xee@6* \xdd\xc6\x19T',"{'xmin': -101.016335, 'ymin': 22.164564, 'xmax': -101.016335, 'ymax': 22.164564}",dining and drinking > restaurant > mexican restaurant > taco restaurant,1
592a28b30802d425325fa620,Taqueria El Rodeo,21.884693,-102.31223,ave. de la convención poniente 1001 A,Aguascalientes,Aguascalientes,,,,,MX,2017-05-28,2020-11-30,,,,,,,,['4bf58dd8d48988d151941735'],['Dining and Drinking > Restaurant > Mexican Restaurant > Taco Restaurant'],b'\x00\x00\x00\x00\x01\xc0Y\x93\xfb\x93\x89\xb5 @5\xe2{=\x8e\x00\x08',"{'xmin': -102.31223, 'ymin': 21.884693, 'xmax': -102.31223, 'ymax': 21.884693}",dining and drinking > restaurant > mexican restaurant > taco restaurant,1
50eb11cfe4b0541e75c656a2,Tacos El Puma,20.821454058112504,-102.7529485728889,,,,,,,,MX,2013-01-07,2021-08-13,,,,,,,,['4bf58dd8d48988d151941735'],['Dining and Drinking > Restaurant > Mexican Restaurant > Taco Restaurant'],"b'\x00\x00\x00\x00\x01\xc0Y\xb00O6\x08,@4\xd2J\xd0*\xc2{'","{'xmin': -102.7529485728889, 'ymin': 20.821454058112504, 'xmax': -102.7529485728889, 'ymax': 20.821454058112504}",dining and drinking > restaurant > mexican restaurant > taco restaurant,1
604e5106a1947a64f4bed1eb,Tacos De Barbacoa Convención,21.8851,-102.31222,Av Convención 1914,Aguascalientes,Aguascalientes,20060,,,,MX,2021-03-14,2021-03-14,,,,,,,,['4bf58dd8d48988d151941735'],['Dining and Drinking > Restaurant > Mexican Restaurant > Taco Restaurant'],b'\x00\x00\x00\x00\x01\xc0Y\x93\xfbi\x98J\x0e@5\xe2\x95\xe9\xe1\xb0\x8a',"{'xmin': -102.31222, 'ymin': 21.8851, 'xmax': -102.31222, 'ymax': 21.8851}",dining and drinking > restaurant > mexican restaurant > taco restaurant,1
4e3e31e4483b04e17aa0fdc6,Tacos jose's,20.51975083055447,-100.8152661323341,Bvd adolfo lopez mateos,Celaya,Guanajuato,,,,,MX,2011-08-07,2020-11-30,,,,,,,,['4bf58dd8d48988d151941735'],['Dining and Drinking > Restaurant > Mexican Restaurant > Taco Restaurant'],b'\x00\x00\x00\x00\x01\xc0Y4-Q\xff\xfaT@4\x85\x0ec\xf3L\xe0',"{'xmin': -100.8152661323341, 'ymin': 20.51975083055447, 'xmax': -100.8152661323341, 'ymax': 20.51975083055447}",dining and drinking > restaurant > mexican restaurant > taco restaurant,1
55b43fc6498e1a63a4a1a0d3,cenaduria y carnes en su jugo mi tierra,20.592182,-103.239109,,,,,,,,MX,2015-07-26,2021-08-11,,,,,,,,['4bf58dd8d48988d151941735'],['Dining and Drinking > Restaurant > Mexican Restaurant > Taco Restaurant'],b'\x00\x00\x00\x00\x01\xc0Y\xcfM\x8f\xd5\xcby@4\x97\x99=SG\xa6',"{'xmin': -103.239109, 'ymin': 20.592182, 'xmax': -103.239109, 'ymax': 20.592182}",dining and drinking > restaurant > mexican restaurant > taco restaurant,1
656dfcd6aa05fd67c8f1c94d,¡Que Hay Carnal!,21.879038,-102.29499,,Aguascalientes,Aguascalientes,20000,,,,MX,2023-12-04,2023-12-04,,,,,,,,['4bf58dd8d48988d151941735'],['Dining and Drinking > Restaurant > Mexican Restaurant > Taco Restaurant'],b'\x00\x00\x00\x00\x01\xc0Y\x92\xe1\x1d\xbc\xa9i@5\xe1\x08\xa2e\xf0\xf6',"{'xmin': -102.29499, 'ymin': 21.879038, 'xmax': -102.29499, 'ymax': 21.879038}",dining and drinking > restaurant > mexican restaurant > taco restaurant,1
65011f41d00642064fa83418,Pepito Abdul,21.16902,-101.65998,Camino a Ibarrilla 317,León,Guanajuato,37119,,,,MX,2023-09-13,2023-09-13,,,,,,,,['4bf58dd8d48988d151941735'],['Dining and Drinking > Restaurant > Mexican Restaurant > Taco Restaurant'],b'\x00\x00\x00\x00\x01\xc0Yj=\x1c\xc1\x00\xe7@5+D\xe5\x0c^\xb3',"{'xmin': -101.65998, 'ymin': 21.16902, 'xmax': -101.65998, 'ymax': 21.16902}",dining and drinking > restaurant > mexican restaurant > taco restaurant,1
55e2794f498e44d127c0e247,Cybertacos,20.683923721313477,-105.22718811035156,,,,,,,,MX,2015-08-30,2021-08-11,,,,,,,,['4bf58dd8d48988d151941735'],['Dining and Drinking > Restaurant > Mexican Restaurant > Taco Restaurant'],b'\x00\x00\x00\x00\x01\xc0ZN\x8a@\x00\x00\x00@4\xaf\x15\xa0\x00\x00\x00',"{'xmin': -105.22718811035156, 'ymin': 20.683923721313477, 'xmax': -105.22718811035156, 'ymax': 20.683923721313477}",dining and drinking > restaurant > mexican restaurant > taco restaurant,1
506cb16ae4b04e15f28e7f44,Tortas Ahogadas el Capulin,20.832992553710938,-103.7230453491211,,,,,,,,MX,2012-10-03,2020-11-24,,,,,,,,['4bf58dd8d48988d151941735'],['Dining and Drinking > Restaurant > Mexican Restaurant > Taco Restaurant'],b'\x00\x00\x00\x00\x01\xc0Y\xeeF`\x00\x00\x00@4\xd5?\x00\x00\x00\x00',"{'xmin': -103.7230453491211, 'ymin': 20.832992553710938, 'xmax': -103.7230453491211, 'ymax': 20.832992553710938}",dining and drinking > restaurant > mexican restaurant > taco restaurant,1
50481e50e4b052b0af805c16,Taquería Chelita,20.613951,-103.345737,,,,,,,,MX,2012-09-06,2021-08-16,,,,,,,,['4bf58dd8d48988d151941735'],['Dining and Drinking > Restaurant > Mexican Restaurant > Taco Restaurant'],b'\x00\x00\x00\x00\x01\xc0Y\xd6 \x8e\x15\x01\x19@4\x9d+\xe4\x8aX\xb4',"{'xmin': -103.345737, 'ymin': 20.613951, 'xmax': -103.345737, 'ymax': 20.613951}",dining and drinking > restaurant > mexican restaurant > taco restaurant,1
59e81ee5d0a14965dbad4d98,Los Nuevos Jefes,19.274784271283302,-99.12523812686256,Prolongacion De Ignacio Aldama,Xochimilco,CDMX,16020,,,,MX,2017-10-19,2023-09-13,,,,,,,,['4bf58dd8d48988d151941735'],['Dining and Drinking > Restaurant > Mexican Restaurant > Taco Restaurant'],b'\x00\x00\x00\x00\x01\xc0X\xc8\x03\xe6\xc6\xc5\x91@3FXC\x12\x9d\xf2',"{'xmin': -99.12523812686256, 'ymin': 19.274784271283302, 'xmax': -99.12523812686256, 'ymax': 19.274784271283302}",dining and drinking > restaurant > mexican restaurant > taco restaurant,1
61d87297c90d054ce84d9e74,Tacos De Canasta Teopanzoñco,18.926748,-99.221612,,Cuernavaca,MOR,62284,,,,MX,2022-01-07,2022-01-07,,,,,,,,['4bf58dd8d48988d151941735'],['Dining and Drinking > Restaurant > Mexican Restaurant > Taco Restaurant'],"b""\x00\x00\x00\x00\x01\xc0X\xce.\xe4\x19\x19\xac@2\xed?[_\xa2'""","{'xmin': -99.221612, 'ymin': 18.926748, 'xmax': -99.221612, 'ymax': 18.926748}",dining and drinking > restaurant > mexican restaurant > taco restaurant,1
4f693953e4b0f8b5d5179466,Tacos al carbon,18.86595163253454,-99.20747495526977,,,,,,,,MX,2012-03-21,2020-11-25,,,,,,,,['4bf58dd8d48988d151941735'],['Dining and Drinking > Restaurant > Mexican Restaurant > Taco Restaurant'],b'\x00\x00\x00\x00\x01\xc0X\xcdGE\x08\xe7\xdb@2\xdd\xaf\x01\x95\xa7V',"{'xmin': -99.20747495526977, 'ymin': 18.86595163253454, 'xmax': -99.20747495526977, 'ymax': 18.86595163253454}",dining and drinking > restaurant > mexican restaurant > taco restaurant,1
4f7fc023e4b0acccb7653243,Taqueria Mi Cabaña,16.841918,-99.913863,,,,,,,,MX,2012-04-07,2023-12-21,,,,alfredo74.acapulco@gmail.com,,,,['4bf58dd8d48988d151941735'],['Dining and Drinking > Restaurant > Mexican Restaurant > Taco Restaurant'],b'\x00\x00\x00\x00\x01\xc0X\xfa|\xbb<\x81\x91@0\xd7\x87\xf0#\xe9\xea',"{'xmin': -99.913863, 'ymin': 16.841918, 'xmax': -99.913863, 'ymax': 16.841918}",dining and drinking > restaurant > mexican restaurant > taco restaurant,1
571829ce498e361636543a41,14 Salsas,19.303415,-99.193067,Zacatepetl Y Periférico,Distrito Federal,,,,,,MX,2016-04-21,2020-11-26,,,,,,,,['4bf58dd8d48988d151941735'],['Dining and Drinking > Restaurant > Mexican Restaurant > Taco Restaurant'],b'\x00\x00\x00\x00\x01\xc0X\xcc[5\xb0\xbb\xf5@3M\xac\x9a\xfe\x1d\xa8',"{'xmin': -99.193067, 'ymin': 19.303415, 'xmax': -99.193067, 'ymax': 19.303415}",dining and drinking > restaurant > mexican restaurant > taco restaurant,1
5eb4cd1b05c5b90008967a17,Tacos De Guisado Luipita,19.319649,-99.105865,Manuela medina 6,Delegación  de Coyoacán,Coyoacán,04480,,,,MX,2020-05-08,2020-11-25,,,,,,,,['4bf58dd8d48988d151941735'],['Dining and Drinking > Restaurant > Mexican Restaurant > Taco Restaurant'],b'\x00\x00\x00\x00\x01\xc0X\xc6\xc6}\xfe2\xa0@3Q\xd4\x84Q2\xf8',"{'xmin': -99.105865, 'ymin': 19.319649, 'xmax': -99.105865, 'ymax': 19.319649}",dining and drinking > restaurant > mexican restaurant > taco restaurant,1
4f37f769c2ee09739618dfbb,Tacos Angi's,19.294213151444644,-99.7824239730835,Independencia #300 GeoVillas el Nevado,San Francisco Tlalcilalcalpan,Estado de Mexico,50940,,,,MX,2012-02-12,2020-11-23,,,,,,,MrquezEnriqei,['4bf58dd8d48988d151941735'],['Dining and Drinking > Restaurant > Mexican Restaurant > Taco Restaurant'],b'\x00\x00\x00\x00\x01\xc0X\xf2\x13<\x00\x00\x00@3KQ\x8d\x97\x82\x02',"{'xmin': -99.7824239730835, 'ymin': 19.294213151444644, 'xmax': -99.7824239730835, 'ymax': 19.294213151444644}",dining and drinking > restaurant > mexican restaurant > taco restaurant,1
51edec1a498eae0b29be4603,Antojitos Mexicanos Estilo DF,19.331198,-99.119577,,Coyoacán,Mexico City,,,,,MX,2013-07-23,2020-11-23,,,,,,,,['4bf58dd8d48988d151941735'],['Dining and Drinking > Restaurant > Mexican Restaurant > Taco Restaurant'],b'\x00\x00\x00\x00\x01\xc0X\xc7\xa7&J\x16\xa5@3T\xc9db\x80(',"{'xmin': -99.119577, 'ymin': 19.331198, 'xmax': -99.119577, 'ymax': 19.331198}",dining and drinking > restaurant > mexican restaurant > taco restaurant,1
58a33dbd14f8f4092cbd2f3d,Chabocho,19.67472,-101.17891,,,,,,,,MX,2017-02-14,2021-08-13,,,,,,,,['4bf58dd8d48988d151941735'],['Dining and Drinking > Restaurant > Mexican Restaurant > Taco Restaurant'],b'\x00\x00\x00\x00\x01\xc0YKsB\xed\xbbZ@3\xac\xbas-\xf5\x06',"{'xmin': -101.17891, 'ymin': 19.67472, 'xmax': -101.17891, 'ymax': 19.67472}",dining and drinking > restaurant > mexican restaurant > taco restaurant,1
50e39be8e4b0b92a47dcc060,El Pastorcito,18.892954657566136,-96.94089645648403,Av 11 #610,Córdoba,Veracruz,94500,,,,MX,2013-01-02,2020-11-23,,,,,,,,['4bf58dd8d48988d151941735'],['Dining and Drinking > Restaurant > Mexican Restaurant > Taco Restaurant'],b'\x00\x00\x00\x00\x01\xc0X<7\xa5\xc5a[@2\xe4\x98\xad+\x0e\xb4',"{'xmin': -96.94089645648403, 'ymin': 18.892954657566136, 'xmax': -96.94089645648403, 'ymax': 18.892954657566136}",dining and drinking > restaurant > mexican restaurant > taco restaurant,1
53a45a9d498eac9e64166a20,TACOS EL GEDIONDO,18.766371,-95.759722,,,,,,,,MX,2014-06-20,2021-08-16,,,,,,,,['4bf58dd8d48988d151941735'],['Dining and Drinking > Restaurant > Mexican Restaurant > Taco Restaurant'],b'\x00\x00\x00\x00\x01\xc0W\xf0\x9fI\x06\x03O@2\xc40\xe3\xcd\x9aR',"{'xmin': -95.759722, 'ymin': 18.766371, 'xmax': -95.759722, 'ymax': 18.766371}",dining and drinking > restaurant > mexican restaurant > taco restaurant,1
54a6ccdd498e9722fa4c3251,Antojitos Mago,19.299327850341797,-99.12019348144531,,,,,,,,MX,2015-01-02,2021-08-13,,,,,,,,['4bf58dd8d48988d151941735'],['Dining and Drinking > Restaurant > Mexican Restaurant > Taco Restaurant'],b'\x00\x00\x00\x00\x01\xc0X\xc7\xb1@\x00\x00\x00@3L\xa0\xc0\x00\x00\x00',"{'xmin': -99.12019348144531, 'ymin': 19.299327850341797, 'xmax': -99.12019348144531, 'ymax': 19.299327850341797}",dining and drinking > restaurant > mexican restaurant > taco restaurant,1
4fe3e270e4b0517d90b23d55,Tacos De La Paza,20.347880177084484,-102.77466601496957,,,,,,,,MX,2012-06-22,2021-08-14,,,,,,,,['4bf58dd8d48988d151941735'],['Dining and Drinking > Restaurant > Mexican Restaurant > Taco Restaurant'],b'\x00\x00\x00\x00\x01\xc0Y\xb1\x94 \xc3\xe7|@4Y\x0e\xac\xdf\x81*',"{'xmin': -102.77466601496957, 'ymin': 20.347880177084484, 'xmax': -102.77466601496957, 'ymax': 20.347880177084484}",dining and drinking > restaurant > mexican restaurant > taco restaurant,1
522a67d3498e6c51771703f2,taquería. Otomi,19.31936,-99.15186,"Otomies , 97 lote 2, ajusco",,,,,,,MX,2013-09-06,2021-08-11,,,,,,,,['4bf58dd8d48988d151941735'],['Dining and Drinking > Restaurant > Mexican Restaurant > Taco Restaurant'],b'\x00\x00\x00\x00\x01\xc0X\xc9\xb8\x13\x01d\x84@3Q\xc1\x93\xb3\xa6\x8b',"{'xmin': -99.15186, 'ymin': 19.31936, 'xmax': -99.15186, 'ymax': 19.31936}",dining and drinking > restaurant > mexican restaurant > taco restaurant,1
512a3831e4b0ff6b5c2d9aff,Taquería Hermanos Martínez,17.04669705683303,-96.72147323401691,,,,,,,,MX,2013-02-24,2021-08-12,,,,,,,,['4bf58dd8d48988d151941735'],['Dining and Drinking > Restaurant > Mexican Restaurant > Taco Restaurant'],"b'\x00\x00\x00\x00\x01\xc0X.,\x9e\x12B\xb0@1\x0b\xf4V\x9b\xea\xd5'","{'xmin': -96.72147323401691, 'ymin': 17.04669705683303, 'xmax': -96.72147323401691, 'ymax': 17.04669705683303}",dining and drinking > restaurant > mexican restaurant > taco restaurant,1
50eccaa6e4b0e5d3c45638fd,Tacos Orientales,18.848984,-97.099293,Sur 9,Orizaba,Veracruz,94300,,,,MX,2013-01-09,2023-12-20,,272 725 2413,,,,,,['4bf58dd8d48988d151941735'],['Dining and Drinking > Restaurant > Mexican Restaurant > Taco Restaurant'],b'\x00\x00\x00\x00\x01\xc0XFZ\xd1\x06\xee1@2\xd9W\x03\xf2\xd3\xc8',"{'xmin': -97.099293, 'ymin': 18.848984, 'xmax': -97.099293, 'ymax': 18.848984}",dining and drinking > restaurant > mexican restaurant > taco restaurant,1
568ddf71498eea0e9a297d98,"Taquería “Emporio""",18.08197655358478,-96.1203103956686,,,,,,,,MX,2016-01-07,2021-08-15,,,,,,,,['4bf58dd8d48988d151941735'],['Dining and Drinking > Restaurant > Mexican Restaurant > Taco Restaurant'],b'\x00\x00\x00\x00\x01\xc0X\x07\xb3*_\xb0\xfd@2\x14\xfcjX\xafx',"{'xmin': -96.1203103956686, 'ymin': 18.08197655358478, 'xmax': -96.1203103956686, 'ymax': 18.08197655358478}",dining and drinking > restaurant > mexican restaurant > taco restaurant,1
4f8a2feee4b037c01f9d0da5,Tacos Don Filo,18.89555389425351,-99.2269015950583,Morelos,Cuernavaca,Morelos,,,,,MX,2012-04-15,2020-11-24,,,,,,,,['4bf58dd8d48988d151941735'],['Dining and Drinking > Restaurant > Mexican Restaurant > Taco Restaurant'],b'\x00\x00\x00\x00\x01\xc0X\xce\x85\x8eD\x8b\xe1@2\xe5C\x05\x1f\x9f\xd0',"{'xmin': -99.2269015950583, 'ymin': 18.89555389425351, 'xmax': -99.2269015950583, 'ymax': 18.89555389425351}",dining and drinking > restaurant > mexican restaurant > taco restaurant,1
58beeeaa469aef0c9535dc92,"Birria de Res ""El Capi""",19.418245,-102.050717,,,,,,,,MX,2017-03-07,2021-08-15,,,,,,,,['4bf58dd8d48988d151941735'],['Dining and Drinking > Restaurant > Mexican Restaurant > Taco Restaurant'],"b'\x00\x00\x00\x00\x01\xc0Y\x83>\xf2\x84\x16{@3k\x12\x1a\xb4\xb7,'","{'xmin': -102.050717, 'ymin': 19.418245, 'xmax': -102.050717, 'ymax': 19.418245}",dining and drinking > restaurant > mexican restaurant > taco restaurant,1
5c2590f86fd626002c5edc1f,Los Tecolotitos,19.312052,-99.119109,Calzada De Las Bombas,Ciudad de México,CDMX,04920,,,,MX,2018-12-28,2020-11-25,,,,,,,,['4bf58dd8d48988d151941735'],['Dining and Drinking > Restaurant > Mexican Restaurant > Taco Restaurant'],b'\x00\x00\x00\x00\x01\xc0X\xc7\x9f{Z\xea1@3O\xe2\xa3\xce\xa6\xc2',"{'xmin': -99.119109, 'ymin': 19.312052, 'xmax': -99.119109, 'ymax': 19.312052}",dining and drinking > restaurant > mexican restaurant > taco restaurant,1
4ed2acf099114b488acc0f65,Las Quekas,19.156634,-99.162804,,Ciudad de México,Distrito Federal,,,,,MX,2011-11-27,2020-11-30,,,,,,,,['4bf58dd8d48988d151941735'],['Dining and Drinking > Restaurant > Mexican Restaurant > Taco Restaurant'],b'\x00\x00\x00\x00\x01\xc0X\xcakaw\xea\x1c@3(\x19*sq\x11',"{'xmin': -99.162804, 'ymin': 19.156634, 'xmax': -99.162804, 'ymax': 19.156634}",dining and drinking > restaurant > mexican restaurant > taco restaurant,1
56d7b545498e47d7c5f9cb90,Buen Provecho,17.07316592280678,-96.75772949970467,Ignacio Bernal,Montoya,oaxaca,68140,,,,MX,2016-03-03,2020-11-23,,,,,,,,['4bf58dd8d48988d151941735'],['Dining and Drinking > Restaurant > Mexican Restaurant > Taco Restaurant'],b'\x00\x00\x00\x00\x01\xc0X0~\xa3\xdf\x1c\x8b@1\x12\xbb\x00}\xa3\x04',"{'xmin': -96.75772949970467, 'ymin': 17.07316592280678, 'xmax': -96.75772949970467, 'ymax': 17.07316592280678}",dining and drinking > restaurant > mexican restaurant > taco restaurant,1
52dc09ef498e80be5b35f710,Barbacoa el toro,19.318750223182885,-99.13209580605329,,,,,,,,MX,2014-01-19,2021-08-13,,,,,,,,['4bf58dd8d48988d151941735'],['Dining and Drinking > Restaurant > Mexican Restaurant > Taco Restaurant'],b'\x00\x00\x00\x00\x01\xc0X\xc8tA\xf7\xbc\x02@3Q\x99\x9dX)\xc7',"{'xmin': -99.13209580605329, 'ymin': 19.318750223182885, 'xmax': -99.13209580605329, 'ymax': 19.318750223182885}",dining and drinking > restaurant > mexican restaurant > taco restaurant,1
4ff63b76e4b0b3e698962014,Los Cuñados,19.298821609154803,-99.16794911028667,,,,,,,,MX,2012-07-06,2021-08-12,,,,,,,,['4bf58dd8d48988d151941735'],['Dining and Drinking > Restaurant > Mexican Restaurant > Taco Restaurant'],b'\x00\x00\x00\x00\x01\xc0X\xca\xbf\xad\xa0\x04\xb5@3L\x7f\x92\xae\xa8q',"{'xmin': -99.16794911028667, 'ymin': 19.298821609154803, 'xmax': -99.16794911028667, 'ymax': 19.298821609154803}",dining and drinking > restaurant > mexican restaurant > taco restaurant,1
555ce074498e2843f3c35d12,Archi's Tacos Toluca,19.2602998142492,-99.5944601508938,"Col. Jiménez Gallardo. Calle Ceboruco, Esquina con Gabriel Galaviz",Metepec,Estado de México,,,,,MX,2015-05-20,2020-11-25,,722 206 1997,,,1071869939514006.0,,flpz17,['4bf58dd8d48988d151941735'],['Dining and Drinking > Restaurant > Mexican Restaurant > Taco Restaurant'],b'\x00\x00\x00\x00\x01\xc0X\xe6\x0b\xa2\x96\xb7M@3B\xa3\x025Z\xee',"{'xmin': -99.5944601508938, 'ymin': 19.2602998142492, 'xmax': -99.5944601508938, 'ymax': 19.2602998142492}",dining and drinking > restaurant > mexican restaurant > taco restaurant,1
51919d6d498e36598ea1079a,Garnachas De La Primaro De Mayo,18.46289372172875,-95.30023234100726,Primero De Mayo,Santiago Tuxtla,,95830,,,,MX,2013-05-14,2020-11-23,,,,,,,,['4bf58dd8d48988d151941735'],['Dining and Drinking > Restaurant > Mexican Restaurant > Taco Restaurant'],b'\x00\x00\x00\x00\x01\xc0W\xd37\x01\xb5t\xf9@2v\x803\xf4YE',"{'xmin': -95.30023234100726, 'ymin': 18.46289372172875, 'xmax': -95.30023234100726, 'ymax': 18.46289372172875}",dining and drinking > restaurant > mexican restaurant > taco restaurant,1
52cce88b498ec227c38e445f,tacos el canguro,19.329851150512695,-99.16291809082031,,,,,,,,MX,2014-01-08,2021-08-13,,,,,,,,['4bf58dd8d48988d151941735'],['Dining and Drinking > Restaurant > Mexican Restaurant > Taco Restaurant'],b'\x00\x00\x00\x00\x01\xc0X\xcam@\x00\x00\x00@3Tq \x00\x00\x00',"{'xmin': -99.16291809082031, 'ymin': 19.329851150512695, 'xmax': -99.16291809082031, 'ymax': 19.329851150512695}",dining and drinking > restaurant > mexican restaurant > taco restaurant,1
4f8780a5e4b0e5ed72b75927,Tacos Reyes,19.174734456249517,-96.12944278325118,2 de Abril,"Veracruz, VER",Veracruz,91910,,,,MX,2012-04-13,2020-11-25,,,,,,,,['4bf58dd8d48988d151941735'],['Dining and Drinking > Restaurant > Mexican Restaurant > Taco Restaurant'],"b'\x00\x00\x00\x00\x01\xc0X\x08H\xcab1\x17@3,\xbbe\xb7\x13v'","{'xmin': -96.12944278325118, 'ymin': 19.174734456249517, 'xmax': -96.12944278325118, 'ymax': 19.174734456249517}",dining and drinking > restaurant > mexican restaurant > taco restaurant,1
533afb00498ec197e4dda3b1,Las Enchiladas De Santa Ana,19.27885448684631,-99.61918645189543,,,,,,,,MX,2014-04-01,2020-11-30,,,,,,,,['4bf58dd8d48988d151941735'],['Dining and Drinking > Restaurant > Mexican Restaurant > Taco Restaurant'],b'\x00\x00\x00\x00\x01\xc0X\xe7\xa0\xc06A\x19@3Gc\x01\xf5Y\x07',"{'xmin': -99.61918645189543, 'ymin': 19.27885448684631, 'xmax': -99.61918645189543, 'ymax': 19.27885448684631}",dining and drinking > restaurant > mexican restaurant > taco restaurant,1
536c2b39498e676eaedb03d0,Quesadillas de Sor Juana,19.290599127912415,-99.17753541050448,,,,,,,,MX,2014-05-09,2021-08-12,,,,,,,,['4bf58dd8d48988d151941735'],['Dining and Drinking > Restaurant > Mexican Restaurant > Taco Restaurant'],b'\x00\x00\x00\x00\x01\xc0X\xcb\\\xbd{\x7f\xea@3Jd\xb4V\xa1D',"{'xmin': -99.17753541050448, 'ymin': 19.290599127912415, 'xmax': -99.17753541050448, 'ymax': 19.290599127912415}",dining and drinking > restaurant > mexican restaurant > taco restaurant,1
5959bba78a6f17723f3f29fa,Taqueria Jalisco,20.527441,-102.327763,Gonzalez Gallo,Ayotlán,JAL,,,,,MX,2017-07-03,2020-11-24,,,,,,,,['4bf58dd8d48988d151941735' '4bf58dd8d48988d1c1941735'],"['Dining and Drinking > Restaurant > Mexican Restaurant > Taco Restaurant'
 'Dining and Drinking > Restaurant > Mexican Restaurant']",b'\x00\x00\x00\x00\x01\xc0Y\x94\xfa\x11\xa9u\xb0@4\x87\x06_\x95\x91\xcd',"{'xmin': -102.327763, 'ymin': 20.527441, 'xmax': -102.327763, 'ymax': 20.527441}","dining and drinking > restaurant > mexican restaurant > taco restaurant, dining and drinking > restaurant > mexican restaurant",1
5bb92c565455b2002c92b168,El Trebol,19.269156,-99.375922,,Ocoyoacac,Edomex,,,,,MX,2018-10-06,2020-11-22,,,,,,,,['4bf58dd8d48988d151941735'],['Dining and Drinking > Restaurant > Mexican Restaurant > Taco Restaurant'],b'\x00\x00\x00\x00\x01\xc0X\xd8\x0f\x1b%\xf64@3D\xe7hY\x85\xad',"{'xmin': -99.375922, 'ymin': 19.269156, 'xmax': -99.375922, 'ymax': 19.269156}",dining and drinking > restaurant > mexican restaurant > taco restaurant,1
50a53f89e4b0c770f9cd99c6,"Ricas Carnitas ""El compa pollo""",19.208281347687446,-99.58693880509408,,,,,,,,MX,2012-11-15,2021-08-17,,,,,,,,['4bf58dd8d48988d151941735'],['Dining and Drinking > Restaurant > Mexican Restaurant > Taco Restaurant'],b'\x00\x00\x00\x00\x01\xc0X\xe5\x90g\xc7(y@35Q\xed(\xaf4',"{'xmin': -99.58693880509408, 'ymin': 19.208281347687446, 'xmax': -99.58693880509408, 'ymax': 19.208281347687446}",dining and drinking > restaurant > mexican restaurant > taco restaurant,1
564768ec498eb7f0132f80f8,Tacos Lore,19.282611846923828,-99.73500061035156,,,,,,,,MX,2015-11-14,2021-08-12,,,,,,,,['4bf58dd8d48988d151941735'],['Dining and Drinking > Restaurant > Mexican Restaurant > Taco Restaurant'],b'\x00\x00\x00\x00\x01\xc0X\xef\n@\x00\x00\x00@3HY@\x00\x00\x00',"{'xmin': -99.73500061035156, 'ymin': 19.282611846923828, 'xmax': -99.73500061035156, 'ymax': 19.282611846923828}",dining and drinking > restaurant > mexican restaurant > taco restaurant,1
