fsq_place_id,name,latitude,longitude,address,locality,region,postcode,admin_region,post_town,po_box,country,date_created,date_refreshed,date_closed,tel,website,email,facebook_id,instagram,twitter,fsq_category_ids,fsq_category_labels,placemaker_url,geom,bbox,labels_str,taco_restaurant
4f5af886e4b0d8f7b59e1b05,Tacos El Novillo,32.35469153489638,-117.01429713045721,,,,,,,,MX,2012-03-10,2023-03-12,,,,,,,,['4bf58dd8d48988d151941735'],['Dining and Drinking > Restaurant > Mexican Restaurant > Taco Restaurant'],https://foursquare.com/placemakers/review-place/4f5af886e4b0d8f7b59e1b05,b'\x00\x00\x00\x00\x01\xc0]@\xea>\x82\xefb@@-f\x88?F%',"{'xmin': -117.01429713045721, 'ymin': 32.35469153489638, 'xmax': -117.01429713045721, 'ymax': 32.35469153489638}",dining and drinking > restaurant > mexican restaurant > taco restaurant,1
50784d00e4b08ed646d78fe1,"Birria ""Los 3 Toritos""",32.4564863878336,-116.88721243840514,,,,,,,,MX,2012-10-12,2016-07-29,,,,,,,,['4bf58dd8d48988d151941735'],['Dining and Drinking > Restaurant > Mexican Restaurant > Taco Restaurant'],https://foursquare.com/placemakers/review-place/50784d00e4b08ed646d78fe1,b'\x00\x00\x00\x00\x01\xc0]8\xc8\x16\xad\xe3}@@:n%]hA',"{'xmin': -116.88721243840514, 'ymin': 32.4564863878336, 'xmax': -116.88721243840514, 'ymax': 32.4564863878336}",dining and drinking > restaurant > mexican restaurant > taco restaurant,1
a663f9f85e7f41aceb462a76,Mariscos Navolato,31.870181,-116.619813,Riveroll s/n,Ensenada,Baja California,22840,,,,MX,2013-03-07,2013-03-07,,646 178 2208,,,,,,['4bf58dd8d48988d151941735' '4bf58dd8d48988d1ce941735'],"['Dining and Drinking > Restaurant > Mexican Restaurant > Taco Restaurant'
 'Dining and Drinking > Restaurant > Seafood Restaurant']",https://foursquare.com/placemakers/review-place/a663f9f85e7f41aceb462a76,"b""\x00\x00\x00\x00\x01\xc0]'\xab\x04%(\xae@?\xde\xc4.\x98\x99\xbf""","{'xmin': -116.619813, 'ymin': 31.870181, 'xmax': -116.619813, 'ymax': 31.870181}","dining and drinking > restaurant > mexican restaurant > taco restaurant, dining and drinking > restaurant > seafood restaurant",1
57dcc325498ea39ff580fd7d,Tacos San Pablo,32.52054,-116.85332,,,Baja California,,,,,MX,2016-09-17,2016-09-17,,,,,,,,['4bf58dd8d48988d151941735'],['Dining and Drinking > Restaurant > Mexican Restaurant > Taco Restaurant'],https://foursquare.com/placemakers/review-place/57dcc325498ea39ff580fd7d,b'\x00\x00\x00\x00\x01\xc0]6\x9c\xcb}At@@B\xa1\x0e\x02!B',"{'xmin': -116.85332, 'ymin': 32.52054, 'xmax': -116.85332, 'ymax': 32.52054}",dining and drinking > restaurant > mexican restaurant > taco restaurant,1
66f99ad5247f417bd82c709b,Tacos De Birria Angie's,32.488274,-117.012535,Lomas del Río S/N,Tijuana,Baja California,22635,,,,MX,2024-09-29,2024-09-29,,,,,,,,['4bf58dd8d48988d151941735'],['Dining and Drinking > Restaurant > Mexican Restaurant > Taco Restaurant'],https://foursquare.com/placemakers/review-place/66f99ad5247f417bd82c709b,b'\x00\x00\x00\x00\x01\xc0]@\xcd_\x99\xc3\x8b@@>\x7f\xc3.\xbeY',"{'xmin': -117.012535, 'ymin': 32.488274, 'xmax': -117.012535, 'ymax': 32.488274}",dining and drinking > restaurant > mexican restaurant > taco restaurant,1
57376177498e1acc8ea5e6d7,D'Marco,32.0753,-116.625529,,,,,,,,MX,2016-05-14,2024-04-16,,,,,,,,['4bf58dd8d48988d151941735'],['Dining and Drinking > Restaurant > Mexican Restaurant > Taco Restaurant'],https://foursquare.com/placemakers/review-place/57376177498e1acc8ea5e6d7,b'\x00\x00\x00\x00\x01\xc0](\x08\xaa\xc9l\xc6@@\t\xa3n.\xb1\xc4',"{'xmin': -116.625529, 'ymin': 32.0753, 'xmax': -116.625529, 'ymax': 32.0753}",dining and drinking > restaurant > mexican restaurant > taco restaurant,1
5bc629ffd807ee00399b5d0d,Birrieria El Toro,32.52656,-117.04898,Calle 9 y San Antonio de los Buenos,Tijuana,Baja California,22000,,,,MX,2018-10-16,2024-12-31,,,,,,,,['4bf58dd8d48988d151941735'],['Dining and Drinking > Restaurant > Mexican Restaurant > Taco Restaurant'],https://foursquare.com/placemakers/review-place/5bc629ffd807ee00399b5d0d,"b'\x00\x00\x00\x00\x01\xc0]C""}\x02\x8a\x1e@@CfQm\xb0\xde'","{'xmin': -117.04898, 'ymin': 32.52656, 'xmax': -117.04898, 'ymax': 32.52656}",dining and drinking > restaurant > mexican restaurant > taco restaurant,1
4ebeb3289911a2ec5b7bed44,Carnitas El Pájaro,32.635378,-115.423126,Río Presidio,Mexicali,Baja California,,,,,MX,2011-11-12,2024-11-01,,528413026,,,,,,['4bf58dd8d48988d151941735'],['Dining and Drinking > Restaurant > Mexican Restaurant > Taco Restaurant'],https://foursquare.com/placemakers/review-place/4ebeb3289911a2ec5b7bed44,b'\x00\x00\x00\x00\x01\xc0\\\xdb\x14\x7f\x13\x05\x96@@QT\x10\xf9L\x88',"{'xmin': -115.423126, 'ymin': 32.635378, 'xmax': -115.423126, 'ymax': 32.635378}",dining and drinking > restaurant > mexican restaurant > taco restaurant,1
4ecbda917ee5319f99f2e6b1,Tacos Obregon,31.8983,-116.576836,,Ensenada,Baja California,,,,,MX,2011-11-22,2014-03-09,,,,,,,,['4bf58dd8d48988d151941735'],['Dining and Drinking > Restaurant > Mexican Restaurant > Taco Restaurant'],https://foursquare.com/placemakers/review-place/4ecbda917ee5319f99f2e6b1,b'\x00\x00\x00\x00\x01\xc0]$\xea\xe1\x8a\xc9\xf3@?\xe5\xf6\xfd!\xff.',"{'xmin': -116.576836, 'ymin': 31.8983, 'xmax': -116.576836, 'ymax': 31.8983}",dining and drinking > restaurant > mexican restaurant > taco restaurant,1
5888ad85a19e9015655fdb53,Tacos El Fito,32.658833,-115.423676,Calzada Cuauhtemoc,Mexicali,Baja California,21240,,,,MX,2017-01-25,2018-04-10,,,,,,,,['4bf58dd8d48988d151941735'],['Dining and Drinking > Restaurant > Mexican Restaurant > Taco Restaurant'],https://foursquare.com/placemakers/review-place/5888ad85a19e9015655fdb53,b'\x00\x00\x00\x00\x01\xc0\\\xdb\x1d\x81\xf1\x06h@@TT\xa3\xc6CF',"{'xmin': -115.423676, 'ymin': 32.658833, 'xmax': -115.423676, 'ymax': 32.658833}",dining and drinking > restaurant > mexican restaurant > taco restaurant,1
51b78a5b498eaa601e9facd8,Tacos El Gordo,32.590128,-115.396552,,,,,,,,MX,2013-06-11,2015-07-20,,,,,,,,['4bf58dd8d48988d151941735'],['Dining and Drinking > Restaurant > Mexican Restaurant > Taco Restaurant'],https://foursquare.com/placemakers/review-place/51b78a5b498eaa601e9facd8,b'\x00\x00\x00\x00\x01\xc0\\\xd9a\x1b\xa3\xcau@@K\x89Pv:\x19',"{'xmin': -115.396552, 'ymin': 32.590128, 'xmax': -115.396552, 'ymax': 32.590128}",dining and drinking > restaurant > mexican restaurant > taco restaurant,1
4de0703645dd3eae876f5a9e,Asadero Cuchy Trotsky,32.65801874,-115.4702718,E 651,Mexicali,Baja California,,,,,MX,2011-05-28,2024-05-30,,,,,,,,['4bf58dd8d48988d151941735'],['Dining and Drinking > Restaurant > Mexican Restaurant > Taco Restaurant'],https://foursquare.com/placemakers/review-place/4de0703645dd3eae876f5a9e,b'\x00\x00\x00\x00\x01\xc0\\\xde\x18\xee\xe4N\xca@@T9\xf5D:B',"{'xmin': -115.4702718, 'ymin': 32.65801874, 'xmax': -115.4702718, 'ymax': 32.65801874}",dining and drinking > restaurant > mexican restaurant > taco restaurant,1
4dc8ca681f6e936efe4c04f2,La Chispa,31.856255514130414,-116.60857920020983,Av. López Mateos,Ensenada,Baja California,,,,,MX,2011-05-10,2023-04-14,,,,,,,,['4bf58dd8d48988d153941735' '4bf58dd8d48988d151941735'],"['Dining and Drinking > Restaurant > Mexican Restaurant > Burrito Restaurant'
 'Dining and Drinking > Restaurant > Mexican Restaurant > Taco Restaurant']",https://foursquare.com/placemakers/review-place/4dc8ca681f6e936efe4c04f2,"b'\x00\x00\x00\x00\x01\xc0]&\xf2\xf6,{U@?\xdb3\x8f\xb65\xb5'","{'xmin': -116.60857920020983, 'ymin': 31.856255514130414, 'xmax': -116.60857920020983, 'ymax': 31.856255514130414}","dining and drinking > restaurant > mexican restaurant > burrito restaurant, dining and drinking > restaurant > mexican restaurant > taco restaurant",1
4dd3180fd22d4d4d40872a97,Tacos El Poblano,32.513119034922305,-117.11994879848666,,Tijuana,Baja California,,,,,MX,2011-05-18,2024-12-08,,,,,,,,['4bf58dd8d48988d151941735'],['Dining and Drinking > Restaurant > Mexican Restaurant > Taco Restaurant'],https://foursquare.com/placemakers/review-place/4dd3180fd22d4d4d40872a97,b'\x00\x00\x00\x00\x01\xc0]G\xad=\xb9\xacv@@A\xad\xe2p\xf9#',"{'xmin': -117.11994879848666, 'ymin': 32.513119034922305, 'xmax': -117.11994879848666, 'ymax': 32.513119034922305}",dining and drinking > restaurant > mexican restaurant > taco restaurant,1
4eee60b29a52993fb854f2a2,Tacos Brother's,32.64093357877173,-115.48419406303529,,,,,,,,MX,2011-12-18,2023-07-20,,686 558 3413,http://www.mismenus.com/brothers,,249644291732562.0,,,['4bf58dd8d48988d151941735'],['Dining and Drinking > Restaurant > Mexican Restaurant > Taco Restaurant'],https://foursquare.com/placemakers/review-place/4eee60b29a52993fb854f2a2,b'\x00\x00\x00\x00\x01\xc0\\\xde\xfd\t\x18i\xda@@R\n\x1c\x8b\xdd\xcd',"{'xmin': -115.48419406303529, 'ymin': 32.64093357877173, 'xmax': -115.48419406303529, 'ymax': 32.64093357877173}",dining and drinking > restaurant > mexican restaurant > taco restaurant,1
4e3f0474c65b4ec275f7f6d7,Tacos El Rey,32.53469255825671,-117.04286816592887,,Tijuana,Baja California,,,,,MX,2011-08-07,2024-08-19,,,,,,,,['4bf58dd8d48988d151941735'],['Dining and Drinking > Restaurant > Mexican Restaurant > Taco Restaurant'],https://foursquare.com/placemakers/review-place/4e3f0474c65b4ec275f7f6d7,b'\x00\x00\x00\x00\x01\xc0]B\xbeZ\x1e\xad\x0e@@Dp\xceE\x90F',"{'xmin': -117.04286816592887, 'ymin': 32.53469255825671, 'xmax': -117.04286816592887, 'ymax': 32.53469255825671}",dining and drinking > restaurant > mexican restaurant > taco restaurant,1
510b3a1de4b0ee65767e5093,Tacos El Bajio,32.469740100271366,-114.78755880893253,Constitución,San Luis Río Colorado,Sonora,,,,,MX,2013-02-01,2024-07-02,,,,,,,,['4bf58dd8d48988d151941735'],['Dining and Drinking > Restaurant > Mexican Restaurant > Taco Restaurant'],https://foursquare.com/placemakers/review-place/510b3a1de4b0ee65767e5093,b'\x00\x00\x00\x00\x01\xc0\\\xb2g]\x10\x02\xaf@@< q\x90$\x84',"{'xmin': -114.78755880893253, 'ymin': 32.469740100271366, 'xmax': -114.78755880893253, 'ymax': 32.469740100271366}",dining and drinking > restaurant > mexican restaurant > taco restaurant,1
5331cdb8498e32e9b3ed398e,"Carnitas ""Chava""",32.50889384663065,-116.96316305794717,J. Ojeda Robles No. 15090,Baja California,Tijuana,,,,,MX,2014-03-25,2019-11-16,,,,,,,,['4bf58dd8d48988d151941735'],['Dining and Drinking > Restaurant > Mexican Restaurant > Taco Restaurant'],https://foursquare.com/placemakers/review-place/5331cdb8498e32e9b3ed398e,b'\x00\x00\x00\x00\x01\xc0]=\xa4v\xaa\xa6M@@A#n\xfe5\x07',"{'xmin': -116.96316305794717, 'ymin': 32.50889384663065, 'xmax': -116.96316305794717, 'ymax': 32.50889384663065}",dining and drinking > restaurant > mexican restaurant > taco restaurant,1
5c493f4bd1a402002c2a2126,Tacos Valerio’s,32.491881,-116.882555,,Tijuana,BC,22206,,,,MX,2019-01-24,2019-01-24,,,,,,,,['4bf58dd8d48988d151941735'],['Dining and Drinking > Restaurant > Mexican Restaurant > Taco Restaurant'],https://foursquare.com/placemakers/review-place/5c493f4bd1a402002c2a2126,b'\x00\x00\x00\x00\x01\xc0]8{\xc7\xf7z\xf6@@>\xf5\xf4\xe4C\x0b',"{'xmin': -116.882555, 'ymin': 32.491881, 'xmax': -116.882555, 'ymax': 32.491881}",dining and drinking > restaurant > mexican restaurant > taco restaurant,1
55a8773f498efd2570c2532c,Tacuarines,20.697417,-103.388099,,,,,,,,MX,2015-07-17,2015-11-27,,,,,,,,['4bf58dd8d48988d151941735'],['Dining and Drinking > Restaurant > Mexican Restaurant > Taco Restaurant'],https://foursquare.com/placemakers/review-place/55a8773f498efd2570c2532c,"b""\x00\x00\x00\x00\x01\xc0Y\xd8\xd6\x9d0'\x0f@4\xb2\x89\xeb\xa6\xac\xa8""","{'xmin': -103.388099, 'ymin': 20.697417, 'xmax': -103.388099, 'ymax': 20.697417}",dining and drinking > restaurant > mexican restaurant > taco restaurant,1
5806361238fa69e72e158a7e,Tacos & Tortas CANAY,22.137768,-100.98587,Himno Nacional esquina con Luis Donaldo Colosio,San Luis Potosí,San Luis Potosí,,,,,MX,2016-10-18,2019-05-06,,,,,,,,['4bf58dd8d48988d151941735'],['Dining and Drinking > Restaurant > Mexican Restaurant > Taco Restaurant'],https://foursquare.com/placemakers/review-place/5806361238fa69e72e158a7e,b'\x00\x00\x00\x00\x01\xc0Y?\x18~|\x06\xe2@6#D\xc3~or',"{'xmin': -100.98587, 'ymin': 22.137768, 'xmax': -100.98587, 'ymax': 22.137768}",dining and drinking > restaurant > mexican restaurant > taco restaurant,1
66aaf4879fc9343737ffa335,Bardó,20.912997,-100.746183,Zacateros 41,San Miguel de Allende,Gto.,37700,,,,MX,2024-08-01,2024-12-21,,,,,,,,['4bf58dd8d48988d151941735' '5f2c224bb6d05514c70440a3'],"['Dining and Drinking > Restaurant > Mexican Restaurant > Taco Restaurant'
 'Dining and Drinking > Bar > Rooftop Bar']",https://foursquare.com/placemakers/review-place/66aaf4879fc9343737ffa335,b'\x00\x00\x00\x00\x01\xc0Y/\xc1vWu2@4\xe9\xba+\xe0X\x9b',"{'xmin': -100.746183, 'ymin': 20.912997, 'xmax': -100.746183, 'ymax': 20.912997}","dining and drinking > restaurant > mexican restaurant > taco restaurant, dining and drinking > bar > rooftop bar",1
5691e7ac498e0970488222f6,Tacos Doña Grasita,19.769572,-104.359994,Corrregidora,Autlán de Navarro,Jalisco,48900,,,,MX,2012-08-24,2021-09-05,,,,,,,,['4bf58dd8d48988d151941735'],['Dining and Drinking > Restaurant > Mexican Restaurant > Taco Restaurant'],https://foursquare.com/placemakers/review-place/5691e7ac498e0970488222f6,b'\x00\x00\x00\x00\x01\xc0Z\x17\n$F0f@3\xc5\x02\xab\xab\xea\xd5',"{'xmin': -104.359994, 'ymin': 19.769572, 'xmax': -104.359994, 'ymax': 19.769572}",dining and drinking > restaurant > mexican restaurant > taco restaurant,1
4efa00ce490124bf9bafcedc,Osbaldos,20.617328167968033,-103.41913353298088,Av. Las Fuentes #3072,Zapopan,Jalisco,45080,,,,MX,2011-12-27,2017-01-10,,,,,,,,['4bf58dd8d48988d151941735'],['Dining and Drinking > Restaurant > Mexican Restaurant > Taco Restaurant'],https://foursquare.com/placemakers/review-place/4efa00ce490124bf9bafcedc,b'\x00\x00\x00\x00\x01\xc0Y\xda\xd3\x15t3\xd4@4\x9e\t8\x04R\x82',"{'xmin': -103.41913353298088, 'ymin': 20.617328167968033, 'xmax': -103.41913353298088, 'ymax': 20.617328167968033}",dining and drinking > restaurant > mexican restaurant > taco restaurant,1
50ccf834e4b0e9d63a32ed66,Tacos Henry,20.659021910654634,-103.30860673475802,,,,,,,,MX,2012-12-15,2021-09-13,,,,,,,,['4bf58dd8d48988d151941735'],['Dining and Drinking > Restaurant > Mexican Restaurant > Taco Restaurant'],https://foursquare.com/placemakers/review-place/50ccf834e4b0e9d63a32ed66,b'\x00\x00\x00\x00\x01\xc0Y\xd3\xc06vG\x1b@4\xa8\xb5\xa8\xf1\x9b\xed',"{'xmin': -103.30860673475802, 'ymin': 20.659021910654634, 'xmax': -103.30860673475802, 'ymax': 20.659021910654634}",dining and drinking > restaurant > mexican restaurant > taco restaurant,1
505a6f59e4b066ff885d4293,tacos shanok,21.87306022644043,-102.30256652832031,,,,,,,,MX,2012-09-20,2015-06-04,,,,,,,,['4bf58dd8d48988d151941735'],['Dining and Drinking > Restaurant > Mexican Restaurant > Taco Restaurant'],https://foursquare.com/placemakers/review-place/505a6f59e4b066ff885d4293,b'\x00\x00\x00\x00\x01\xc0Y\x93]@\x00\x00\x00@5\xdf\x80\xe0\x00\x00\x00',"{'xmin': -102.30256652832031, 'ymin': 21.87306022644043, 'xmax': -102.30256652832031, 'ymax': 21.87306022644043}",dining and drinking > restaurant > mexican restaurant > taco restaurant,1
4f9a11b2e4b05987dc24e53e,Tacos El Negrito,20.646167859661066,-103.28997417609236,Miguel Mondragon,Guadalajara,Jalisco,44860,,,,MX,2012-04-27,2023-01-09,,,,,,,,['4bf58dd8d48988d151941735'],['Dining and Drinking > Restaurant > Mexican Restaurant > Taco Restaurant'],https://foursquare.com/placemakers/review-place/4f9a11b2e4b05987dc24e53e,b'\x00\x00\x00\x00\x01\xc0Y\xd2\x8e\xef\xd8\xc0\x14@4\xa5kA\xc0\xf8y',"{'xmin': -103.28997417609236, 'ymin': 20.646167859661066, 'xmax': -103.28997417609236, 'ymax': 20.646167859661066}",dining and drinking > restaurant > mexican restaurant > taco restaurant,1
4f8300f1e4b08807813844ae,Pepe,20.64158911098421,-103.3552683610771,,Guadalajara,Jalisco,,,,,MX,2012-04-09,2019-04-29,,,,,,,,['4bf58dd8d48988d151941735'],['Dining and Drinking > Restaurant > Mexican Restaurant > Taco Restaurant'],https://foursquare.com/placemakers/review-place/4f8300f1e4b08807813844ae,b'\x00\x00\x00\x00\x01\xc0Y\xd6\xbc\xb7\x82\x08L@4\xa4?/\x19%\x9b',"{'xmin': -103.3552683610771, 'ymin': 20.64158911098421, 'xmax': -103.3552683610771, 'ymax': 20.64158911098421}",dining and drinking > restaurant > mexican restaurant > taco restaurant,1
54394069498ea4de494cb566,Tacos del Norte,21.907052,-102.292173,,,,,,,,MX,2014-10-11,2015-03-23,,449 111 6888,,,,,,['4bf58dd8d48988d151941735'],['Dining and Drinking > Restaurant > Mexican Restaurant > Taco Restaurant'],https://foursquare.com/placemakers/review-place/54394069498ea4de494cb566,b'\x00\x00\x00\x00\x01\xc0Y\x92\xb2\xf6a\xf1\x8d@5\xe84\x8fS\xc5z',"{'xmin': -102.292173, 'ymin': 21.907052, 'xmax': -102.292173, 'ymax': 21.907052}",dining and drinking > restaurant > mexican restaurant > taco restaurant,1
51215b71e4b03cb4cc13b24b,Roka Takos,21.00107136854641,-101.23948630733335,Presa de la Olla,,,,,,,MX,2013-02-17,2015-05-30,,,,,,,,['4bf58dd8d48988d151941735'],['Dining and Drinking > Restaurant > Mexican Restaurant > Taco Restaurant'],https://foursquare.com/placemakers/review-place/51215b71e4b03cb4cc13b24b,b'\x00\x00\x00\x00\x01\xc0YOS\xbe`u\x8a@5\x00F6\x94\xdei',"{'xmin': -101.23948630733335, 'ymin': 21.00107136854641, 'xmax': -101.23948630733335, 'ymax': 21.00107136854641}",dining and drinking > restaurant > mexican restaurant > taco restaurant,1
56dde8ec498eb4e5ee46473b,Ahogadas y tacos Venny,20.69225288371673,-103.37630310222774,,,,,,,,MX,2016-03-07,2018-08-01,,,,,,,,['4bf58dd8d48988d151941735'],['Dining and Drinking > Restaurant > Mexican Restaurant > Taco Restaurant'],https://foursquare.com/placemakers/review-place/56dde8ec498eb4e5ee46473b,b'\x00\x00\x00\x00\x01\xc0Y\xd8\x15Y\x9b\\\xe5@4\xb17|( \x03',"{'xmin': -103.37630310222774, 'ymin': 20.69225288371673, 'xmax': -103.37630310222774, 'ymax': 20.69225288371673}",dining and drinking > restaurant > mexican restaurant > taco restaurant,1
5ad17beef1936e0e1f29ef2d,Taquerias “Michoacan”,20.676505,-103.316654,1385 Calle Industria,Guadalajara,JAL,44380,,,,MX,2018-04-14,2019-03-03,,,,,,,,['4bf58dd8d48988d151941735'],['Dining and Drinking > Restaurant > Mexican Restaurant > Taco Restaurant'],https://foursquare.com/placemakers/review-place/5ad17beef1936e0e1f29ef2d,b'\x00\x00\x00\x00\x01\xc0Y\xd4D\x0f#\x89r@4\xad/n\x82\x94\x9a',"{'xmin': -103.316654, 'ymin': 20.676505, 'xmax': -103.316654, 'ymax': 20.676505}",dining and drinking > restaurant > mexican restaurant > taco restaurant,1
4f64d4c1e4b0fb96f6252f73,Tacos Tuxpeños Don Rafa,19.255246,-103.694315,Blvd. Camino Real,Colima,Colima,28010,,,,MX,2012-03-17,2019-07-19,,312 314 2324,,,,,,['4bf58dd8d48988d151941735'],['Dining and Drinking > Restaurant > Mexican Restaurant > Taco Restaurant'],https://foursquare.com/placemakers/review-place/4f64d4c1e4b0fb96f6252f73,b'\x00\x00\x00\x00\x01\xc0Y\xeco\xa8.\x87\xd3@3AW\xcdFoP',"{'xmin': -103.694315, 'ymin': 19.255246, 'xmax': -103.694315, 'ymax': 19.255246}",dining and drinking > restaurant > mexican restaurant > taco restaurant,1
4f41307be4b0f6acbbff0f50,Birrieria Villaseñor,20.65282014259713,-105.22041236022173,,,,,,,,MX,2012-02-19,2023-09-03,,322 140 4242,,,,,,['4bf58dd8d48988d151941735' '4bf58dd8d48988d1c1941735'],"['Dining and Drinking > Restaurant > Mexican Restaurant > Taco Restaurant'
 'Dining and Drinking > Restaurant > Mexican Restaurant']",https://foursquare.com/placemakers/review-place/4f41307be4b0f6acbbff0f50,b'\x00\x00\x00\x00\x01\xc0ZN\x1b<q\xb2V@4\xa7\x1f8\x8a\x9f\xee',"{'xmin': -105.22041236022173, 'ymin': 20.65282014259713, 'xmax': -105.22041236022173, 'ymax': 20.65282014259713}","dining and drinking > restaurant > mexican restaurant > taco restaurant, dining and drinking > restaurant > mexican restaurant",1
52dde49c498e3237bcaf46b9,Tacos Don Manuel,20.70859,-103.327697,Sierra Leona,Guadalajara,Jalisco,,,,,MX,2014-01-21,2021-11-27,,,,,,,,['4bf58dd8d48988d151941735'],['Dining and Drinking > Restaurant > Mexican Restaurant > Taco Restaurant'],https://foursquare.com/placemakers/review-place/52dde49c498e3237bcaf46b9,"b""\x00\x00\x00\x00\x01\xc0Y\xd4\xf8\xfc\xd6\x7f\xd4@4\xb5f'|E\xcc""","{'xmin': -103.327697, 'ymin': 20.70859, 'xmax': -103.327697, 'ymax': 20.70859}",dining and drinking > restaurant > mexican restaurant > taco restaurant,1
53e8f637498ed94542953998,tacos tio frank,21.52187156677246,-104.9002456665039,,Tepic,NAY,63083,,,,MX,2014-08-11,2017-07-28,,311 260 0429,,,,,,['4bf58dd8d48988d151941735'],['Dining and Drinking > Restaurant > Mexican Restaurant > Taco Restaurant'],https://foursquare.com/placemakers/review-place/53e8f637498ed94542953998,b'\x00\x00\x00\x00\x01\xc0Z9\x9d\xa0\x00\x00\x00@5\x85\x99`\x00\x00\x00',"{'xmin': -104.9002456665039, 'ymin': 21.52187156677246, 'xmax': -104.9002456665039, 'ymax': 21.52187156677246}",dining and drinking > restaurant > mexican restaurant > taco restaurant,1
62b879ef78ec150dd90a9db5,Tacos de la Torre,20.674778,-103.322045,,Guadalajara,JAL,44360,,,,MX,2022-06-26,2022-06-26,,,,,,,,['4bf58dd8d48988d151941735'],['Dining and Drinking > Restaurant > Mexican Restaurant > Taco Restaurant'],https://foursquare.com/placemakers/review-place/62b879ef78ec150dd90a9db5,b'\x00\x00\x00\x00\x01\xc0Y\xd4\x9cb\xa1\xb5\xc8@4\xac\xbe@B\x0fo',"{'xmin': -103.322045, 'ymin': 20.674778, 'xmax': -103.322045, 'ymax': 20.674778}",dining and drinking > restaurant > mexican restaurant > taco restaurant,1
52025add498ec658c08d4a5f,Tacos Al Vapor Unicenter,20.712099,-103.409557,,,,,,,,MX,2013-08-07,2016-01-17,,,,,,,,['4bf58dd8d48988d151941735'],['Dining and Drinking > Restaurant > Mexican Restaurant > Taco Restaurant'],https://foursquare.com/placemakers/review-place/52025add498ec658c08d4a5f,b'\x00\x00\x00\x00\x01\xc0Y\xda6.\x906D@4\xb6L\x1e\xbc\x83\xa9',"{'xmin': -103.409557, 'ymin': 20.712099, 'xmax': -103.409557, 'ymax': 20.712099}",dining and drinking > restaurant > mexican restaurant > taco restaurant,1
4c9ab4cfeaa5a14371efcee4,Taqueria Don Luis,20.674408476040156,-103.43021163024305,Sebastian bach,Zapopan,JAL,,,,,MX,2010-09-23,2017-01-21,,,,,,,,['4bf58dd8d48988d151941735'],['Dining and Drinking > Restaurant > Mexican Restaurant > Taco Restaurant'],https://foursquare.com/placemakers/review-place/4c9ab4cfeaa5a14371efcee4,b'\x00\x00\x00\x00\x01\xc0Y\xdb\x88\x96\\\x90-@4\xac\xa6\x08\xac\xbc\xd8',"{'xmin': -103.43021163024305, 'ymin': 20.674408476040156, 'xmax': -103.43021163024305, 'ymax': 20.674408476040156}",dining and drinking > restaurant > mexican restaurant > taco restaurant,1
54a06f30498e4c9f530b5273,Tortas Chicapan,20.630740132911548,-103.28314269641795,Niños Héroes,Tonalá,Jalisco,,,,,MX,2014-12-28,2014-12-28,,,,,,,,['4bf58dd8d48988d151941735'],['Dining and Drinking > Restaurant > Mexican Restaurant > Taco Restaurant'],https://foursquare.com/placemakers/review-place/54a06f30498e4c9f530b5273,b'\x00\x00\x00\x00\x01\xc0Y\xd2\x1f\x02\x8bM\xd9@4\xa1x/s!:',"{'xmin': -103.28314269641795, 'ymin': 20.630740132911548, 'xmax': -103.28314269641795, 'ymax': 20.630740132911548}",dining and drinking > restaurant > mexican restaurant > taco restaurant,1
5f3a933894fb312cfa5ca064,Birria La 30,20.652314,-103.289787,,Guadalajara,JAL,44810,,,,MX,2020-08-17,2024-08-18,,,,,,,,['4bf58dd8d48988d151941735' '56aa371be4b08b9a8d573550'],"['Dining and Drinking > Restaurant > Mexican Restaurant > Taco Restaurant'
 'Business and Professional Services > Food and Beverage Service']",https://foursquare.com/placemakers/review-place/5f3a933894fb312cfa5ca064,b'\x00\x00\x00\x00\x01\xc0Y\xd2\x8b\xde\xc5\xf3\x95@4\xa6\xfe\x0c\xe0\xb9\x13',"{'xmin': -103.289787, 'ymin': 20.652314, 'xmax': -103.289787, 'ymax': 20.652314}","dining and drinking > restaurant > mexican restaurant > taco restaurant, business and professional services > food and beverage service",1
4f25744ae4b04f6e6a3532a7,Birriería El Güero Ixtapa,20.70721476150288,-105.22131201086385,,,,,,,,MX,2012-01-29,2018-09-11,,,,,,,,['4bf58dd8d48988d151941735'],['Dining and Drinking > Restaurant > Mexican Restaurant > Taco Restaurant'],https://foursquare.com/placemakers/review-place/4f25744ae4b04f6e6a3532a7,b'\x00\x00\x00\x00\x01\xc0ZN)\xf9\xda7\xd3@4\xb5\x0c\x06\xcf\xe7?',"{'xmin': -105.22131201086385, 'ymin': 20.70721476150288, 'xmax': -105.22131201086385, 'ymax': 20.70721476150288}",dining and drinking > restaurant > mexican restaurant > taco restaurant,1
59cb213059fe5c749897f921,Tacos al carbon Don Toy,20.699717,-103.342104,595 Avenida de los Científicos,Guadalajara,JAL,44260,,,,MX,2017-09-27,2024-05-31,,,,,,,,['4bf58dd8d48988d151941735'],['Dining and Drinking > Restaurant > Mexican Restaurant > Taco Restaurant'],https://foursquare.com/placemakers/review-place/59cb213059fe5c749897f921,"b'\x00\x00\x00\x00\x01\xc0Y\xd5\xe5\x08,\xf5,@4\xb3 \xa7?t\x8a'","{'xmin': -103.342104, 'ymin': 20.699717, 'xmax': -103.342104, 'ymax': 20.699717}",dining and drinking > restaurant > mexican restaurant > taco restaurant,1
5a5e6efcd4cc9821e1ff8909,El Carabinero,20.695116,-103.383487,Av. Ruben Dario,Guadalajara,JAL,44630,,,,MX,2018-01-16,2018-04-25,,,,,,,,['4bf58dd8d48988d151941735' '4bf58dd8d48988d1ce941735'],"['Dining and Drinking > Restaurant > Mexican Restaurant > Taco Restaurant'
 'Dining and Drinking > Restaurant > Seafood Restaurant']",https://foursquare.com/placemakers/review-place/5a5e6efcd4cc9821e1ff8909,b'\x00\x00\x00\x00\x01\xc0Y\xd8\x8b\r\x0e\xdc<@4\xb1\xf3\x1fF\xed$',"{'xmin': -103.383487, 'ymin': 20.695116, 'xmax': -103.383487, 'ymax': 20.695116}","dining and drinking > restaurant > mexican restaurant > taco restaurant, dining and drinking > restaurant > seafood restaurant",1
c6ce56c38ece44fb6905a72b,Taqueria,21.065745,-101.620171,Boulevard Torres Landa 404,,Guanajuato,37560,,,,MX,2010-11-04,2010-11-04,,,,,,,,['4bf58dd8d48988d151941735'],['Dining and Drinking > Restaurant > Mexican Restaurant > Taco Restaurant'],https://foursquare.com/placemakers/review-place/c6ce56c38ece44fb6905a72b,"b'\x00\x00\x00\x00\x01\xc0Yg\xb0\xe1\xb4\xbb^@5\x10\xd4\xaa\x10\xe0""'","{'xmin': -101.620171, 'ymin': 21.065745, 'xmax': -101.620171, 'ymax': 21.065745}",dining and drinking > restaurant > mexican restaurant > taco restaurant,1
65a30f1681d5c82f2c5d9227,El Texano,20.883155,-100.713524,Camino A Alcocer,San Miguel de Allende,Gto.,37886,,,,MX,2024-01-13,2024-10-19,,,,,,,,"['4bf58dd8d48988d1ce941735' '4bf58dd8d48988d1c1941735'
 '4bf58dd8d48988d151941735']","['Dining and Drinking > Restaurant > Seafood Restaurant'
 'Dining and Drinking > Restaurant > Mexican Restaurant'
 'Dining and Drinking > Restaurant > Mexican Restaurant > Taco Restaurant']",https://foursquare.com/placemakers/review-place/65a30f1681d5c82f2c5d9227,b'\x00\x00\x00\x00\x01\xc0Y-\xaa`\x91:P@4\xe2\x16r2L\x83',"{'xmin': -100.713524, 'ymin': 20.883155, 'xmax': -100.713524, 'ymax': 20.883155}","dining and drinking > restaurant > seafood restaurant, dining and drinking > restaurant > mexican restaurant, dining and drinking > restaurant > mexican restaurant > taco restaurant",1
4d7fb1dd2ff9b60cf600c347,Tortas & Tacos Ruly,20.625378877604444,-105.22760435244071,Avenida Las Americas,Puerto Vallarta,JAL,,,,,MX,2011-03-15,2024-11-21,,,,,,,,"['4bf58dd8d48988d151941735' '4bf58dd8d48988d1c5941735'
 '4bf58dd8d48988d1c1941735']","['Dining and Drinking > Restaurant > Mexican Restaurant > Taco Restaurant'
 'Dining and Drinking > Restaurant > Sandwich Spot'
 'Dining and Drinking > Restaurant > Mexican Restaurant']",https://foursquare.com/placemakers/review-place/4d7fb1dd2ff9b60cf600c347,b'\x00\x00\x00\x00\x01\xc0ZN\x91\x11\xd8\x8a?@4\xa0\x18\xd4\x82\xeb\x97',"{'xmin': -105.22760435244071, 'ymin': 20.625378877604444, 'xmax': -105.22760435244071, 'ymax': 20.625378877604444}","dining and drinking > restaurant > mexican restaurant > taco restaurant, dining and drinking > restaurant > sandwich spot, dining and drinking > restaurant > mexican restaurant",1
51fee099498e240fa63bd5c6,taqueria las vias del sabor,21.95331573486328,-102.28731536865234,,,,,,,,MX,2013-08-04,2019-08-29,,,,,,,,['4bf58dd8d48988d151941735'],['Dining and Drinking > Restaurant > Mexican Restaurant > Taco Restaurant'],https://foursquare.com/placemakers/review-place/51fee099498e240fa63bd5c6,b'\x00\x00\x00\x00\x01\xc0Y\x92c`\x00\x00\x00@5\xf4\x0c\x80\x00\x00\x00',"{'xmin': -102.28731536865234, 'ymin': 21.95331573486328, 'xmax': -102.28731536865234, 'ymax': 21.95331573486328}",dining and drinking > restaurant > mexican restaurant > taco restaurant,1
52be482f498eada02be1ce54,tacosport el chino,22.195904,-101.00408,,,,,,,,MX,2013-12-28,2015-09-04,,,,,,,,['4bf58dd8d48988d151941735'],['Dining and Drinking > Restaurant > Mexican Restaurant > Taco Restaurant'],https://foursquare.com/placemakers/review-place/52be482f498eada02be1ce54,"b""\x00\x00\x00\x00\x01\xc0Y@B\xd8\xc2\xa4U@62&\xc3\xb9'\xd4""","{'xmin': -101.00408, 'ymin': 22.195904, 'xmax': -101.00408, 'ymax': 22.195904}",dining and drinking > restaurant > mexican restaurant > taco restaurant,1
59795b36f427de3df21e19fa,"Tacos Al Carbon ""El Gordo""",20.777648,-103.455452,,Zapopan,JAL,45134,,,,MX,2017-07-27,2023-04-27,,,,,,,,['4bf58dd8d48988d151941735'],['Dining and Drinking > Restaurant > Mexican Restaurant > Taco Restaurant'],https://foursquare.com/placemakers/review-place/59795b36f427de3df21e19fa,b'\x00\x00\x00\x00\x01\xc0Y\xdd& %9u@4\xc7\x13\xf0w\xcc\xc0',"{'xmin': -103.455452, 'ymin': 20.777648, 'xmax': -103.455452, 'ymax': 20.777648}",dining and drinking > restaurant > mexican restaurant > taco restaurant,1
4bef08012ff520a1df03e8a2,Tacos Don Julio,19.101930287169868,-104.32658538682756,Blvd. Miguel de la Madrid,Manzanillo,COL,,,,,MX,2010-05-15,2024-09-07,,314 334 7265,http://www.tacosdonjulio.com,,,,,['4bf58dd8d48988d151941735' '4bf58dd8d48988d1c1941735'],"['Dining and Drinking > Restaurant > Mexican Restaurant > Taco Restaurant'
 'Dining and Drinking > Restaurant > Mexican Restaurant']",https://foursquare.com/placemakers/review-place/4bef08012ff520a1df03e8a2,b'\x00\x00\x00\x00\x01\xc0Z\x14\xe6\xc6d\xf1\xa8@3\x1a\x18\x1aq\xdd\xd1',"{'xmin': -104.32658538682756, 'ymin': 19.101930287169868, 'xmax': -104.32658538682756, 'ymax': 19.101930287169868}","dining and drinking > restaurant > mexican restaurant > taco restaurant, dining and drinking > restaurant > mexican restaurant",1
63b36585047655037c7c09ad,Tá Carbón Iteso,20.603895,-103.411608,Av. Independencia 3322 Local 12,Tlaquepaque,JAL,45609,,,,MX,2023-01-02,2025-01-05,,,,,,,,['4bf58dd8d48988d151941735'],['Dining and Drinking > Restaurant > Mexican Restaurant > Taco Restaurant'],https://foursquare.com/placemakers/review-place/63b36585047655037c7c09ad,b'\x00\x00\x00\x00\x01\xc0Y\xdaW\xc9\x14\xb1h@4\x9a\x98\xdc\xdb7\xca',"{'xmin': -103.411608, 'ymin': 20.603895, 'xmax': -103.411608, 'ymax': 20.603895}",dining and drinking > restaurant > mexican restaurant > taco restaurant,1
5e5df1d523d418000893eb34,Tacos La Perla,20.752457,-103.405796,,Zapopan,JAL,45130,,,,MX,2020-03-03,2023-12-28,,,,,,,,['4bf58dd8d48988d151941735'],['Dining and Drinking > Restaurant > Mexican Restaurant > Taco Restaurant'],https://foursquare.com/placemakers/review-place/5e5df1d523d418000893eb34,b'\x00\x00\x00\x00\x01\xc0Y\xd9\xf8\x8f\xc96?@4\xc0\xa1\x05\x9e\xa5r',"{'xmin': -103.405796, 'ymin': 20.752457, 'xmax': -103.405796, 'ymax': 20.752457}",dining and drinking > restaurant > mexican restaurant > taco restaurant,1
5057d62ce4b05aa0401079f3,tacos el deudas,20.91045246295774,-100.74636965590425,,,,,,,,MX,2012-09-18,2024-09-01,,,,,,,,['4bf58dd8d48988d151941735'],['Dining and Drinking > Restaurant > Mexican Restaurant > Taco Restaurant'],https://foursquare.com/placemakers/review-place/5057d62ce4b05aa0401079f3,b'\x00\x00\x00\x00\x01\xc0Y/\xc4\x85;\xb5y@4\xe9\x13i\xa0\xf7U',"{'xmin': -100.74636965590425, 'ymin': 20.91045246295774, 'xmax': -100.74636965590425, 'ymax': 20.91045246295774}",dining and drinking > restaurant > mexican restaurant > taco restaurant,1
53e9ba41498e3da8aca9986c,Tacos Pa La Banda,21.013162,-101.251211,Campanero 19,"Guanajuato, GTO",guanajuato,36000,,,,MX,2014-08-12,2015-05-09,2015-05-09,473 652 2205,,,,,,['4bf58dd8d48988d151941735'],['Dining and Drinking > Restaurant > Mexican Restaurant > Taco Restaurant'],https://foursquare.com/placemakers/review-place/53e9ba41498e3da8aca9986c,b'\x00\x00\x00\x00\x01\xc0YP\x13\xd7MYO@5\x03^\x95\xb7\x8c\xca',"{'xmin': -101.251211, 'ymin': 21.013162, 'xmax': -101.251211, 'ymax': 21.013162}",dining and drinking > restaurant > mexican restaurant > taco restaurant,1
54a499f1498eca7232324c12,tacos de barbacoa don lupe,20.660884857177734,-103.28665161132812,,,,,,,,MX,2015-01-01,2015-01-01,,,,,,,,['4bf58dd8d48988d151941735'],['Dining and Drinking > Restaurant > Mexican Restaurant > Taco Restaurant'],https://foursquare.com/placemakers/review-place/54a499f1498eca7232324c12,b'\x00\x00\x00\x00\x01\xc0Y\xd2X\x80\x00\x00\x00@4\xa9/\xc0\x00\x00\x00',"{'xmin': -103.28665161132812, 'ymin': 20.660884857177734, 'xmax': -103.28665161132812, 'ymax': 20.660884857177734}",dining and drinking > restaurant > mexican restaurant > taco restaurant,1
5181516d498e2b4ffb85c151,las palmitas taco shop & beer,20.764358520507812,-103.44462585449219,,,,,,,,MX,2013-05-01,2017-10-30,,,,,,,,['4bf58dd8d48988d151941735'],['Dining and Drinking > Restaurant > Mexican Restaurant > Taco Restaurant'],https://foursquare.com/placemakers/review-place/5181516d498e2b4ffb85c151,b'\x00\x00\x00\x00\x01\xc0Y\xdct\xc0\x00\x00\x00@4\xc3\xad\x00\x00\x00\x00',"{'xmin': -103.44462585449219, 'ymin': 20.764358520507812, 'xmax': -103.44462585449219, 'ymax': 20.764358520507812}",dining and drinking > restaurant > mexican restaurant > taco restaurant,1
52c0c3cb11d281b14536a25c,Tacos Fuentes,20.621979057472693,-103.2533875781626,Paseo Loma Sur,,,,,,,MX,2013-12-30,2018-03-04,,,,,,,,['4bf58dd8d48988d151941735'],['Dining and Drinking > Restaurant > Mexican Restaurant > Taco Restaurant'],https://foursquare.com/placemakers/review-place/52c0c3cb11d281b14536a25c,b'\x00\x00\x00\x00\x01\xc0Y\xd07\x80\x88Z\xf2@4\x9f:\x04\xfe\xa4b',"{'xmin': -103.2533875781626, 'ymin': 20.621979057472693, 'xmax': -103.2533875781626, 'ymax': 20.621979057472693}",dining and drinking > restaurant > mexican restaurant > taco restaurant,1
62d23a5ddd9ca566d78e73b2,El Pastor Suizo,21.869625,-102.26994,Av. Arqueros,Aguascalientes,Aguascalientes,20250,,,,MX,2022-07-16,2024-08-17,,,,,,,,['4bf58dd8d48988d151941735'],['Dining and Drinking > Restaurant > Mexican Restaurant > Taco Restaurant'],https://foursquare.com/placemakers/review-place/62d23a5ddd9ca566d78e73b2,b'\x00\x00\x00\x00\x01\xc0Y\x91F\xb2k\xf8w@5\xde\x9f\xbev\xc8\xb4',"{'xmin': -102.26994, 'ymin': 21.869625, 'xmax': -102.26994, 'ymax': 21.869625}",dining and drinking > restaurant > mexican restaurant > taco restaurant,1
4d4d97bca7f86ea8415c38de,Tortas El Negro,20.720072413913044,-103.32748685387782,,Guadalajara,,,,,,MX,2011-02-05,2023-01-17,,,,,,,,['4bf58dd8d48988d151941735' '503288ae91d4c4b30a586d67'],"['Dining and Drinking > Restaurant > Mexican Restaurant > Taco Restaurant'
 'Dining and Drinking > Restaurant > Afghan Restaurant']",https://foursquare.com/placemakers/review-place/4d4d97bca7f86ea8415c38de,b'\x00\x00\x00\x00\x01\xc0Y\xd4\xf5\x8bk\xd1\x9c@4\xb8V\xaal\x82 ',"{'xmin': -103.32748685387782, 'ymin': 20.720072413913044, 'xmax': -103.32748685387782, 'ymax': 20.720072413913044}","dining and drinking > restaurant > mexican restaurant > taco restaurant, dining and drinking > restaurant > afghan restaurant",1
501d378ee4b04dbcf0d24760,Super Tacos El Birrias cd. del valle,21.488937925924095,-104.8855519579311,,,,,,,,MX,2012-08-04,2023-05-07,,,,,,,,['4bf58dd8d48988d151941735'],['Dining and Drinking > Restaurant > Mexican Restaurant > Taco Restaurant'],https://foursquare.com/placemakers/review-place/501d378ee4b04dbcf0d24760,b'\x00\x00\x00\x00\x01\xc0Z8\xac\xe2\x1e\x8eC@5}+\t1\x9e9',"{'xmin': -104.8855519579311, 'ymin': 21.488937925924095, 'xmax': -104.8855519579311, 'ymax': 21.488937925924095}",dining and drinking > restaurant > mexican restaurant > taco restaurant,1
624a1f1136d847081d4c8c74,Taqueria Hernandez,20.65928,-105.211885,8 de Mayo 1095,Puerto Vallarta,Jalisco,48290,,,,MX,2013-03-30,2013-03-30,,322 224 8752,,,,,,['4bf58dd8d48988d151941735'],['Dining and Drinking > Restaurant > Mexican Restaurant > Taco Restaurant'],https://foursquare.com/placemakers/review-place/624a1f1136d847081d4c8c74,b'\x00\x00\x00\x00\x01\xc0ZM\x8f\x86\x1a`\xd4@4\xa8\xc6\x92\xf6\xe8)',"{'xmin': -105.211885, 'ymin': 20.65928, 'xmax': -105.211885, 'ymax': 20.65928}",dining and drinking > restaurant > mexican restaurant > taco restaurant,1
52311d45498e61916507591f,Tacos El Paisa,20.737937059575383,-105.27003949012487,,,,,,,,MX,2013-09-12,2018-12-30,,,,,,,,['4bf58dd8d48988d151941735'],['Dining and Drinking > Restaurant > Mexican Restaurant > Taco Restaurant'],https://foursquare.com/placemakers/review-place/52311d45498e61916507591f,b'\x00\x00\x00\x00\x01\xc0ZQHS\xb6\xad\xc0@4\xbc\xe9qqa\xf7',"{'xmin': -105.27003949012487, 'ymin': 20.737937059575383, 'xmax': -105.27003949012487, 'ymax': 20.737937059575383}",dining and drinking > restaurant > mexican restaurant > taco restaurant,1
503986dce4b01850c9b212d3,Santos Tacos,20.9101719165535,-100.72065467071633,,,,,,,,MX,2012-08-26,2017-11-27,,,,,,,,['4bf58dd8d48988d151941735'],['Dining and Drinking > Restaurant > Mexican Restaurant > Taco Restaurant'],https://foursquare.com/placemakers/review-place/503986dce4b01850c9b212d3,b'\x00\x00\x00\x00\x01\xc0Y.\x1f4\xc4\x9b\xec@4\xe9\x01\x06\xd7U\xbe',"{'xmin': -100.72065467071633, 'ymin': 20.9101719165535, 'xmax': -100.72065467071633, 'ymax': 20.9101719165535}",dining and drinking > restaurant > mexican restaurant > taco restaurant,1
557e3895498ef4813d2d8349,Cenaduria Lidia,30.844041,-116.061614,,,,,,,,MX,2015-06-15,2023-01-23,,,,,,,,['4bf58dd8d48988d151941735'],['Dining and Drinking > Restaurant > Mexican Restaurant > Taco Restaurant'],https://foursquare.com/placemakers/review-place/557e3895498ef4813d2d8349,b'\x00\x00\x00\x00\x01\xc0]\x03\xf1{\xd8\xbes@>\xd8\x13\x12+{\xaf',"{'xmin': -116.061614, 'ymin': 30.844041, 'xmax': -116.061614, 'ymax': 30.844041}",dining and drinking > restaurant > mexican restaurant > taco restaurant,1
557f2fc9498e37ac9f30d3eb,Taqueria Eva Briseño,20.687571,-103.391271,,,,,,,,MX,2015-06-15,2015-11-30,,,,,,,,['4bf58dd8d48988d151941735'],['Dining and Drinking > Restaurant > Mexican Restaurant > Taco Restaurant'],https://foursquare.com/placemakers/review-place/557f2fc9498e37ac9f30d3eb,b'\x00\x00\x00\x00\x01\xc0Y\xd9\n\x95\x857\xe3@4\xb0\x04\xa7.\xad\x92',"{'xmin': -103.391271, 'ymin': 20.687571, 'xmax': -103.391271, 'ymax': 20.687571}",dining and drinking > restaurant > mexican restaurant > taco restaurant,1
557f8b6b498e109d1455eae1,Super Tacos Jr,21.5067700799042,-104.91952155593758,,,,,,,,MX,2015-06-16,2019-05-05,,,,,,,,['4bf58dd8d48988d151941735'],['Dining and Drinking > Restaurant > Mexican Restaurant > Taco Restaurant'],https://foursquare.com/placemakers/review-place/557f8b6b498e109d1455eae1,b'\x00\x00\x00\x00\x01\xc0Z:\xd9p\xf0\xae\x03@5\x81\xbb\xaf\x17\xc7\xa4',"{'xmin': -104.91952155593758, 'ymin': 21.5067700799042, 'xmax': -104.91952155593758, 'ymax': 21.5067700799042}",dining and drinking > restaurant > mexican restaurant > taco restaurant,1
59374a142496235d1d8bc10a,Taquería Escamilla,20.914673,-100.760345,,,,,,,,MX,2017-06-07,2017-06-07,,,,,,,,['4bf58dd8d48988d151941735'],['Dining and Drinking > Restaurant > Mexican Restaurant > Taco Restaurant'],https://foursquare.com/placemakers/review-place/59374a142496235d1d8bc10a,b'\x00\x00\x00\x00\x01\xc0Y0\xa9~\x13+V@4\xea(\x02}\x88\xc2',"{'xmin': -100.760345, 'ymin': 20.914673, 'xmax': -100.760345, 'ymax': 20.914673}",dining and drinking > restaurant > mexican restaurant > taco restaurant,1
56e25bbccd102122aa5b8751,Tacos D' Aurora,21.520005013579862,-104.90324920054923,Tepic,,,,,,,MX,2016-03-11,2018-04-28,,,,,,,,['4bf58dd8d48988d151941735'],['Dining and Drinking > Restaurant > Mexican Restaurant > Taco Restaurant'],https://foursquare.com/placemakers/review-place/56e25bbccd102122aa5b8751,b'\x00\x00\x00\x00\x01\xc0Z9\xce\xd5\xbc\x1f\xd0@5\x85\x1f\x0co\x14\xe0',"{'xmin': -104.90324920054923, 'ymin': 21.520005013579862, 'xmax': -104.90324920054923, 'ymax': 21.520005013579862}",dining and drinking > restaurant > mexican restaurant > taco restaurant,1
5d950551d149dd00079fecbd,Tortas Ahogadas Moy,20.67312,-103.345596,,Guadalajara,JAL,44100,,,,MX,2019-10-02,2022-06-20,,,,,,,,['4bf58dd8d48988d151941735'],['Dining and Drinking > Restaurant > Mexican Restaurant > Taco Restaurant'],https://foursquare.com/placemakers/review-place/5d950551d149dd00079fecbd,b'\x00\x00\x00\x00\x01\xc0Y\xd6\x1e>\xafh8@4\xacQ\x97\xa2H\x95',"{'xmin': -103.345596, 'ymin': 20.67312, 'xmax': -103.345596, 'ymax': 20.67312}",dining and drinking > restaurant > mexican restaurant > taco restaurant,1
4d6d087768406ea84e877083,Tacos del Multifamiliar,22.1435123019712,-101.00063087903071,Educación 385,San Luis Potosí,San Luis Potosí,,,,,MX,2011-03-01,2024-10-08,,,,,,,,['4bf58dd8d48988d151941735'],['Dining and Drinking > Restaurant > Mexican Restaurant > Taco Restaurant'],https://foursquare.com/placemakers/review-place/4d6d087768406ea84e877083,b'\x00\x00\x00\x00\x01\xc0Y@\nV\x193\x7f@6$\xbd8\xe3\x8a<',"{'xmin': -101.00063087903071, 'ymin': 22.1435123019712, 'xmax': -101.00063087903071, 'ymax': 22.1435123019712}",dining and drinking > restaurant > mexican restaurant > taco restaurant,1
5158f894e4b028506dc58ec5,Tacos los gueros,20.655656814575195,-103.36917114257812,Pino,Guadalajara,jalisco,44900,,,,MX,2013-04-01,2013-04-01,,,,,,,,['4bf58dd8d48988d151941735'],['Dining and Drinking > Restaurant > Mexican Restaurant > Taco Restaurant'],https://foursquare.com/placemakers/review-place/5158f894e4b028506dc58ec5,b'\x00\x00\x00\x00\x01\xc0Y\xd7\xa0\x80\x00\x00\x00@4\xa7\xd9 \x00\x00\x00',"{'xmin': -103.36917114257812, 'ymin': 20.655656814575195, 'xmax': -103.36917114257812, 'ymax': 20.655656814575195}",dining and drinking > restaurant > mexican restaurant > taco restaurant,1
564fbb2a498e88cfa29c6b3f,Tacos Happy,20.701303,-103.974733,,,,,,,,MX,2015-11-21,2015-11-21,,,,,,,,['4bf58dd8d48988d151941735'],['Dining and Drinking > Restaurant > Mexican Restaurant > Taco Restaurant'],https://foursquare.com/placemakers/review-place/564fbb2a498e88cfa29c6b3f,b'\x00\x00\x00\x00\x01\xc0Y\xfeb\x06\x85U?@4\xb3\x88\x97\xe9\x961',"{'xmin': -103.974733, 'ymin': 20.701303, 'xmax': -103.974733, 'ymax': 20.701303}",dining and drinking > restaurant > mexican restaurant > taco restaurant,1
5657cbf0498e8316301e43a8,Tacos Wichoz,20.716747,-103.318553,Sierra de Mapimí,Guadalajara,JAL,,,,,MX,2015-11-27,2019-09-06,,,,,,,,['4bf58dd8d48988d151941735'],['Dining and Drinking > Restaurant > Mexican Restaurant > Taco Restaurant'],https://foursquare.com/placemakers/review-place/5657cbf0498e8316301e43a8,"b'\x00\x00\x00\x00\x01\xc0Y\xd4c,\x1fB\xbb@4\xb7|\xbb<\x81\x91'","{'xmin': -103.318553, 'ymin': 20.716747, 'xmax': -103.318553, 'ymax': 20.716747}",dining and drinking > restaurant > mexican restaurant > taco restaurant,1
4edef036e300bf196aa49607,Tacos monchis,20.6712678855425,-103.3684280644144,Chapultepec,,,,,,,MX,2011-12-07,2017-08-26,,,,,,,,['4bf58dd8d48988d151941735'],['Dining and Drinking > Restaurant > Mexican Restaurant > Taco Restaurant'],https://foursquare.com/placemakers/review-place/4edef036e300bf196aa49607,b'\x00\x00\x00\x00\x01\xc0Y\xd7\x94SM\xe5\xa9@4\xab\xd86OB\x96',"{'xmin': -103.3684280644144, 'ymin': 20.6712678855425, 'xmax': -103.3684280644144, 'ymax': 20.6712678855425}",dining and drinking > restaurant > mexican restaurant > taco restaurant,1
4cb07ff7c5e6a1cdb27dd5f6,Tacos de canasta Don Chema,22.13593535645932,-101.03713989257812,Cordillera Central,San Luis Potosi,San Luis Potosí,,,,,MX,2010-10-09,2012-11-27,,,,,,,,['4bf58dd8d48988d1cb941735' '4bf58dd8d48988d151941735'],"['Dining and Drinking > Food Truck'
 'Dining and Drinking > Restaurant > Mexican Restaurant > Taco Restaurant']",https://foursquare.com/placemakers/review-place/4cb07ff7c5e6a1cdb27dd5f6,"b'\x00\x00\x00\x00\x01\xc0YB`\x80\x00\x00\x00@6""\xcc\xa8\xd6\\\xe6'","{'xmin': -101.03713989257812, 'ymin': 22.13593535645932, 'xmax': -101.03713989257812, 'ymax': 22.13593535645932}","dining and drinking > food truck, dining and drinking > restaurant > mexican restaurant > taco restaurant",1
50ef949ee4b09af16a9108e9,Los Grasosos,20.66867,-103.429552,,,,,,,,MX,2013-01-11,2017-07-29,,,,,,,,['4bf58dd8d48988d151941735'],['Dining and Drinking > Restaurant > Mexican Restaurant > Taco Restaurant'],https://foursquare.com/placemakers/review-place/50ef949ee4b09af16a9108e9,b'\x00\x00\x00\x00\x01\xc0Y\xdb}\xc7\xab\xfb\x9c@4\xab-\xf5\x05\xd0\xfa',"{'xmin': -103.429552, 'ymin': 20.66867, 'xmax': -103.429552, 'ymax': 20.66867}",dining and drinking > restaurant > mexican restaurant > taco restaurant,1
52ee8abe498e5b94d405b403,Tacos de Barbacoa Los Güeros,20.627827,-103.426911,Galileo Galilei,Paseos Del Sol,,,,,,MX,2014-02-02,2018-01-09,,,,,,,,['4bf58dd8d48988d151941735'],['Dining and Drinking > Restaurant > Mexican Restaurant > Taco Restaurant'],https://foursquare.com/placemakers/review-place/52ee8abe498e5b94d405b403,b'\x00\x00\x00\x00\x01\xc0Y\xdbR\x82\x83\xd3_@4\xa0\xb9E0\x8b\xb9',"{'xmin': -103.426911, 'ymin': 20.627827, 'xmax': -103.426911, 'ymax': 20.627827}",dining and drinking > restaurant > mexican restaurant > taco restaurant,1
51106803e4b05725ba475de3,Tacos Charly,20.730751037597656,-103.41280364990234,,,,,,,,MX,2013-02-05,2017-12-07,,,,,,,,['4bf58dd8d48988d151941735'],['Dining and Drinking > Restaurant > Mexican Restaurant > Taco Restaurant'],https://foursquare.com/placemakers/review-place/51106803e4b05725ba475de3,b'\x00\x00\x00\x00\x01\xc0Y\xdak`\x00\x00\x00@4\xbb\x12\x80\x00\x00\x00',"{'xmin': -103.41280364990234, 'ymin': 20.730751037597656, 'xmax': -103.41280364990234, 'ymax': 20.730751037597656}",dining and drinking > restaurant > mexican restaurant > taco restaurant,1
58e5b80a113efc274b7ac558,Taquería Jalisco,22.174511,-101.0143,Topografía,San Luis Potosí,San Luis Potosí,,,,,MX,2017-04-06,2018-02-03,,,,,,,,['4bf58dd8d48988d151941735'],['Dining and Drinking > Restaurant > Mexican Restaurant > Taco Restaurant'],https://foursquare.com/placemakers/review-place/58e5b80a113efc274b7ac558,"b'\x00\x00\x00\x00\x01\xc0Y@\xeaJ\x8c\x15M@6,\xac\xc0\xbd\xca\xd1'","{'xmin': -101.0143, 'ymin': 22.174511, 'xmax': -101.0143, 'ymax': 22.174511}",dining and drinking > restaurant > mexican restaurant > taco restaurant,1
4fefd96ee4b0621c859632e3,Taco Bien,20.695790942722,-103.38980913440703,,,,,,,,MX,2012-07-01,2013-07-28,,,,,,,,['4bf58dd8d48988d151941735'],['Dining and Drinking > Restaurant > Mexican Restaurant > Taco Restaurant'],https://foursquare.com/placemakers/review-place/4fefd96ee4b0621c859632e3,b'\x00\x00\x00\x00\x01\xc0Y\xd8\xf2\xa2\x02\xfdu@4\xb2\x1fZ\xef\xd8\x10',"{'xmin': -103.38980913440703, 'ymin': 20.695790942722, 'xmax': -103.38980913440703, 'ymax': 20.695790942722}",dining and drinking > restaurant > mexican restaurant > taco restaurant,1
5d99400f2585280008e3c730,El Guapo,20.673346,-103.36567,Libertad 1870 B,Guadalajara,Jalisco,44160,,,,MX,2019-10-06,2021-06-23,,,,,,,,['4bf58dd8d48988d151941735'],['Dining and Drinking > Restaurant > Mexican Restaurant > Taco Restaurant'],https://foursquare.com/placemakers/review-place/5d99400f2585280008e3c730,b'\x00\x00\x00\x00\x01\xc0Y\xd7g#$\xc86@4\xac`gH\xe4u',"{'xmin': -103.36567, 'ymin': 20.673346, 'xmax': -103.36567, 'ymax': 20.673346}",dining and drinking > restaurant > mexican restaurant > taco restaurant,1
532defd3498e781e73b84945,Gorditas Delia,21.887263663160656,-102.28958703404705,,,,,,,,MX,2014-03-22,2016-05-12,,,,,,,,['4bf58dd8d48988d151941735'],['Dining and Drinking > Restaurant > Mexican Restaurant > Taco Restaurant'],https://foursquare.com/placemakers/review-place/532defd3498e781e73b84945,b'\x00\x00\x00\x00\x01\xc0Y\x92\x88\x98\x0e$\xf9@5\xe3#\xb6 4E',"{'xmin': -102.28958703404705, 'ymin': 21.887263663160656, 'xmax': -102.28958703404705, 'ymax': 21.887263663160656}",dining and drinking > restaurant > mexican restaurant > taco restaurant,1
53b2fa03498e3bfb69b9c5b9,Taqueria El toro,20.751136779785156,-103.44308471679688,,,,,,,,MX,2014-07-01,2018-08-18,,,,,,,,['4bf58dd8d48988d151941735'],['Dining and Drinking > Restaurant > Mexican Restaurant > Taco Restaurant'],https://foursquare.com/placemakers/review-place/53b2fa03498e3bfb69b9c5b9,b'\x00\x00\x00\x00\x01\xc0Y\xdc[\x80\x00\x00\x00@4\xc0J\x80\x00\x00\x00',"{'xmin': -103.44308471679688, 'ymin': 20.751136779785156, 'xmax': -103.44308471679688, 'ymax': 20.751136779785156}",dining and drinking > restaurant > mexican restaurant > taco restaurant,1
56dce102498e3643adf2873a,"Taqueria ""El Cachanilla""",21.018823889120885,-101.25696301460265,Calle galarza #99,Guanajuato,Guanajuato,36000,,,,MX,2016-03-07,2017-01-29,,473 690 2812,,,528194884008485.0,,,['4bf58dd8d48988d1c1941735' '4bf58dd8d48988d151941735'],"['Dining and Drinking > Restaurant > Mexican Restaurant'
 'Dining and Drinking > Restaurant > Mexican Restaurant > Taco Restaurant']",https://foursquare.com/placemakers/review-place/56dce102498e3643adf2873a,b'\x00\x00\x00\x00\x01\xc0YPr\x14\xff\xff\xff@5\x04\xd1\xa4t(a',"{'xmin': -101.25696301460265, 'ymin': 21.018823889120885, 'xmax': -101.25696301460265, 'ymax': 21.018823889120885}","dining and drinking > restaurant > mexican restaurant, dining and drinking > restaurant > mexican restaurant > taco restaurant",1
53e38c8a498eea3dcf1abe7c,Birria's Meat Tacos,20.626274,-103.070856,Independencia 258,Zapotlanejo,Jalisco,45430,,,,MX,2014-08-07,2014-08-07,,,,,,,,['4bf58dd8d48988d151941735'],['Dining and Drinking > Restaurant > Mexican Restaurant > Taco Restaurant'],https://foursquare.com/placemakers/review-place/53e38c8a498eea3dcf1abe7c,"b'\x00\x00\x00\x00\x01\xc0Y\xc4\x88\xe7\x9a\xaem@4\xa0S~,U\xc9'","{'xmin': -103.070856, 'ymin': 20.626274, 'xmax': -103.070856, 'ymax': 20.626274}",dining and drinking > restaurant > mexican restaurant > taco restaurant,1
4f9e00ede4b033ffd51ea870,Tacos de Asada Don Gus,20.625860065493725,-103.26394958508061,Circuito loma sur,Tonala,Jalisco,,,,,MX,2012-04-30,2023-12-28,,,,,,,,['4bf58dd8d48988d151941735'],['Dining and Drinking > Restaurant > Mexican Restaurant > Taco Restaurant'],https://foursquare.com/placemakers/review-place/4f9e00ede4b033ffd51ea870,b'\x00\x00\x00\x00\x01\xc0Y\xd0\xe4\x8c\xcc\xed\xb2@4\xa08]\x81+\x00',"{'xmin': -103.26394958508061, 'ymin': 20.625860065493725, 'xmax': -103.26394958508061, 'ymax': 20.625860065493725}",dining and drinking > restaurant > mexican restaurant > taco restaurant,1
52336a5711d208dace234796,Güero Plus,20.41958954628623,-103.59307460705881,Justo Sierra #114-A,Acatlán De Juárez,Jalisco,,,,,MX,2013-09-13,2024-08-11,,387 772 1365,,,,,,['4bf58dd8d48988d1c1941735' '4bf58dd8d48988d151941735'],"['Dining and Drinking > Restaurant > Mexican Restaurant'
 'Dining and Drinking > Restaurant > Mexican Restaurant > Taco Restaurant']",https://foursquare.com/placemakers/review-place/52336a5711d208dace234796,b'\x00\x00\x00\x00\x01\xc0Y\xe5\xf4\xef2Y\xf6@4kj8s\n\xf7',"{'xmin': -103.59307460705881, 'ymin': 20.41958954628623, 'xmax': -103.59307460705881, 'ymax': 20.41958954628623}","dining and drinking > restaurant > mexican restaurant, dining and drinking > restaurant > mexican restaurant > taco restaurant",1
4ce86760fe90a35d188e420e,Taqueria Sahuayo Centro Sur,20.60303516,-103.40200236999999,,,,,,,,MX,2010-11-21,2022-10-20,,,,,,,,['4bf58dd8d48988d151941735'],['Dining and Drinking > Restaurant > Mexican Restaurant > Taco Restaurant'],https://foursquare.com/placemakers/review-place/4ce86760fe90a35d188e420e,"b'\x00\x00\x00\x00\x01\xc0Y\xd9\xbah&\x04 @4\x9a`\x83""\x89\xc3'","{'xmin': -103.40200236999999, 'ymin': 20.60303516, 'xmax': -103.40200236999999, 'ymax': 20.60303516}",dining and drinking > restaurant > mexican restaurant > taco restaurant,1
6362a701b3056730dac8bc38,"""La Carreta Eat"" Tacos Al Vapor",20.64964,-103.33872,Salvador López Chávez #1750,Guadalajara,Jalisco,44790,,,,MX,2022-11-02,2022-11-02,,,,,,,,['4bf58dd8d48988d151941735'],['Dining and Drinking > Restaurant > Mexican Restaurant > Taco Restaurant'],https://foursquare.com/placemakers/review-place/6362a701b3056730dac8bc38,"b'\x00\x00\x00\x00\x01\xc0Y\xd5\xad\x96\xa6\xa0\x12@4\xa6N\xce\x9a,g'","{'xmin': -103.33872, 'ymin': 20.64964, 'xmax': -103.33872, 'ymax': 20.64964}",dining and drinking > restaurant > mexican restaurant > taco restaurant,1
5a5ecb1c676b4cf11b9de38f,Taqueria el Dari,20.678892,-103.370816,Calle 1 s/n,Guadalajara,Jalisco,44940,,,,MX,2013-04-05,2013-04-05,,33 3168 2442,,,,,,['4bf58dd8d48988d151941735'],['Dining and Drinking > Restaurant > Mexican Restaurant > Taco Restaurant'],https://foursquare.com/placemakers/review-place/5a5ecb1c676b4cf11b9de38f,b'\x00\x00\x00\x00\x01\xc0Y\xd7\xbbs\x085Y@4\xad\xcb\xdd\xb9\x84\x1b',"{'xmin': -103.370816, 'ymin': 20.678892, 'xmax': -103.370816, 'ymax': 20.678892}",dining and drinking > restaurant > mexican restaurant > taco restaurant,1
4e9c625f5503cfce74fca1cf,Tacos Sonora,20.661335754534402,-103.42907141995607,Guadalupe 5307,Zapopan,Jalisco,,,,,MX,2011-10-17,2024-09-22,,,,,,,,['4bf58dd8d48988d151941735'],['Dining and Drinking > Restaurant > Mexican Restaurant > Taco Restaurant'],https://foursquare.com/placemakers/review-place/4e9c625f5503cfce74fca1cf,b'\x00\x00\x00\x00\x01\xc0Y\xdbu\xe7\xf9\x17\x04@4\xa9ML\xcdf\x97',"{'xmin': -103.42907141995607, 'ymin': 20.661335754534402, 'xmax': -103.42907141995607, 'ymax': 20.661335754534402}",dining and drinking > restaurant > mexican restaurant > taco restaurant,1
55c05319498ef2b6bb7b0956,Taqueria El Arriero,21.80769779080375,-100.73015589621014,,,,,,,,MX,2015-08-04,2020-12-31,,,,,,,,['4bf58dd8d48988d151941735'],['Dining and Drinking > Restaurant > Mexican Restaurant > Taco Restaurant'],https://foursquare.com/placemakers/review-place/55c05319498ef2b6bb7b0956,b'\x00\x00\x00\x00\x01\xc0Y.\xba\xdf\xcb\xcd\x10@5\xce\xc5HL\x8d\xb6',"{'xmin': -100.73015589621014, 'ymin': 21.80769779080375, 'xmax': -100.73015589621014, 'ymax': 21.80769779080375}",dining and drinking > restaurant > mexican restaurant > taco restaurant,1
50954695498ecb7e548eab50,Gorditas Paris,21.87629,-102.319075,,,,,,,,MX,2012-11-03,2016-02-21,,,,,,,,['4bf58dd8d48988d151941735'],['Dining and Drinking > Restaurant > Mexican Restaurant > Taco Restaurant'],https://foursquare.com/placemakers/review-place/50954695498ecb7e548eab50,b'\x00\x00\x00\x00\x01\xc0Y\x94k\xb9\x8c~(@5\xe0T\x8a\x9b\xcf\xd5',"{'xmin': -102.319075, 'ymin': 21.87629, 'xmax': -102.319075, 'ymax': 21.87629}",dining and drinking > restaurant > mexican restaurant > taco restaurant,1
52074d2711d22721fc8d4562,El Matematico,20.63201,-103.285806,,,,,,,,MX,2013-08-11,2018-07-03,,,,,,,,['4bf58dd8d48988d151941735'],['Dining and Drinking > Restaurant > Mexican Restaurant > Taco Restaurant'],https://foursquare.com/placemakers/review-place/52074d2711d22721fc8d4562,b'\x00\x00\x00\x00\x01\xc0Y\xd2J\xa5?\xc0\t@4\xa1\xcbhH\xbe\xb6',"{'xmin': -103.285806, 'ymin': 20.63201, 'xmax': -103.285806, 'ymax': 20.63201}",dining and drinking > restaurant > mexican restaurant > taco restaurant,1
68b90b5a767f479ff2f737b6,Menuderia Bacon,20.70791,-103.332669,Rogelio Bacon 1885,Guadalajara,Jalisco,44290,,,,MX,2014-02-07,2014-02-07,,33 3638 0473,,,,,,['4bf58dd8d48988d151941735'],['Dining and Drinking > Restaurant > Mexican Restaurant > Taco Restaurant'],https://foursquare.com/placemakers/review-place/68b90b5a767f479ff2f737b6,"b""\x00\x00\x00\x00\x01\xc0Y\xd5Jr\xea\xd9'@4\xb59\x96\xfa\x82\xe8""","{'xmin': -103.332669, 'ymin': 20.70791, 'xmax': -103.332669, 'ymax': 20.70791}",dining and drinking > restaurant > mexican restaurant > taco restaurant,1
4ec94c280e017e2f9c0f869c,Super Tacos Chano II,19.94549067732888,-103.75892537180408,Benito Juárez,Tapalpa,Jalisco,,,,,MX,2011-11-20,2019-07-28,,,,,,,,['4bf58dd8d48988d151941735'],['Dining and Drinking > Restaurant > Mexican Restaurant > Taco Restaurant'],https://foursquare.com/placemakers/review-place/4ec94c280e017e2f9c0f869c,b'\x00\x00\x00\x00\x01\xc0Y\xf0\x92;\xb9\x004@3\xf2\x0b\xadQ\xcc\xe9',"{'xmin': -103.75892537180408, 'ymin': 19.94549067732888, 'xmax': -103.75892537180408, 'ymax': 19.94549067732888}",dining and drinking > restaurant > mexican restaurant > taco restaurant,1
56f75db5498ef2a293bfd1c4,Tacos San Luis,20.663094,-103.420173,Avenida Guadalupe,,,,,,,MX,2016-03-27,2018-06-11,,,,,,,,['4bf58dd8d48988d151941735'],['Dining and Drinking > Restaurant > Mexican Restaurant > Taco Restaurant'],https://foursquare.com/placemakers/review-place/56f75db5498ef2a293bfd1c4,"b'\x00\x00\x00\x00\x01\xc0Y\xda\xe4\x1dKjb@4\xa9\xc0\x87D,\x80'","{'xmin': -103.420173, 'ymin': 20.663094, 'xmax': -103.420173, 'ymax': 20.663094}",dining and drinking > restaurant > mexican restaurant > taco restaurant,1
52e7357c498e8fe3a7fca971,Tacos Maiden,20.713956832885742,-103.34991455078125,,Guadalajara,,,,,,MX,2014-01-28,2019-01-16,,,,,,,,['4bf58dd8d48988d151941735'],['Dining and Drinking > Restaurant > Mexican Restaurant > Taco Restaurant'],https://foursquare.com/placemakers/review-place/52e7357c498e8fe3a7fca971,b'\x00\x00\x00\x00\x01\xc0Y\xd6e\x00\x00\x00\x00@4\xb6\xc5\xe0\x00\x00\x00',"{'xmin': -103.34991455078125, 'ymin': 20.713956832885742, 'xmax': -103.34991455078125, 'ymax': 20.713956832885742}",dining and drinking > restaurant > mexican restaurant > taco restaurant,1
59e17c7b625a661709bdf19d,El Pastor Del Rica,20.704103,-103.341274,,Guadalajara,JAL,44298,,,,MX,2017-10-14,2018-09-19,,,,,,,,['4bf58dd8d48988d151941735'],['Dining and Drinking > Restaurant > Mexican Restaurant > Taco Restaurant'],https://foursquare.com/placemakers/review-place/59e17c7b625a661709bdf19d,b'\x00\x00\x00\x00\x01\xc0Y\xd5\xd7n\xe7>h@4\xb4@\x18\x1e\x03\xf7',"{'xmin': -103.341274, 'ymin': 20.704103, 'xmax': -103.341274, 'ymax': 20.704103}",dining and drinking > restaurant > mexican restaurant > taco restaurant,1
51a6e309498edcae966365ef,Taqueria Fabian,21.515607607684828,-104.88925014743633,Zacatecas S/N,Tepic,Nayarit,,,,,MX,2013-05-30,2016-02-14,,,,,,,,['4bf58dd8d48988d151941735'],['Dining and Drinking > Restaurant > Mexican Restaurant > Taco Restaurant'],https://foursquare.com/placemakers/review-place/51a6e309498edcae966365ef,b'\x00\x00\x00\x00\x01\xc0Z8\xe9ysL\xf1@5\x83\xfe\xdc4\x93<',"{'xmin': -104.88925014743633, 'ymin': 21.515607607684828, 'xmax': -104.88925014743633, 'ymax': 21.515607607684828}",dining and drinking > restaurant > mexican restaurant > taco restaurant,1
4c81b1d32f1c236a78c93243,Quesadillas Miriam.com,19.202178964114584,-104.68316110206682,Av. Veracruz 162 . Barra de Navidad,Barra de navidad,Jalisco,,,,,MX,2010-09-04,2020-01-13,,,,,,,,['4bf58dd8d48988d151941735'],['Dining and Drinking > Restaurant > Mexican Restaurant > Taco Restaurant'],https://foursquare.com/placemakers/review-place/4c81b1d32f1c236a78c93243,b'\x00\x00\x00\x00\x01\xc0Z+\xb8\xe9W\xd1\xaf@33\xc2\x00&\xcf\xb1',"{'xmin': -104.68316110206682, 'ymin': 19.202178964114584, 'xmax': -104.68316110206682, 'ymax': 19.202178964114584}",dining and drinking > restaurant > mexican restaurant > taco restaurant,1
6546995669d9cc125f1e785d,Casa De La Maria,31.322356,-113.540283,,Puerto Peñasco,Son.,83550,,,,MX,2023-11-04,2023-11-04,,,,,,,,['4bf58dd8d48988d1c1941735' '4bf58dd8d48988d151941735'],"['Dining and Drinking > Restaurant > Mexican Restaurant'
 'Dining and Drinking > Restaurant > Mexican Restaurant > Taco Restaurant']",https://foursquare.com/placemakers/review-place/6546995669d9cc125f1e785d,b'\x00\x00\x00\x00\x01\xc0\\b\x93\xff%\xe5m@?R\x85\xec=\xab\\',"{'xmin': -113.540283, 'ymin': 31.322356, 'xmax': -113.540283, 'ymax': 31.322356}","dining and drinking > restaurant > mexican restaurant, dining and drinking > restaurant > mexican restaurant > taco restaurant",1
4efe809b775bec6b42d6e500,Micheladas y Tacos el Rodeo,21.878451200012584,-102.30408714967459,Andador Arturo J. Pani #126,Aguascalientes,AGS,20000,,,,MX,2011-12-31,2022-05-07,,,,,,,TaqueriaelRodeo,['4bf58dd8d48988d151941735'],['Dining and Drinking > Restaurant > Mexican Restaurant > Taco Restaurant'],https://foursquare.com/placemakers/review-place/4efe809b775bec6b42d6e500,b'\x00\x00\x00\x00\x01\xc0Y\x93v)\xf2\xbf\x1e@5\xe0\xe2-\x87/\x9e',"{'xmin': -102.30408714967459, 'ymin': 21.878451200012584, 'xmax': -102.30408714967459, 'ymax': 21.878451200012584}",dining and drinking > restaurant > mexican restaurant > taco restaurant,1
60cccc2fcd73f417aa088b4a,Tacos De Asada,22.12826,-100.98618,Coronel Romero,San Luis Potosí,San Luis Potosí,78369,,,,MX,2021-06-18,2021-06-18,,,,,,,,['4bf58dd8d48988d151941735'],['Dining and Drinking > Restaurant > Mexican Restaurant > Taco Restaurant'],https://foursquare.com/placemakers/review-place/60cccc2fcd73f417aa088b4a,b'\x00\x00\x00\x00\x01\xc0Y?\x1d\x92\xb7\xfe\t@6 \xd5\xa5\xb9b\x8d',"{'xmin': -100.98618, 'ymin': 22.12826, 'xmax': -100.98618, 'ymax': 22.12826}",dining and drinking > restaurant > mexican restaurant > taco restaurant,1
4e0e0466b0fb59de67d2188c,Tacos Don Lolo,21.897857577372854,-102.3031746914388,Av. Convención de 1914 Nte.,Aguascalientes,Aguascalientes,20020,,,,MX,2011-07-01,2024-04-14,,,,,,,,['4bf58dd8d48988d151941735'],['Dining and Drinking > Restaurant > Mexican Restaurant > Taco Restaurant'],https://foursquare.com/placemakers/review-place/4e0e0466b0fb59de67d2188c,b'\x00\x00\x00\x00\x01\xc0Y\x93g6\xd2-\x17@5\xe5\xd9\xfe\x83H>',"{'xmin': -102.3031746914388, 'ymin': 21.897857577372854, 'xmax': -102.3031746914388, 'ymax': 21.897857577372854}",dining and drinking > restaurant > mexican restaurant > taco restaurant,1
5376eb7d11d2b5bc6b97f036,La Coyotita Steak Carnes & Beer,20.610689972089894,-103.42986736524497,Avenida Adolfo López Mateos 900a,zapopan,,,,,,MX,2014-05-17,2016-07-20,,,,,,,,['4bf58dd8d48988d151941735'],['Dining and Drinking > Restaurant > Mexican Restaurant > Taco Restaurant'],https://foursquare.com/placemakers/review-place/5376eb7d11d2b5bc6b97f036,b'\x00\x00\x00\x00\x01\xc0Y\xdb\x82\xf2h\xd6\x12@4\x9cV-\x92\x1f\n',"{'xmin': -103.42986736524497, 'ymin': 20.610689972089894, 'xmax': -103.42986736524497, 'ymax': 20.610689972089894}",dining and drinking > restaurant > mexican restaurant > taco restaurant,1
516af52ce4b01d37ba191126,Taquería “Bambi”,20.548476,-104.046785,Fray Antonio De Cuéllar,Ameca,JALISCO,46600,,,,MX,2013-04-14,2022-01-15,,375 758 5888,,,,,,['4bf58dd8d48988d151941735'],['Dining and Drinking > Restaurant > Mexican Restaurant > Taco Restaurant'],https://foursquare.com/placemakers/review-place/516af52ce4b01d37ba191126,b'\x00\x00\x00\x00\x01\xc0Z\x02\xfe\x86\x83<`@4\x8ch\xecR\xa4\x12',"{'xmin': -104.046785, 'ymin': 20.548476, 'xmax': -104.046785, 'ymax': 20.548476}",dining and drinking > restaurant > mexican restaurant > taco restaurant,1
501f0de4e4b0086e3e4ce25e,Lechón El Amigo Cuco,21.885125350684866,-102.3123015374385,Av. Convención de 1914 Pte.,,,,,,,MX,2012-08-06,2023-03-25,,,,,,,,['4bf58dd8d48988d151941735'],['Dining and Drinking > Restaurant > Mexican Restaurant > Taco Restaurant'],https://foursquare.com/placemakers/review-place/501f0de4e4b0086e3e4ce25e,b'\x00\x00\x00\x00\x01\xc0Y\x93\xfc\xbf\x96r}@5\xe2\x97\x932\rR',"{'xmin': -102.3123015374385, 'ymin': 21.885125350684866, 'xmax': -102.3123015374385, 'ymax': 21.885125350684866}",dining and drinking > restaurant > mexican restaurant > taco restaurant,1
4c373fb61e06d13a8588753e,Tacos Koala,19.082492,-104.290799,,,,,,,,MX,2010-07-09,2014-07-19,,,,,,,,['4bf58dd8d48988d151941735'],['Dining and Drinking > Restaurant > Mexican Restaurant > Taco Restaurant'],https://foursquare.com/placemakers/review-place/4c373fb61e06d13a8588753e,b'\x00\x00\x00\x00\x01\xc0Z\x12\x9csh\xadi@3\x15\x1e2\x1a.\x7f',"{'xmin': -104.290799, 'ymin': 19.082492, 'xmax': -104.290799, 'ymax': 19.082492}",dining and drinking > restaurant > mexican restaurant > taco restaurant,1
50822153e4b0fedebd82cc7e,El Potro Loco,20.981150411640414,-101.28290105791696,Blvd. Euquerio Guerrero,Guanajuato,Guanajuato,,,,,MX,2012-10-20,2018-03-03,,,,,,,,['4bf58dd8d48988d153941735' '4bf58dd8d48988d151941735'],"['Dining and Drinking > Restaurant > Mexican Restaurant > Burrito Restaurant'
 'Dining and Drinking > Restaurant > Mexican Restaurant > Taco Restaurant']",https://foursquare.com/placemakers/review-place/50822153e4b0fedebd82cc7e,"b'\x00\x00\x00\x00\x01\xc0YR\x1b\r\t\xf0u@4\xfb,\xacbs\xd8'","{'xmin': -101.28290105791696, 'ymin': 20.981150411640414, 'xmax': -101.28290105791696, 'ymax': 20.981150411640414}","dining and drinking > restaurant > mexican restaurant > burrito restaurant, dining and drinking > restaurant > mexican restaurant > taco restaurant",1
4f6f4415e4b05c9c2c85fbee,Tacos Barbacua (calzada),20.695951,-103.330883,,Guadalajara,,,,,,MX,2012-03-25,2019-01-16,,,,,,,,['4bf58dd8d48988d151941735'],['Dining and Drinking > Restaurant > Mexican Restaurant > Taco Restaurant'],https://foursquare.com/placemakers/review-place/4f6f4415e4b05c9c2c85fbee,b'\x00\x00\x00\x00\x01\xc0Y\xd5-/\xe3\xf3Z@4\xb2)\xd8@\x9eV',"{'xmin': -103.330883, 'ymin': 20.695951, 'xmax': -103.330883, 'ymax': 20.695951}",dining and drinking > restaurant > mexican restaurant > taco restaurant,1
513ae582e4b06b29fa573bd2,Tacos El Pelillos,21.48336,-104.883619,,,,,,,,MX,2013-03-09,2013-09-30,,,,,,,,['4bf58dd8d48988d151941735'],['Dining and Drinking > Restaurant > Mexican Restaurant > Taco Restaurant'],https://foursquare.com/placemakers/review-place/513ae582e4b06b29fa573bd2,b'\x00\x00\x00\x00\x01\xc0Z8\x8d6\xb4\xc7\xf3@5{\xbd{ 1\xcf',"{'xmin': -104.883619, 'ymin': 21.48336, 'xmax': -104.883619, 'ymax': 21.48336}",dining and drinking > restaurant > mexican restaurant > taco restaurant,1
5170f8b95262fdce32bc152a,Tacos Ibarra,20.718206315507555,-103.33400130271912,Daniel Larios Cárdenas #1155,Guadalajara,Jalisco,44240,,,,MX,2013-04-19,2024-07-15,,,,,,,,['4bf58dd8d48988d151941735'],['Dining and Drinking > Restaurant > Mexican Restaurant > Taco Restaurant'],https://foursquare.com/placemakers/review-place/5170f8b95262fdce32bc152a,b'\x00\x00\x00\x00\x01\xc0Y\xd5`G\x00\x00\x00@4\xb7\xdc^|\xe2\xb7',"{'xmin': -103.33400130271912, 'ymin': 20.718206315507555, 'xmax': -103.33400130271912, 'ymax': 20.718206315507555}",dining and drinking > restaurant > mexican restaurant > taco restaurant,1
5e09539b92f0060008567d91,Los Tapatios,19.280439,-103.732801,,Villa de Álvarez,COL,28979,,,,MX,2019-12-30,2020-11-25,,,,,,,,['4bf58dd8d48988d151941735'],['Dining and Drinking > Restaurant > Mexican Restaurant > Taco Restaurant'],https://foursquare.com/placemakers/review-place/5e09539b92f0060008567d91,b'\x00\x00\x00\x00\x01\xc0Y\xee\xe66*^x@3G\xca\xd9\xad\x85\xe0',"{'xmin': -103.732801, 'ymin': 19.280439, 'xmax': -103.732801, 'ymax': 19.280439}",dining and drinking > restaurant > mexican restaurant > taco restaurant,1
4e67cd14227151797055e5b9,Tacos Barbacoa el Torito,20.66520435844658,-103.36236137223311,Argentina,Guadalajara,Jal,44190,,,,MX,2011-09-07,2025-01-03,,,,,,,,['4bf58dd8d48988d151941735' '4bf58dd8d48988d1cb941735'],"['Dining and Drinking > Restaurant > Mexican Restaurant > Taco Restaurant'
 'Dining and Drinking > Food Truck']",https://foursquare.com/placemakers/review-place/4e67cd14227151797055e5b9,b'\x00\x00\x00\x00\x01\xc0Y\xd70\xed\xc0\xc4\xcb@4\xaaJ\xd54\xafJ',"{'xmin': -103.36236137223311, 'ymin': 20.66520435844658, 'xmax': -103.36236137223311, 'ymax': 20.66520435844658}","dining and drinking > restaurant > mexican restaurant > taco restaurant, dining and drinking > food truck",1
51f57dfa498e1563e59923cf,Tacos De $5,20.668913,-103.418894,,,,,,,,MX,2013-07-28,2017-01-03,,,,,,,,['4bf58dd8d48988d151941735'],['Dining and Drinking > Restaurant > Mexican Restaurant > Taco Restaurant'],https://foursquare.com/placemakers/review-place/51f57dfa498e1563e59923cf,b'\x00\x00\x00\x00\x01\xc0Y\xda\xcf(\xc7\x9ff@4\xab=\xe1\xe2\xde\x87',"{'xmin': -103.418894, 'ymin': 20.668913, 'xmax': -103.418894, 'ymax': 20.668913}",dining and drinking > restaurant > mexican restaurant > taco restaurant,1
546d5bcf498e6c78df7500f9,kiko's grill,20.73939261314625,-103.36819825030909,,,,,,,,MX,2014-11-20,2018-06-02,,,,,,,,['4bf58dd8d48988d151941735'],['Dining and Drinking > Restaurant > Mexican Restaurant > Taco Restaurant'],https://foursquare.com/placemakers/review-place/546d5bcf498e6c78df7500f9,b'\x00\x00\x00\x00\x01\xc0Y\xd7\x90\x8fd\xe1h@4\xbdH\xd5\x94]\xfc',"{'xmin': -103.36819825030909, 'ymin': 20.73939261314625, 'xmax': -103.36819825030909, 'ymax': 20.73939261314625}",dining and drinking > restaurant > mexican restaurant > taco restaurant,1
54e264a3498e31d8fdc7d4d2,El pastor de San Pedro,19.267279659932317,-99.17173375079219,,,,,,,,MX,2015-02-16,2018-11-19,,,,,,,,['4bf58dd8d48988d151941735'],['Dining and Drinking > Restaurant > Mexican Restaurant > Taco Restaurant'],https://foursquare.com/placemakers/review-place/54e264a3498e31d8fdc7d4d2,b'\x00\x00\x00\x00\x01\xc0X\xca\xfd\xaf\x8e\xd1f@3Dlp\x96K\x99',"{'xmin': -99.17173375079219, 'ymin': 19.267279659932317, 'xmax': -99.17173375079219, 'ymax': 19.267279659932317}",dining and drinking > restaurant > mexican restaurant > taco restaurant,1
5e4af5082e444e0008db582e,La Reta Tacos & Arcades,19.185071628742243,-96.1282467842102,Juan Enríquez 689,Veracruz,Veracruz,91808,,,,MX,2020-02-17,2023-04-24,,,,,107050407332806.0,laretaarcades,,['4bf58dd8d48988d151941735'],['Dining and Drinking > Restaurant > Mexican Restaurant > Taco Restaurant'],https://foursquare.com/placemakers/review-place/5e4af5082e444e0008db582e,b'\x00\x00\x00\x00\x01\xc0X\x0852\x00\x00\x00@3/`\xda\xb0\xdd\x8a',"{'xmin': -96.1282467842102, 'ymin': 19.185071628742243, 'xmax': -96.1282467842102, 'ymax': 19.185071628742243}",dining and drinking > restaurant > mexican restaurant > taco restaurant,1
535d2c68498e0b716d658e81,Quesadillas San Sebastian,21.104087,-101.69634,,,,,,,,MX,2014-04-27,2016-10-24,,,,,,,,['4bf58dd8d48988d151941735'],['Dining and Drinking > Restaurant > Mexican Restaurant > Taco Restaurant'],https://foursquare.com/placemakers/review-place/535d2c68498e0b716d658e81,b'\x00\x00\x00\x00\x01\xc0Yl\x90\xd5\xa5\xb9c@5\x1a\xa5r\x14\xf0R',"{'xmin': -101.69634, 'ymin': 21.104087, 'xmax': -101.69634, 'ymax': 21.104087}",dining and drinking > restaurant > mexican restaurant > taco restaurant,1
5dfba3446665ae000848134d,Los Amaros,19.291659,-99.161073,Ajusco 16,Ciudad de México,CDMX,14050,,,,MX,2019-12-19,2019-12-19,,,,,,,,['4bf58dd8d48988d151941735'],['Dining and Drinking > Restaurant > Mexican Restaurant > Taco Restaurant'],https://foursquare.com/placemakers/review-place/5dfba3446665ae000848134d,b'\x00\x00\x00\x00\x01\xc0X\xcaO\x05 \xd11@3J\xaa*\n\x95\x85',"{'xmin': -99.161073, 'ymin': 19.291659, 'xmax': -99.161073, 'ymax': 19.291659}",dining and drinking > restaurant > mexican restaurant > taco restaurant,1
5109ece0e4b0758bf3c5d6f4,Taqueria el Flamazo,19.274062046887316,-99.68287569675385,,,,,,,,MX,2013-01-31,2018-01-26,,,,,,,,['4bf58dd8d48988d151941735'],['Dining and Drinking > Restaurant > Mexican Restaurant > Taco Restaurant'],https://foursquare.com/placemakers/review-place/5109ece0e4b0758bf3c5d6f4,b'\x00\x00\x00\x00\x01\xc0X\xeb\xb4<D2\xa0@3F(\xee(t\xb2',"{'xmin': -99.68287569675385, 'ymin': 19.274062046887316, 'xmax': -99.68287569675385, 'ymax': 19.274062046887316}",dining and drinking > restaurant > mexican restaurant > taco restaurant,1
568c87f4498e52c0df089f2f,Tacos De Tripa,19.27219386035735,-99.67012419621608,Av. Las Torres,Toluca,mexico,,,,,MX,2016-01-06,2016-08-12,,,,,,,,['4bf58dd8d48988d151941735'],['Dining and Drinking > Restaurant > Mexican Restaurant > Taco Restaurant'],https://foursquare.com/placemakers/review-place/568c87f4498e52c0df089f2f,b'\x00\x00\x00\x00\x01\xc0X\xea\xe3P\x98\xc0h@3E\xae\x7f0h%',"{'xmin': -99.67012419621608, 'ymin': 19.27219386035735, 'xmax': -99.67012419621608, 'ymax': 19.27219386035735}",dining and drinking > restaurant > mexican restaurant > taco restaurant,1
501d893de4b08ea9a1d77736,Tianguis de 5 señores,17.053052052304015,-96.7177217653512,,Oaxaca,Oaxaca,,,,,MX,2012-08-04,2016-05-28,,,,,,,,['4bf58dd8d48988d151941735'],['Dining and Drinking > Restaurant > Mexican Restaurant > Taco Restaurant'],https://foursquare.com/placemakers/review-place/501d893de4b08ea9a1d77736,"b""\x00\x00\x00\x00\x01\xc0X-\xef'Es\xe4@1\r\x94\xd1\xbd\xa1\xa5""","{'xmin': -96.7177217653512, 'ymin': 17.053052052304015, 'xmax': -96.7177217653512, 'ymax': 17.053052052304015}",dining and drinking > restaurant > mexican restaurant > taco restaurant,1
50b452d2e4b043d099c13ae1,tacos figueroa,19.695221221456553,-101.18799787405652,,,,,,,,MX,2012-11-27,2019-01-19,,,,,,,,['4bf58dd8d48988d151941735'],['Dining and Drinking > Restaurant > Mexican Restaurant > Taco Restaurant'],https://foursquare.com/placemakers/review-place/50b452d2e4b043d099c13ae1,b'\x00\x00\x00\x00\x01\xc0YL\x08(<2\x94@3\xb1\xfa\x04\x99\xa4\x1d',"{'xmin': -101.18799787405652, 'ymin': 19.695221221456553, 'xmax': -101.18799787405652, 'ymax': 19.695221221456553}",dining and drinking > restaurant > mexican restaurant > taco restaurant,1
5bc2b1b06bdee6002c0d5151,Tacos De Tripa La Pasión,21.119563,-101.672337,Calle Del Progreso,León,GTO,37000,,,,MX,2018-10-14,2024-08-18,,,,,,,,['4bf58dd8d48988d151941735'],['Dining and Drinking > Restaurant > Mexican Restaurant > Taco Restaurant'],https://foursquare.com/placemakers/review-place/5bc2b1b06bdee6002c0d5151,b'\x00\x00\x00\x00\x01\xc0Yk\x07\x91\xc4\xb9\x02@5\x1e\x9b\xaeF\xcf\xc8',"{'xmin': -101.672337, 'ymin': 21.119563, 'xmax': -101.672337, 'ymax': 21.119563}",dining and drinking > restaurant > mexican restaurant > taco restaurant,1
56da55d8498e60abda0f77dd,La Majadera,21.163992289168316,-101.67750273951759,,,,,,,,MX,2016-03-05,2018-04-06,,,,,,,,['4bf58dd8d48988d151941735'],['Dining and Drinking > Restaurant > Mexican Restaurant > Taco Restaurant'],https://foursquare.com/placemakers/review-place/56da55d8498e60abda0f77dd,b'\x00\x00\x00\x00\x01\xc0Yk\\4sKl@5)\xfbf\x0e\xc6+',"{'xmin': -101.67750273951759, 'ymin': 21.163992289168316, 'xmax': -101.67750273951759, 'ymax': 21.163992289168316}",dining and drinking > restaurant > mexican restaurant > taco restaurant,1
4bdd0b038f53d13a6aa9eb8f,Brasitacos,20.699568372471017,-101.34799711188803,Blvd. Ejercito Nacional,Irapuato,GTO,36630,,,,MX,2010-05-02,2024-12-31,,,,,,,,['4bf58dd8d48988d151941735'],['Dining and Drinking > Restaurant > Mexican Restaurant > Taco Restaurant'],https://foursquare.com/placemakers/review-place/4bdd0b038f53d13a6aa9eb8f,b'\x00\x00\x00\x00\x01\xc0YVE\x95\xad\xaaW@4\xb3\x16\xe9\xb1\x147',"{'xmin': -101.34799711188803, 'ymin': 20.699568372471017, 'xmax': -101.34799711188803, 'ymax': 20.699568372471017}",dining and drinking > restaurant > mexican restaurant > taco restaurant,1
640951fc8bb2ea74b073d7e4,Taqueria Don Marcos,17.670024,-98.513298,,Alpoyeca,GRO,41270,,,,MX,2023-03-09,2023-03-09,,,,,,,,['4bf58dd8d48988d151941735'],['Dining and Drinking > Restaurant > Mexican Restaurant > Taco Restaurant'],https://foursquare.com/placemakers/review-place/640951fc8bb2ea74b073d7e4,b'\x00\x00\x00\x00\x01\xc0X\xa0\xd9\xdf\xda\xc6\x8b@1\xab\x86\xb1_\x88\xfd',"{'xmin': -98.513298, 'ymin': 17.670024, 'xmax': -98.513298, 'ymax': 17.670024}",dining and drinking > restaurant > mexican restaurant > taco restaurant,1
5636c284498ebe37489a046d,Tacos El Mil Focos,21.114151012232938,-101.69959913876919,Av La Piscina 907,León,Guanajuato,,,,,MX,2015-11-02,2017-10-02,,,,,,,,['4bf58dd8d48988d151941735'],['Dining and Drinking > Restaurant > Mexican Restaurant > Taco Restaurant'],https://foursquare.com/placemakers/review-place/5636c284498ebe37489a046d,b'\x00\x00\x00\x00\x01\xc0Yl\xc6;wT\xb3@5\x1d9\x000X\x84',"{'xmin': -101.69959913876919, 'ymin': 21.114151012232938, 'xmax': -101.69959913876919, 'ymax': 21.114151012232938}",dining and drinking > restaurant > mexican restaurant > taco restaurant,1
535d4bd111d2006cad83a5c4,Barbacoa,19.28721491319896,-99.62665089219422,,,,,,,,MX,2014-04-27,2018-02-24,,,,,,,,['4bf58dd8d48988d151941735'],['Dining and Drinking > Restaurant > Mexican Restaurant > Taco Restaurant'],https://foursquare.com/placemakers/review-place/535d4bd111d2006cad83a5c4,b'\x00\x00\x00\x00\x01\xc0X\xe8\x1b\x0cW\xfe\xf0@3I\x86\xea\xa3\x1c\xee',"{'xmin': -99.62665089219422, 'ymin': 19.28721491319896, 'xmax': -99.62665089219422, 'ymax': 19.28721491319896}",dining and drinking > restaurant > mexican restaurant > taco restaurant,1
533460e7498eeee630a08b9d,Tacos Mariano,20.574564620006203,-101.2148342349082,,,,,,,,MX,2014-03-27,2022-06-17,,,,,,,,['4bf58dd8d48988d151941735'],['Dining and Drinking > Restaurant > Mexican Restaurant > Taco Restaurant'],https://foursquare.com/placemakers/review-place/533460e7498eeee630a08b9d,b'\x00\x00\x00\x00\x01\xc0YM\xbf\xd8\x17?{@4\x93\x16\xaa\xbc]\x85',"{'xmin': -101.2148342349082, 'ymin': 20.574564620006203, 'xmax': -101.2148342349082, 'ymax': 20.574564620006203}",dining and drinking > restaurant > mexican restaurant > taco restaurant,1
4c7a942cdf08a1cdf01fde5d,Barbacoa de Tulancingo,19.269714,-99.628935,,Metepec,MEX,,,,,MX,2010-08-29,2016-11-11,,,,,,,,['4bf58dd8d48988d151941735'],['Dining and Drinking > Restaurant > Mexican Restaurant > Taco Restaurant'],https://foursquare.com/placemakers/review-place/4c7a942cdf08a1cdf01fde5d,b'\x00\x00\x00\x00\x01\xc0X\xe8@x\x96\x13\xd3@3E\x0b\xfa\tE\xfa',"{'xmin': -99.628935, 'ymin': 19.269714, 'xmax': -99.628935, 'ymax': 19.269714}",dining and drinking > restaurant > mexican restaurant > taco restaurant,1
5206d2d111d2a3dd48117ab3,Tacos Don Urbano,19.245125702926785,-99.15225016606182,Manzanos,Tlalpan,,14479,,,,MX,2013-08-10,2016-07-23,,,,,,,,['4bf58dd8d48988d151941735'],['Dining and Drinking > Restaurant > Mexican Restaurant > Taco Restaurant'],https://foursquare.com/placemakers/review-place/5206d2d111d2a3dd48117ab3,b'\x00\x00\x00\x00\x01\xc0X\xc9\xbew{\x02\xf3@3>\xc0\x8e\xddz\xc4',"{'xmin': -99.15225016606182, 'ymin': 19.245125702926785, 'xmax': -99.15225016606182, 'ymax': 19.245125702926785}",dining and drinking > restaurant > mexican restaurant > taco restaurant,1
52549f4211d21b9c7ecad7ad,Tacos 'Don Pepe',19.691793460670524,-101.20005701183469,,,,,,,,MX,2013-10-09,2024-07-24,,,,,,,,['4bf58dd8d48988d151941735'],['Dining and Drinking > Restaurant > Mexican Restaurant > Taco Restaurant'],https://foursquare.com/placemakers/review-place/52549f4211d21b9c7ecad7ad,b'\x00\x00\x00\x00\x01\xc0YL\xcd\xbb\xec\xca\x97@3\xb1\x19`Q*\xa4',"{'xmin': -101.20005701183469, 'ymin': 19.691793460670524, 'xmax': -101.20005701183469, 'ymax': 19.691793460670524}",dining and drinking > restaurant > mexican restaurant > taco restaurant,1
5a287a1973fe2578e7d03185,Tacos Kemonito,19.165701,-96.117161,Av. Costa Verda,Boca del Río,VER,94294,,,,MX,2017-12-06,2018-08-04,,,,,,,,['4bf58dd8d48988d151941735'],['Dining and Drinking > Restaurant > Mexican Restaurant > Taco Restaurant'],https://foursquare.com/placemakers/review-place/5a287a1973fe2578e7d03185,b'\x00\x00\x00\x00\x01\xc0X\x07\x7f\x90\xd9\xd7w@3*kaw\xea\x1c',"{'xmin': -96.117161, 'ymin': 19.165701, 'xmax': -96.117161, 'ymax': 19.165701}",dining and drinking > restaurant > mexican restaurant > taco restaurant,1
512115fbe4b06dc363f0cc10,Tacos Estilo Michocan,15.442241,-92.892992,,,,,,,,MX,2013-02-17,2014-08-17,,,,,,,,['4bf58dd8d48988d151941735'],['Dining and Drinking > Restaurant > Mexican Restaurant > Taco Restaurant'],https://foursquare.com/placemakers/review-place/512115fbe4b06dc363f0cc10,b'\x00\x00\x00\x00\x01\xc0W9&\xc7\xea\xe5\xbd@.\xe2mi\x8f\xe6\x92',"{'xmin': -92.892992, 'ymin': 15.442241, 'xmax': -92.892992, 'ymax': 15.442241}",dining and drinking > restaurant > mexican restaurant > taco restaurant,1
4e4fe5e7d4c0b6da5d844c96,Tacos La Cecina.com,19.320918,-99.105464,,Ciudad de México,Distrito Federal,,,,,MX,2011-08-20,2020-06-06,,,,,,,,['4bf58dd8d48988d151941735'],['Dining and Drinking > Restaurant > Mexican Restaurant > Taco Restaurant'],https://foursquare.com/placemakers/review-place/4e4fe5e7d4c0b6da5d844c96,"b""\x00\x00\x00\x00\x01\xc0X\xc6\xbf\xec\x13\xb9\xf1@3R'\xae\x9a\xb2\x9e""","{'xmin': -99.105464, 'ymin': 19.320918, 'xmax': -99.105464, 'ymax': 19.320918}",dining and drinking > restaurant > mexican restaurant > taco restaurant,1
4e1d0beffa7653a9b2e01465,La Marchanta Taqueria,19.265356472496304,-99.62216018782857,,Toluca de Lerdo,México,,,,,MX,2011-07-13,2015-08-07,,,,,,,,['4bf58dd8d48988d151941735'],['Dining and Drinking > Restaurant > Mexican Restaurant > Taco Restaurant'],https://foursquare.com/placemakers/review-place/4e1d0beffa7653a9b2e01465,"b""\x00\x00\x00\x00\x01\xc0X\xe7\xd1x\xf6\xe64@3C\xeef\xdb'O""","{'xmin': -99.62216018782857, 'ymin': 19.265356472496304, 'xmax': -99.62216018782857, 'ymax': 19.265356472496304}",dining and drinking > restaurant > mexican restaurant > taco restaurant,1
52a27d4e498e1c34e4bb887d,Sean Tacos,19.292835,-99.177782,,,,,,,,MX,2013-12-07,2014-04-12,,,,,,,,['4bf58dd8d48988d151941735'],['Dining and Drinking > Restaurant > Mexican Restaurant > Taco Restaurant'],https://foursquare.com/placemakers/review-place/52a27d4e498e1c34e4bb887d,b'\x00\x00\x00\x00\x01\xc0X\xcb`\xc7\xc0\xf4Q@3J\xf7<\x0c\x1f\xc9',"{'xmin': -99.177782, 'ymin': 19.292835, 'xmax': -99.177782, 'ymax': 19.292835}",dining and drinking > restaurant > mexican restaurant > taco restaurant,1
5542f8a0498ef1840029415b,asadero los trompos,18.449641,-96.356975,,Tierra Blanca,"Tierra Blanca, Veracruz",,,,,MX,2015-05-01,2016-03-25,,,,,,,,['4bf58dd8d48988d151941735'],['Dining and Drinking > Restaurant > Mexican Restaurant > Taco Restaurant'],https://foursquare.com/placemakers/review-place/5542f8a0498ef1840029415b,b'\x00\x00\x00\x00\x01\xc0X\x16\xd8\xad\xab\x9fV@2s\x1b\xac-\xf0\xd4',"{'xmin': -96.356975, 'ymin': 18.449641, 'xmax': -96.356975, 'ymax': 18.449641}",dining and drinking > restaurant > mexican restaurant > taco restaurant,1
53baf967498e2d99465ee9b8,Mr. Tacote,19.177321597497052,-96.12976649896041,,,,,,,,MX,2014-07-07,2015-09-29,,,,,,,,['4bf58dd8d48988d151941735'],['Dining and Drinking > Restaurant > Mexican Restaurant > Taco Restaurant'],https://foursquare.com/placemakers/review-place/53baf967498e2d99465ee9b8,b'\x00\x00\x00\x00\x01\xc0X\x08N\x18%I\xb0@3-d\xf2\xbe\x1f\xd3',"{'xmin': -96.12976649896041, 'ymin': 19.177321597497052, 'xmax': -96.12976649896041, 'ymax': 19.177321597497052}",dining and drinking > restaurant > mexican restaurant > taco restaurant,1
56227edf498efb1e8f34fb90,Birrieria López,20.290729822712926,-103.19268740639353,,,,,,,,MX,2015-10-17,2017-01-02,,,,,,,,['4bf58dd8d48988d151941735'],['Dining and Drinking > Restaurant > Mexican Restaurant > Taco Restaurant'],https://foursquare.com/placemakers/review-place/56227edf498efb1e8f34fb90,b'\x00\x00\x00\x00\x01\xc0Y\xccT\xfd\x8f3\xec@4JmE\x08\x86\x1e',"{'xmin': -103.19268740639353, 'ymin': 20.290729822712926, 'xmax': -103.19268740639353, 'ymax': 20.290729822712926}",dining and drinking > restaurant > mexican restaurant > taco restaurant,1
4c3007466f1fef3b5ea9eb3d,Taqueria Los Angeles,20.685662242421085,-101.34842524366731,Blvd. Díaz Ordaz,Irapuato,GTO,,,,,MX,2010-07-04,2025-01-05,,,http://taquerialosangeles.com.mx,,,,,['4bf58dd8d48988d151941735'],['Dining and Drinking > Restaurant > Mexican Restaurant > Taco Restaurant'],https://foursquare.com/placemakers/review-place/4c3007466f1fef3b5ea9eb3d,b'\x00\x00\x00\x00\x01\xc0YVL\x99d\xa9\xb9@4\xaf\x87\x8f\x8bL\xf3',"{'xmin': -101.34842524366731, 'ymin': 20.685662242421085, 'xmax': -101.34842524366731, 'ymax': 20.685662242421085}",dining and drinking > restaurant > mexican restaurant > taco restaurant,1
52b0a423498e3203eaa2f4e6,Tacos el Periférico,19.329101675408964,-99.24178174593357,,,,,,,,MX,2013-12-17,2024-07-25,,,,,,,,['4bf58dd8d48988d151941735'],['Dining and Drinking > Restaurant > Mexican Restaurant > Taco Restaurant'],https://foursquare.com/placemakers/review-place/52b0a423498e3203eaa2f4e6,b'\x00\x00\x00\x00\x01\xc0X\xcfyZ$\xe3|@3T@\x01\xe4\xf0\xb8',"{'xmin': -99.24178174593357, 'ymin': 19.329101675408964, 'xmax': -99.24178174593357, 'ymax': 19.329101675408964}",dining and drinking > restaurant > mexican restaurant > taco restaurant,1
51a17628498e0c5ab0022b8a,Tacos Y Volcanes,19.710011,-101.235638,,,,,,,,MX,2013-05-26,2020-07-04,,,,,,,,['4bf58dd8d48988d151941735'],['Dining and Drinking > Restaurant > Mexican Restaurant > Taco Restaurant'],https://foursquare.com/placemakers/review-place/51a17628498e0c5ab0022b8a,b'\x00\x00\x00\x00\x01\xc0YO\x14\xb1g\xecx@3\xb5\xc3G\xe8\xcc\xde',"{'xmin': -101.235638, 'ymin': 19.710011, 'xmax': -101.235638, 'ymax': 19.710011}",dining and drinking > restaurant > mexican restaurant > taco restaurant,1
50424152e4b0f7ca2c62ad36,Antojitos Lalín Mercado Malibran,19.159699786916647,-96.13725167204049,,,,,,,,MX,2012-09-01,2018-06-17,,,,,,,,['4bf58dd8d48988d151941735'],['Dining and Drinking > Restaurant > Mexican Restaurant > Taco Restaurant'],https://foursquare.com/placemakers/review-place/50424152e4b0f7ca2c62ad36,b'\x00\x00\x00\x00\x01\xc0X\x08\xc8\xbb<\xaf\x0e@3(\xe2\x15\xd1\xfc4',"{'xmin': -96.13725167204049, 'ymin': 19.159699786916647, 'xmax': -96.13725167204049, 'ymax': 19.159699786916647}",dining and drinking > restaurant > mexican restaurant > taco restaurant,1
582829277c74e11cb1dd0b4f,Tacos San Juan de los Lagos,21.130099,-101.655081,Blvd Valtierra,Leon,Guanajuato,,,,,MX,2016-11-13,2023-12-31,,,,,,,,['4bf58dd8d48988d151941735'],['Dining and Drinking > Restaurant > Mexican Restaurant > Taco Restaurant'],https://foursquare.com/placemakers/review-place/582829277c74e11cb1dd0b4f,b'\x00\x00\x00\x00\x01\xc0Yi\xec\xd8\xdb\xce\xc8@5!N+\x06>\x08',"{'xmin': -101.655081, 'ymin': 21.130099, 'xmax': -101.655081, 'ymax': 21.130099}",dining and drinking > restaurant > mexican restaurant > taco restaurant,1
548908b6498ed6f61ac5dafe,Tacos y consomes de Doña Marrha,17.09369081893849,-96.75295653856035,,,,,,,,MX,2014-12-11,2016-09-10,,,,,,,,['4bf58dd8d48988d151941735'],['Dining and Drinking > Restaurant > Mexican Restaurant > Taco Restaurant'],https://foursquare.com/placemakers/review-place/548908b6498ed6f61ac5dafe,b'\x00\x00\x00\x00\x01\xc0X00p\x9f\x1bE@1\x17\xfc\x1f\x1bF\xba',"{'xmin': -96.75295653856035, 'ymin': 17.09369081893849, 'xmax': -96.75295653856035, 'ymax': 17.09369081893849}",dining and drinking > restaurant > mexican restaurant > taco restaurant,1
4f04aef830f8dd7f43670b78,Quesadillas Gaspe,20.543145106573487,-100.82071578644748,"Av Tecnológico, Celaya, GTO",Celaya,Guanajuato,,,,,MX,2012-01-04,2024-07-19,,,,,,,,['4bf58dd8d48988d151941735'],['Dining and Drinking > Restaurant > Mexican Restaurant > Taco Restaurant'],https://foursquare.com/placemakers/review-place/4f04aef830f8dd7f43670b78,b'\x00\x00\x00\x00\x01\xc0Y4\x86\x9b\x81\x86\x95@4\x8b\x0b\x8e\xc5\xb7/',"{'xmin': -100.82071578644748, 'ymin': 20.543145106573487, 'xmax': -100.82071578644748, 'ymax': 20.543145106573487}",dining and drinking > restaurant > mexican restaurant > taco restaurant,1
5a6950cca2a6ce1602850e2e,Tacos Camaleon,19.290808,-99.68834,frijol,Toluca de Lerdo,Estado de México,50100,,,,MX,2018-01-25,2018-01-25,,,,,,,,['4bf58dd8d48988d151941735'],['Dining and Drinking > Restaurant > Mexican Restaurant > Taco Restaurant'],https://foursquare.com/placemakers/review-place/5a6950cca2a6ce1602850e2e,b'\x00\x00\x00\x00\x01\xc0X\xec\r\xc37!\xd5@3Jrd\xa1jH',"{'xmin': -99.68834, 'ymin': 19.290808, 'xmax': -99.68834, 'ymax': 19.290808}",dining and drinking > restaurant > mexican restaurant > taco restaurant,1
5e002ea55f38a20008384d60,Tacos Natividad,19.319331,-99.168192,Zihuatlan,Ciudad de México,CDMX,04369,,,,MX,2019-12-23,2024-07-27,,,,,,,,['4bf58dd8d48988d151941735'],['Dining and Drinking > Restaurant > Mexican Restaurant > Taco Restaurant'],https://foursquare.com/placemakers/review-place/5e002ea55f38a20008384d60,b'\x00\x00\x00\x00\x01\xc0X\xca\xc3\xa8`\xdc\xba@3Q\xbf\xad)\x99V',"{'xmin': -99.168192, 'ymin': 19.319331, 'xmax': -99.168192, 'ymax': 19.319331}",dining and drinking > restaurant > mexican restaurant > taco restaurant,1
51a55f48498e3e98a320bfa3,Takos El Weroü,19.319111,-99.093393,,,,,,,,MX,2013-05-29,2014-05-21,,,,,,,,['4bf58dd8d48988d151941735'],['Dining and Drinking > Restaurant > Mexican Restaurant > Taco Restaurant'],https://foursquare.com/placemakers/review-place/51a55f48498e3e98a320bfa3,"b'\x00\x00\x00\x00\x01\xc0X\xc5\xfa&\xa2+9@3Q\xb1B,\xcb:'","{'xmin': -99.093393, 'ymin': 19.319111, 'xmax': -99.093393, 'ymax': 19.319111}",dining and drinking > restaurant > mexican restaurant > taco restaurant,1
60f8e994cefb7a48a070f1f2,Taqueria “Los Dos Toros”,19.326617,-99.124487,,Ciudad de México,CDMX,04470,,,,MX,2021-07-22,2024-12-12,,,,,,,,['4bf58dd8d48988d151941735'],['Dining and Drinking > Restaurant > Mexican Restaurant > Taco Restaurant'],https://foursquare.com/placemakers/review-place/60f8e994cefb7a48a070f1f2,b'\x00\x00\x00\x00\x01\xc0X\xc7\xf7\x98Rq\xbd@3S\x9d+\xf5QP',"{'xmin': -99.124487, 'ymin': 19.326617, 'xmax': -99.124487, 'ymax': 19.326617}",dining and drinking > restaurant > mexican restaurant > taco restaurant,1
5445c612498eb68f7c8b285c,tacos pesados,19.696326,-101.201562,,,,,,,,MX,2014-10-21,2014-12-20,,,,,,,,['4bf58dd8d48988d151941735'],['Dining and Drinking > Restaurant > Mexican Restaurant > Taco Restaurant'],https://foursquare.com/placemakers/review-place/5445c612498eb68f7c8b285c,b'\x00\x00\x00\x00\x01\xc0YL\xe6dM\x87r@3\xb2Bk\xb5Z\xc0',"{'xmin': -101.201562, 'ymin': 19.696326, 'xmax': -101.201562, 'ymax': 19.696326}",dining and drinking > restaurant > mexican restaurant > taco restaurant,1
4f238438e4b0fd1836e5bc1e,Tacos de la 4,18.46738,-97.40104,,,,,,,,MX,2012-01-28,2016-05-06,,,,,,,,['4bf58dd8d48988d151941735'],['Dining and Drinking > Restaurant > Mexican Restaurant > Taco Restaurant'],https://foursquare.com/placemakers/review-place/4f238438e4b0fd1836e5bc1e,b'\x00\x00\x00\x00\x01\xc0XY\xaa\xa3\xad\x18\xd2@2w\xa676\xcd\xf2',"{'xmin': -97.40104, 'ymin': 18.46738, 'xmax': -97.40104, 'ymax': 18.46738}",dining and drinking > restaurant > mexican restaurant > taco restaurant,1
4f67e479e4b06cd2798b0df1,La Viña,17.656867085487033,-101.5547106011255,,,,,,,,MX,2012-03-20,2017-10-29,,,http://www.lavina.com.mx,,,,,['4bf58dd8d48988d151941735'],['Dining and Drinking > Restaurant > Mexican Restaurant > Taco Restaurant'],https://foursquare.com/placemakers/review-place/4f67e479e4b06cd2798b0df1,b'\x00\x00\x00\x00\x01\xc0Yc\x80`\xe4\xa5\x07@1\xa8(p\xf9\xfcS',"{'xmin': -101.5547106011255, 'ymin': 17.656867085487033, 'xmax': -101.5547106011255, 'ymax': 17.656867085487033}",dining and drinking > restaurant > mexican restaurant > taco restaurant,1
5236006f11d287877a07fe7b,Tacos De Barbacoa,18.943454,-99.233136,,,,,,,,MX,2013-09-15,2020-11-14,,,,,,,,['4bf58dd8d48988d151941735'],['Dining and Drinking > Restaurant > Mexican Restaurant > Taco Restaurant'],https://foursquare.com/placemakers/review-place/5236006f11d287877a07fe7b,b'\x00\x00\x00\x00\x01\xc0X\xce\xeb\xb3A\xe1L@2\xf1\x863\x8bG\xc7',"{'xmin': -99.233136, 'ymin': 18.943454, 'xmax': -99.233136, 'ymax': 18.943454}",dining and drinking > restaurant > mexican restaurant > taco restaurant,1
50bade17e4b0fb1ae3f99a1b,El Rey Del Taco,20.541477,-100.806091,,,,,,,,MX,2012-12-02,2023-11-11,,,,,,,,['4bf58dd8d48988d151941735'],['Dining and Drinking > Restaurant > Mexican Restaurant > Taco Restaurant'],https://foursquare.com/placemakers/review-place/50bade17e4b0fb1ae3f99a1b,b'\x00\x00\x00\x00\x01\xc0Y3\x96\xfe\xb4\xa6e@4\x8a\x9e<\x96\x89D',"{'xmin': -100.806091, 'ymin': 20.541477, 'xmax': -100.806091, 'ymax': 20.541477}",dining and drinking > restaurant > mexican restaurant > taco restaurant,1
50ef333545b0b2ac21ce26a2,La Mestiza Oaxaca,17.079809982034973,-96.70795798301697,Azucenas #817,Oaxaca,Oaxaca,68050,,,,MX,2013-01-10,2021-07-07,,951 502 5547,,,,,lamestizaoaxaca,['4bf58dd8d48988d1c1941735' '4bf58dd8d48988d151941735'],"['Dining and Drinking > Restaurant > Mexican Restaurant'
 'Dining and Drinking > Restaurant > Mexican Restaurant > Taco Restaurant']",https://foursquare.com/placemakers/review-place/50ef333545b0b2ac21ce26a2,b'\x00\x00\x00\x00\x01\xc0X-O/\x00\x00\x00@1\x14nmN\xbc\x0c',"{'xmin': -96.70795798301697, 'ymin': 17.079809982034973, 'xmax': -96.70795798301697, 'ymax': 17.079809982034973}","dining and drinking > restaurant > mexican restaurant, dining and drinking > restaurant > mexican restaurant > taco restaurant",1
517424abe4b0c790e0c456f1,Carnitas González,19.296443939208984,-99.6338119506836,,,,,,,,MX,2013-04-21,2014-05-24,,,,,,,,['4bf58dd8d48988d151941735'],['Dining and Drinking > Restaurant > Mexican Restaurant > Taco Restaurant'],https://foursquare.com/placemakers/review-place/517424abe4b0c790e0c456f1,b'\x00\x00\x00\x00\x01\xc0X\xe8\x90`\x00\x00\x00@3K\xe3\xc0\x00\x00\x00',"{'xmin': -99.6338119506836, 'ymin': 19.296443939208984, 'xmax': -99.6338119506836, 'ymax': 19.296443939208984}",dining and drinking > restaurant > mexican restaurant > taco restaurant,1
5c8c882338f2160025d17565,Taquería Picositos,18.921026,-99.23593,Miguel Hidalgo,Cuernavaca,Morelos,62000,,,,MX,2019-03-16,2020-01-12,,,,,,,,['4bf58dd8d48988d151941735'],['Dining and Drinking > Restaurant > Mexican Restaurant > Taco Restaurant'],https://foursquare.com/placemakers/review-place/5c8c882338f2160025d17565,b'\x00\x00\x00\x00\x01\xc0X\xcf\x19z$\x89L@2\xeb\xc8\\$\xc4\x05',"{'xmin': -99.23593, 'ymin': 18.921026, 'xmax': -99.23593, 'ymax': 18.921026}",dining and drinking > restaurant > mexican restaurant > taco restaurant,1
4cfe877e2d80a14302505dd8,Pacharelas Del Boulevard Food Truck,20.518237460368596,-100.80857276916504,Boulevard,Celaya,GTO,,,,,MX,2010-12-07,2012-06-26,,,,,,,,['4bf58dd8d48988d151941735'],['Dining and Drinking > Restaurant > Mexican Restaurant > Taco Restaurant'],https://foursquare.com/placemakers/review-place/4cfe877e2d80a14302505dd8,b'\x00\x00\x00\x00\x01\xc0Y3\xbf\xa8\x00\x00\x00@4\x84\xab5\xcf\xd8`',"{'xmin': -100.80857276916504, 'ymin': 20.518237460368596, 'xmax': -100.80857276916504, 'ymax': 20.518237460368596}",dining and drinking > restaurant > mexican restaurant > taco restaurant,1
4ee4be5ae4b0b2590d519fec,Barbacoa Garcia Alvirde,19.311855957394325,-99.57040600401145,16 Septiembre,Toluca,Estado de México,50200,,,,MX,2011-12-11,2015-10-14,,,,,,,,['4bf58dd8d48988d151941735'],['Dining and Drinking > Restaurant > Mexican Restaurant > Taco Restaurant'],https://foursquare.com/placemakers/review-place/4ee4be5ae4b0b2590d519fec,b'\x00\x00\x00\x00\x01\xc0X\xe4\x81\x88/*\xf5@3O\xd5\xca\xc2\x12G',"{'xmin': -99.57040600401145, 'ymin': 19.311855957394325, 'xmax': -99.57040600401145, 'ymax': 19.311855957394325}",dining and drinking > restaurant > mexican restaurant > taco restaurant,1
5173f69de4b060af13bc48bb,Paco Tacos De Barbacoa,20.555654679381067,-103.45553726115423,,,,,,,,MX,2013-04-21,2024-07-06,,,,,,,,['4bf58dd8d48988d151941735'],['Dining and Drinking > Restaurant > Mexican Restaurant > Taco Restaurant'],https://foursquare.com/placemakers/review-place/5173f69de4b060af13bc48bb,"b""\x00\x00\x00\x00\x01\xc0Y\xdd'\x85\xc1\xb1\x14@4\x8e?b\x93\xcf\xa1""","{'xmin': -103.45553726115423, 'ymin': 20.555654679381067, 'xmax': -103.45553726115423, 'ymax': 20.555654679381067}",dining and drinking > restaurant > mexican restaurant > taco restaurant,1
56ca77b0cd1086e248e61b4e,Tacos De Cabeza,19.668549,-101.2119,Rinconada La Huerta,Morelia,Michoacán,,,,,MX,2016-02-22,2019-03-06,,,,,,,,['4bf58dd8d48988d151941735'],['Dining and Drinking > Restaurant > Mexican Restaurant > Taco Restaurant'],https://foursquare.com/placemakers/review-place/56ca77b0cd1086e248e61b4e,b'\x00\x00\x00\x00\x01\xc0YM\x8f\xc5\x04\x81o@3\xab&\x06\xfa\xc6\x04',"{'xmin': -101.2119, 'ymin': 19.668549, 'xmax': -101.2119, 'ymax': 19.668549}",dining and drinking > restaurant > mexican restaurant > taco restaurant,1
4dd674f2fa76ad96d10bae9e,Tacos El Focho,21.14423102774783,-101.64301872253418,Blvd. Las Torres,León,Guanajuato,,,,,MX,2011-05-20,2020-07-17,,,,,,,,['4bf58dd8d48988d151941735'],['Dining and Drinking > Restaurant > Mexican Restaurant > Taco Restaurant'],https://foursquare.com/placemakers/review-place/4dd674f2fa76ad96d10bae9e,"b""\x00\x00\x00\x00\x01\xc0Yi'8\x00\x00\x00@5$\xecS\x1b>\xd2""","{'xmin': -101.64301872253418, 'ymin': 21.14423102774783, 'xmax': -101.64301872253418, 'ymax': 21.14423102774783}",dining and drinking > restaurant > mexican restaurant > taco restaurant,1
50d4a62be4b037d7dbaade75,Tacos Toño,20.944759635227715,-101.42090172091436,,Silao,Guanajuato,,,,,MX,2012-12-21,2023-12-21,,,,,,,,['4bf58dd8d48988d151941735'],['Dining and Drinking > Restaurant > Mexican Restaurant > Taco Restaurant'],https://foursquare.com/placemakers/review-place/50d4a62be4b037d7dbaade75,b'\x00\x00\x00\x00\x01\xc0YZ\xf0\r\xc5\x8a\x11@4\xf1\xdb\xc4w\xe2I',"{'xmin': -101.42090172091436, 'ymin': 20.944759635227715, 'xmax': -101.42090172091436, 'ymax': 20.944759635227715}",dining and drinking > restaurant > mexican restaurant > taco restaurant,1
50a2d582e4b0969a01e61821,Tacos Del Chaneque,19.292524,-99.12493,,,,,,,,MX,2012-11-13,2012-11-13,,,,,,,,['4bf58dd8d48988d151941735'],['Dining and Drinking > Restaurant > Mexican Restaurant > Taco Restaurant'],https://foursquare.com/placemakers/review-place/50a2d582e4b0969a01e61821,b'\x00\x00\x00\x00\x01\xc0X\xc7\xfe\xdaf\x12\x84@3J\xe2\xdaUK\x8c',"{'xmin': -99.12493, 'ymin': 19.292524, 'xmax': -99.12493, 'ymax': 19.292524}",dining and drinking > restaurant > mexican restaurant > taco restaurant,1
5832417a26a40755dadff670,"Taqueria ""El rey""",19.324499,-99.143325,,,,,,,,MX,2016-11-21,2016-11-21,,,,,,,,['4bf58dd8d48988d151941735'],['Dining and Drinking > Restaurant > Mexican Restaurant > Taco Restaurant'],https://foursquare.com/placemakers/review-place/5832417a26a40755dadff670,"b'\x00\x00\x00\x00\x01\xc0X\xc9,<\x9e\xec\xc0@3S\x12]\xd0\x95\xaf'","{'xmin': -99.143325, 'ymin': 19.324499, 'xmax': -99.143325, 'ymax': 19.324499}",dining and drinking > restaurant > mexican restaurant > taco restaurant,1
53b5ee20498e7e355f9b7cb0,antojitos club america,19.295628,-99.141379,,,,,,,,MX,2014-07-03,2014-07-03,,,,,,,,['4bf58dd8d48988d151941735'],['Dining and Drinking > Restaurant > Mexican Restaurant > Taco Restaurant'],https://foursquare.com/placemakers/review-place/53b5ee20498e7e355f9b7cb0,b'\x00\x00\x00\x00\x01\xc0X\xc9\x0cZ\x81U\xd6@3K\xaeF\xcf\xc8*',"{'xmin': -99.141379, 'ymin': 19.295628, 'xmax': -99.141379, 'ymax': 19.295628}",dining and drinking > restaurant > mexican restaurant > taco restaurant,1
578d11eb498e19140e9c7637,Tacos de Guisado el Don,19.28498,-99.18665,Corregidora 5-3,Tlalpan,Ciudad de México,14260,,,,MX,2016-07-18,2017-05-10,,,,,,,,['4bf58dd8d48988d151941735'],['Dining and Drinking > Restaurant > Mexican Restaurant > Taco Restaurant'],https://foursquare.com/placemakers/review-place/578d11eb498e19140e9c7637,b'\x00\x00\x00\x00\x01\xc0X\xcb\xf2\x12\xd7s\x19@3H\xf4s\x04\x03\x9b',"{'xmin': -99.18665, 'ymin': 19.28498, 'xmax': -99.18665, 'ymax': 19.28498}",dining and drinking > restaurant > mexican restaurant > taco restaurant,1
5654ee18498e013474e04992,TACOS LOS JEFES,19.274758424879593,-99.12457083396907,Pera Verdiñal 185,Xochimilco,Distrito Federal,16010,,,,MX,2015-11-24,2024-02-03,,,,,,,,['4bf58dd8d48988d151941735'],['Dining and Drinking > Restaurant > Mexican Restaurant > Taco Restaurant'],https://foursquare.com/placemakers/review-place/5654ee18498e013474e04992,b'\x00\x00\x00\x00\x01\xc0X\xc7\xf8\xf7\xf2{\xb0@3FV\x91q(\x88',"{'xmin': -99.12457083396907, 'ymin': 19.274758424879593, 'xmax': -99.12457083396907, 'ymax': 19.274758424879593}",dining and drinking > restaurant > mexican restaurant > taco restaurant,1
4cd894cc51fc8cfa0575ea5d,El Jardin,19.33571254368529,-99.17922023178438,,,,,,,,MX,2010-11-09,2014-08-15,,55 5554 7647,,,,,,['4bf58dd8d48988d151941735'],['Dining and Drinking > Restaurant > Mexican Restaurant > Taco Restaurant'],https://foursquare.com/placemakers/review-place/4cd894cc51fc8cfa0575ea5d,"b'\x00\x00\x00\x00\x01\xc0X\xcbxX""\x92\xe9@3U\xf1A\xdb\xfc<'","{'xmin': -99.17922023178438, 'ymin': 19.33571254368529, 'xmax': -99.17922023178438, 'ymax': 19.33571254368529}",dining and drinking > restaurant > mexican restaurant > taco restaurant,1
