fsq_place_id,name,latitude,longitude,address,locality,region,postcode,admin_region,post_town,po_box,country,date_created,date_refreshed,date_closed,tel,website,email,facebook_id,instagram,twitter,fsq_category_ids,fsq_category_labels,geom,bbox,labels_str,taco_restaurant
c03f28d8291344de31bfeff2,Billares del Valle,,,Avenida Humberto Lobo 520,Monterrey,Nuevo León,66220,,,,MX,2013-03-12,2023-12-06,,81 8378 3327,http://www.billaresdelvalle.com,,,,,['4bf58dd8d48988d151941735' '63be6904847c3692a84b9c1a'],"['Dining and Drinking > Restaurant > Mexican Restaurant > Taco Restaurant'
 'Sports and Recreation > Soccer']",,"{'xmin': None, 'ymin': None, 'xmax': None, 'ymax': None}","dining and drinking > restaurant > mexican restaurant > taco restaurant, sports and recreation > soccer",1
521a4dee11d2ae1cdb359404,Loncheria La Casita,32.50874,-116.926063,,,,,,,,MX,2013-08-25,2020-11-22,,,,,,,,['4bf58dd8d48988d151941735'],['Dining and Drinking > Restaurant > Mexican Restaurant > Taco Restaurant'],b'\x00\x00\x00\x00\x01\xc0];D\x9d\xbe\xc2H@@A\x1edo\x15b',"{'xmin': -116.926063, 'ymin': 32.50874, 'xmax': -116.926063, 'ymax': 32.50874}",dining and drinking > restaurant > mexican restaurant > taco restaurant,1
4d7952b59f6b721e01fc95c0,Tacos Meño,32.51627579082491,-117.02138900756836,Gobernador Lugo,Tijuana,BC,,,,,MX,2011-03-10,2020-11-21,,,,,,,,['4bf58dd8d48988d151941735' '4bf58dd8d48988d1cb941735'],"['Dining and Drinking > Restaurant > Mexican Restaurant > Taco Restaurant'
 'Dining and Drinking > Food Truck']",b'\x00\x00\x00\x00\x01\xc0]A^p\x00\x00\x00@@B\x15S:\xa7\x9f',"{'xmin': -117.02138900756836, 'ymin': 32.51627579082491, 'xmax': -117.02138900756836, 'ymax': 32.51627579082491}","dining and drinking > restaurant > mexican restaurant > taco restaurant, dining and drinking > food truck",1
52b0f56e498eac64f35e2ef5,Tortas El Tribi,32.5402516550888,-117.02936192546593,,,,,,,,MX,2013-12-18,2021-08-16,,664 682 3703,,,,,,['4bf58dd8d48988d151941735' '4bf58dd8d48988d153941735'],"['Dining and Drinking > Restaurant > Mexican Restaurant > Taco Restaurant'
 'Dining and Drinking > Restaurant > Mexican Restaurant > Burrito Restaurant']",b'\x00\x00\x00\x00\x01\xc0]A\xe1\x10\xd7g\xec@@E&\xf7[\x1b\xaf',"{'xmin': -117.02936192546593, 'ymin': 32.5402516550888, 'xmax': -117.02936192546593, 'ymax': 32.5402516550888}","dining and drinking > restaurant > mexican restaurant > taco restaurant, dining and drinking > restaurant > mexican restaurant > burrito restaurant",1
4eae2aef4690615f26e6c908,Asadero Casa Grande,32.485966,-114.78648,Blvd. Obregon,San Luis Rio Colorado,Sonora,,,,,MX,2011-10-31,2020-11-23,,,,,,,,['4bf58dd8d48988d151941735'],['Dining and Drinking > Restaurant > Mexican Restaurant > Taco Restaurant'],"b'\x00\x00\x00\x00\x01\xc0\\\xb2U\xb05\xbdQ@@>4""F{\xe5'","{'xmin': -114.78648, 'ymin': 32.485966, 'xmax': -114.78648, 'ymax': 32.485966}",dining and drinking > restaurant > mexican restaurant > taco restaurant,1
550a0ce9498e7677bf1701e8,Birrieria Olvera,32.630925,-115.423063,,,,,,,,MX,2015-03-18,2021-08-11,,,,,,,,['4bf58dd8d48988d151941735'],['Dining and Drinking > Restaurant > Mexican Restaurant > Taco Restaurant'],b'\x00\x00\x00\x00\x01\xc0\\\xdb\x13v\xd5Is@@P\xc2&\x80\x9dI',"{'xmin': -115.423063, 'ymin': 32.630925, 'xmax': -115.423063, 'ymax': 32.630925}",dining and drinking > restaurant > mexican restaurant > taco restaurant,1
4cf9ebd3084f548165447809,Tacos Sonora,32.521337046993565,-117.12021710154782,Paseo Playas esquina Paseo Aztecas,Tijuana,BC,,,,,MX,2010-12-04,2023-12-20,,664 631 8036,,,,,,['4bf58dd8d48988d151941735'],['Dining and Drinking > Restaurant > Mexican Restaurant > Taco Restaurant'],"b'\x00\x00\x00\x00\x01\xc0]G\xb1\xa3\x11\xe4W@@B\xbb,\x1f\x83\xea'","{'xmin': -117.12021710154782, 'ymin': 32.521337046993565, 'xmax': -117.12021710154782, 'ymax': 32.521337046993565}",dining and drinking > restaurant > mexican restaurant > taco restaurant,1
5547ea61498e804debec0b5b,"Tacos ""El Sucio""",32.5121739459397,-116.998104577122,,,,,,,,MX,2015-05-04,2021-08-14,,,,,,,,['4bf58dd8d48988d151941735'],['Dining and Drinking > Restaurant > Mexican Restaurant > Taco Restaurant'],b'\x00\x00\x00\x00\x01\xc0]?\xe0\xf2\x05.\x86@@A\x8e\xeau\xd6O',"{'xmin': -116.998104577122, 'ymin': 32.5121739459397, 'xmax': -116.998104577122, 'ymax': 32.5121739459397}",dining and drinking > restaurant > mexican restaurant > taco restaurant,1
4f6cee656d865b03fc4f8d46,Tacos Virreyes,32.617508569025325,-115.52176594734192,Río Danubio,Mexicali,Baja California,21190,,,,MX,2012-03-23,2020-11-25,,,,,,,,['4bf58dd8d48988d151941735'],['Dining and Drinking > Restaurant > Mexican Restaurant > Taco Restaurant'],b'\x00\x00\x00\x00\x01\xc0\\\xe1d\x9d\x00\x00\x00@@O\n\x85R{U',"{'xmin': -115.52176594734192, 'ymin': 32.617508569025325, 'xmax': -115.52176594734192, 'ymax': 32.617508569025325}",dining and drinking > restaurant > mexican restaurant > taco restaurant,1
4f92274ee4b034eb654d16e3,Los Poblanos,32.284231956913736,-115.10375978840298,,,,,,,,MX,2012-04-21,2020-11-23,,,,,,,,['4bf58dd8d48988d1cb941735' '4bf58dd8d48988d151941735'],"['Dining and Drinking > Food Truck'
 'Dining and Drinking > Restaurant > Mexican Restaurant > Taco Restaurant']",b'\x00\x00\x00\x00\x01\xc0\\\xc6\xa4\x00\x18u*@@$a\xb6w\xb6\x17',"{'xmin': -115.10375978840298, 'ymin': 32.284231956913736, 'xmax': -115.10375978840298, 'ymax': 32.284231956913736}","dining and drinking > food truck, dining and drinking > restaurant > mexican restaurant > taco restaurant",1
4e1fe05f1f6effe84f610d1c,Tacos De Asadada,31.873433540586113,-116.61058680169354,Reforma,Ensenada,,,,,,MX,2011-07-15,2020-11-30,,,,,,,,['4bf58dd8d48988d151941735'],['Dining and Drinking > Restaurant > Mexican Restaurant > Taco Restaurant'],"b""\x00\x00\x00\x00\x01\xc0]'\x13\xda\xaa)'@?\xdf\x99W,\x0b\xfe""","{'xmin': -116.61058680169354, 'ymin': 31.873433540586113, 'xmax': -116.61058680169354, 'ymax': 31.873433540586113}",dining and drinking > restaurant > mexican restaurant > taco restaurant,1
4e7e4a5830f814922bc4c96f,Mariscos La Playita,32.508106634468085,-116.93051588038855,,Tijuana,Baja California,,,,,MX,2011-09-24,2020-11-26,,,,,,,,['4bf58dd8d48988d151941735'],['Dining and Drinking > Restaurant > Mexican Restaurant > Taco Restaurant'],b'\x00\x00\x00\x00\x01\xc0];\x8d\x92z\xab\\@@A\t\xa3`\xf5\xe5',"{'xmin': -116.93051588038855, 'ymin': 32.508106634468085, 'xmax': -116.93051588038855, 'ymax': 32.508106634468085}",dining and drinking > restaurant > mexican restaurant > taco restaurant,1
5c2435311ffe97002c1e45ab,Tacos Oaxaca,32.65271,-115.4243,,Mexicali,Baja California,21250,,,,MX,2018-12-27,2020-11-22,,,,,,,,['4bf58dd8d48988d151941735'],['Dining and Drinking > Restaurant > Mexican Restaurant > Taco Restaurant'],"b""\x00\x00\x00\x00\x01\xc0\\\xdb'\xbb/\xecW@@S\x8c\x00S\xe2\xd6""","{'xmin': -115.4243, 'ymin': 32.65271, 'xmax': -115.4243, 'ymax': 32.65271}",dining and drinking > restaurant > mexican restaurant > taco restaurant,1
4e731d1fa8095a7c4222b7f8,Tacos El Marrano,32.50593185424805,-116.91741180419922,,,,,,,,MX,2011-09-16,2020-11-30,,,,,,,,['4bf58dd8d48988d151941735'],['Dining and Drinking > Restaurant > Mexican Restaurant > Taco Restaurant'],b'\x00\x00\x00\x00\x01\xc0]:\xb6\xe0\x00\x00\x00@@@\xc2`\x00\x00\x00',"{'xmin': -116.91741180419922, 'ymin': 32.50593185424805, 'xmax': -116.91741180419922, 'ymax': 32.50593185424805}",dining and drinking > restaurant > mexican restaurant > taco restaurant,1
50ccbc25e4b0c28fc8f5178e,Tacos de Birria Alex,32.392039,-117.055464,,,,,,,,MX,2012-12-15,2021-08-12,,,,,,,,['4bf58dd8d48988d151941735'],['Dining and Drinking > Restaurant > Mexican Restaurant > Taco Restaurant'],b'\x00\x00\x00\x00\x01\xc0]C\x8c\xb8\xe0\x86\xbe@@2.U}\xe0\xd6',"{'xmin': -117.055464, 'ymin': 32.392039, 'xmax': -117.055464, 'ymax': 32.392039}",dining and drinking > restaurant > mexican restaurant > taco restaurant,1
66b3df290798371ebbb87e79,Make Taco Rosarito,32.342007,-117.055844,,Rosarito,B.C.,22707,,,,MX,2024-08-07,2024-08-07,,,,,,,,['4bf58dd8d48988d151941735'],['Dining and Drinking > Restaurant > Mexican Restaurant > Taco Restaurant'],b'\x00\x00\x00\x00\x01\xc0]C\x92\xf2\xb6ka@@+\xc6\xe2\xa8\x00e',"{'xmin': -117.055844, 'ymin': 32.342007, 'xmax': -117.055844, 'ymax': 32.342007}",dining and drinking > restaurant > mexican restaurant > taco restaurant,1
3fb6970e82a14716ca4057fe,Asadero los Molcajetes,32.479717,-114.777736,Benito Juarez Garcia 500,San Luis Río Colorado,Sonora,83449,,,,MX,2013-09-18,2023-12-06,,653 536 9961,,,,,,['4bf58dd8d48988d151941735'],['Dining and Drinking > Restaurant > Mexican Restaurant > Taco Restaurant'],b'\x00\x00\x00\x00\x01\xc0\\\xb1\xc6m7;\x00@@=g]\xdd*\xe9',"{'xmin': -114.777736, 'ymin': 32.479717, 'xmax': -114.777736, 'ymax': 32.479717}",dining and drinking > restaurant > mexican restaurant > taco restaurant,1
4eff5cbc4690f6ece9cc0ea7,Tacos al vapor veronica,32.64606720764307,-115.48522727711071,,,,,,,,MX,2011-12-31,2021-08-12,,,,,,,,['4bf58dd8d48988d1cb941735' '4bf58dd8d48988d151941735'],"['Dining and Drinking > Food Truck'
 'Dining and Drinking > Restaurant > Mexican Restaurant > Taco Restaurant']",b'\x00\x00\x00\x00\x01\xc0\\\xdf\r\xf6\xb5\x94T@@R\xb2T\x8b\xec*',"{'xmin': -115.48522727711071, 'ymin': 32.64606720764307, 'xmax': -115.48522727711071, 'ymax': 32.64606720764307}","dining and drinking > food truck, dining and drinking > restaurant > mexican restaurant > taco restaurant",1
4dae54c2cda1ea0bb03c983d,Tacos El Zurdo,32.3640406925712,-117.05961143605809,,Rosarito,BC,,,,,MX,2011-04-20,2020-11-22,,,,,,,,['4bf58dd8d48988d151941735'],['Dining and Drinking > Restaurant > Mexican Restaurant > Taco Restaurant'],b'\x00\x00\x00\x00\x01\xc0]C\xd0\xac|\x15\x93@@.\x98\xe2\xaa\x80\xd5',"{'xmin': -117.05961143605809, 'ymin': 32.3640406925712, 'xmax': -117.05961143605809, 'ymax': 32.3640406925712}",dining and drinking > restaurant > mexican restaurant > taco restaurant,1
669c8dbced66134138608e89,Taquería Mazatleco,32.658524,-115.434074,,Mexicali,Baja California,21200,,,,MX,2024-07-21,2024-07-21,,,,,,,,['4bf58dd8d48988d151941735'],['Dining and Drinking > Restaurant > Mexican Restaurant > Taco Restaurant'],b'\x00\x00\x00\x00\x01\xc0\\\xdb\xc7\xdeP\x82\xcf@@TJ\x83\xb1\xd0\xc8',"{'xmin': -115.434074, 'ymin': 32.658524, 'xmax': -115.434074, 'ymax': 32.658524}",dining and drinking > restaurant > mexican restaurant > taco restaurant,1
4e77b596483bc8fe836ec99e,Tacos Gaby,32.523231089547295,-117.03961525320689,Heroes de Granadita s/n,Tijuana,B.C. Mx,22055,,,,MX,2011-09-19,2020-11-24,,,,,,,,['4bf58dd8d48988d151941735'],['Dining and Drinking > Restaurant > Mexican Restaurant > Taco Restaurant'],b'\x00\x00\x00\x00\x01\xc0]B\x89\x0ej<\x91@@B\xf9<\x80\xed\x94',"{'xmin': -117.03961525320689, 'ymin': 32.523231089547295, 'xmax': -117.03961525320689, 'ymax': 32.523231089547295}",dining and drinking > restaurant > mexican restaurant > taco restaurant,1
58ded1f78ab03f406b5fa2a3,The Tijuana Taco Company,32.431774,-117.02377,Monferrato,La Joya,Baja California,22664,,,,MX,2017-03-31,2020-11-22,,,,,,,,['4bf58dd8d48988d151941735'],['Dining and Drinking > Restaurant > Mexican Restaurant > Taco Restaurant'],b'\x00\x00\x00\x00\x01\xc0]A\x85r\x9b(\x0f@@7D^\xd4\xa1\xad',"{'xmin': -117.02377, 'ymin': 32.431774, 'xmax': -117.02377, 'ymax': 32.431774}",dining and drinking > restaurant > mexican restaurant > taco restaurant,1
560f491f498ee6bcb9ca803d,Prontoo Taco,32.625794,-115.387748,,,,,,,,MX,2015-10-03,2021-08-11,,,,,,,,['4bf58dd8d48988d151941735'],['Dining and Drinking > Restaurant > Mexican Restaurant > Taco Restaurant'],b'\x00\x00\x00\x00\x01\xc0\\\xd8\xd0\xdc\xfc\xc5\xb9@@P\x1a\x04\x8e\x04:',"{'xmin': -115.387748, 'ymin': 32.625794, 'xmax': -115.387748, 'ymax': 32.625794}",dining and drinking > restaurant > mexican restaurant > taco restaurant,1
4fabe5f4e4b01a059d587aea,Tacos Chowis,32.50426,-116.96604,Nevado de Toluca 850,Tijuana,Baja California,22105,,,,MX,2012-05-10,2023-07-02,,,,,,,,['4bf58dd8d48988d151941735'],['Dining and Drinking > Restaurant > Mexican Restaurant > Taco Restaurant'],b'\x00\x00\x00\x00\x01\xc0]=\xd3\x99o\xa8/@@@\x8b\x97xW*',"{'xmin': -116.96604, 'ymin': 32.50426, 'xmax': -116.96604, 'ymax': 32.50426}",dining and drinking > restaurant > mexican restaurant > taco restaurant,1
5deb09e42b4fa100083f9ac9,tacococho,21.890217647626674,-102.2991145402193,250 jesus bernal col del carmen,aguascalientes,aguascalientes,20050,,,,MX,2019-12-07,2020-11-30,,52492218991,,,,,,['4bf58dd8d48988d151941735'],['Dining and Drinking > Restaurant > Mexican Restaurant > Taco Restaurant'],b'\x00\x00\x00\x00\x01\xc0Y\x93$\xb1P\x00\x00@5\xe3\xe5M\xc2\xe0\xed',"{'xmin': -102.2991145402193, 'ymin': 21.890217647626674, 'xmax': -102.2991145402193, 'ymax': 21.890217647626674}",dining and drinking > restaurant > mexican restaurant > taco restaurant,1
570077f7cd105276e0f4c486,Tacos Doña Mayico,19.242798,-104.56978,,,,,,,,MX,2016-04-03,2021-08-14,,,,,,,,['4bf58dd8d48988d151941735'],['Dining and Drinking > Restaurant > Mexican Restaurant > Taco Restaurant'],b'\x00\x00\x00\x00\x01\xc0Z$wF\x88z\x8d@3>(\x02}\x88\xc2',"{'xmin': -104.56978, 'ymin': 19.242798, 'xmax': -104.56978, 'ymax': 19.242798}",dining and drinking > restaurant > mexican restaurant > taco restaurant,1
8acdb12e17404053d154085f,Taqueria Porchis,20.673044,-103.308099,Emilio Rabaza 62,Guadalajara,Jalisco,44730,,,,MX,2013-04-05,2024-05-26,,33 3649 0553,,,,,,['4bf58dd8d48988d151941735'],['Dining and Drinking > Restaurant > Mexican Restaurant > Taco Restaurant'],b'\x00\x00\x00\x00\x01\xc0Y\xd3\xb7\xe4\xde;\x8a@4\xacL\x9c\x90\xc4\xdf',"{'xmin': -103.308099, 'ymin': 20.673044, 'xmax': -103.308099, 'ymax': 20.673044}",dining and drinking > restaurant > mexican restaurant > taco restaurant,1
52a2d98a11d282859efef792,chepes,20.730161634880144,-103.42112560117471,,,,,,,,MX,2013-12-07,2021-08-14,,,,,,,,['4bf58dd8d48988d151941735'],['Dining and Drinking > Restaurant > Mexican Restaurant > Taco Restaurant'],b'\x00\x00\x00\x00\x01\xc0Y\xda\xf3\xb8\xcb#p@4\xba\xeb\xdfv\x9a\xa7',"{'xmin': -103.42112560117471, 'ymin': 20.730161634880144, 'xmax': -103.42112560117471, 'ymax': 20.730161634880144}",dining and drinking > restaurant > mexican restaurant > taco restaurant,1
5789b84f498e908e5cb86c24,Tacos Beer-Rones,22.142506,-101.00123,,,,,,,,MX,2016-07-16,2021-08-17,,,,,,,,['4bf58dd8d48988d151941735'],['Dining and Drinking > Restaurant > Mexican Restaurant > Taco Restaurant'],b'\x00\x00\x00\x00\x01\xc0Y@\x14&\xfeq\x8b@6${E\xf1{\xd9',"{'xmin': -101.00123, 'ymin': 22.142506, 'xmax': -101.00123, 'ymax': 22.142506}",dining and drinking > restaurant > mexican restaurant > taco restaurant,1
5a84631d82a7501a94e8dd25,Tacos Lupita y Jose,21.8983,-102.28846,20 de Nov.,Aguascalientes,Aguascalientes,20030,,,,MX,2018-02-14,2020-11-22,,,,,,,,['4bf58dd8d48988d151941735'],['Dining and Drinking > Restaurant > Mexican Restaurant > Taco Restaurant'],b'\x00\x00\x00\x00\x01\xc0Y\x92v \xee\x8d\x11@5\xe5\xf6\xfd!\xff.',"{'xmin': -102.28846, 'ymin': 21.8983, 'xmax': -102.28846, 'ymax': 21.8983}",dining and drinking > restaurant > mexican restaurant > taco restaurant,1
532b3890498ed71080622354,Papitacos,22.153531202204977,-100.9728766012098,Los Bravo #516 Zona Centro,San Luis Potosí,San Luis Potosí,78000,,,,MX,2014-03-20,2020-11-21,,,,,,,papitacoss,['4bf58dd8d48988d151941735'],['Dining and Drinking > Restaurant > Mexican Restaurant > Taco Restaurant'],"b""\x00\x00\x00\x00\x01\xc0Y>C\x9c8OX@6'M\xd2$b\xcd""","{'xmin': -100.9728766012098, 'ymin': 22.153531202204977, 'xmax': -100.9728766012098, 'ymax': 22.153531202204977}",dining and drinking > restaurant > mexican restaurant > taco restaurant,1
50d809e7e4b004dce784db6c,Taqueria Chava,20.43005270276275,-101.72408020161629,,,,,,,,MX,2012-12-24,2021-08-16,,,,,,,,['4bf58dd8d48988d151941735'],['Dining and Drinking > Restaurant > Mexican Restaurant > Taco Restaurant'],b'\x00\x00\x00\x00\x01\xc0YnWT|g\xe0@4n\x17\xef\x15\xec$',"{'xmin': -101.72408020161629, 'ymin': 20.43005270276275, 'xmax': -101.72408020161629, 'ymax': 20.43005270276275}",dining and drinking > restaurant > mexican restaurant > taco restaurant,1
614190215ba53577d4bfb7d2,El Taco Con Papa,20.63483,-103.297808,Francisco silva Romero 327,Tlaquepaque,JAL,45540,,,,MX,2021-09-15,2021-09-15,,,,,,,,['4bf58dd8d48988d151941735'],['Dining and Drinking > Restaurant > Mexican Restaurant > Taco Restaurant'],b'\x00\x00\x00\x00\x01\xc0Y\xd3\x0fII\x1f.@4\xa2\x848\x08\x85\n',"{'xmin': -103.297808, 'ymin': 20.63483, 'xmax': -103.297808, 'ymax': 20.63483}",dining and drinking > restaurant > mexican restaurant > taco restaurant,1
4be24052b02ec9b68caf4cc0,Tacos Rafa,22.145608803803235,-101.01894876057331,Rio Kennedy,San Luis Potosí,San Luis Potosí,78210,,,,MX,2010-05-06,2020-11-25,2020-09-30,,,,,,,['4bf58dd8d48988d151941735' '4bf58dd8d48988d1cb941735'],"['Dining and Drinking > Restaurant > Mexican Restaurant > Taco Restaurant'
 'Dining and Drinking > Food Truck']",b'\x00\x00\x00\x00\x01\xc0YA6t\xdc\xbd\x93@6%F\x9eZX6',"{'xmin': -101.01894876057331, 'ymin': 22.145608803803235, 'xmax': -101.01894876057331, 'ymax': 22.145608803803235}","dining and drinking > restaurant > mexican restaurant > taco restaurant, dining and drinking > food truck",1
4f92e13ce4b0eba95164c196,Tacos Los Muchachos,21.142617140672602,-101.68459531049973,,,,,,,,MX,2012-04-21,2021-08-11,,,,,,,,['4bf58dd8d48988d151941735'],['Dining and Drinking > Restaurant > Mexican Restaurant > Taco Restaurant'],b'\x00\x00\x00\x00\x01\xc0Yk\xd0h\xd9e\xd8@5$\x82\x8e\x93\t\xb1',"{'xmin': -101.68459531049973, 'ymin': 21.142617140672602, 'xmax': -101.68459531049973, 'ymax': 21.142617140672602}",dining and drinking > restaurant > mexican restaurant > taco restaurant,1
53ef8e2a498eeae4846ed110,Tacos de Barbacoa La Cabaña,20.635408348212017,-103.32087793962671,Río La Paz,Guadalajara,Jalisco,,,,,MX,2014-08-16,2021-08-17,,,,,,,,['4bf58dd8d48988d151941735'],['Dining and Drinking > Restaurant > Mexican Restaurant > Taco Restaurant'],b'\x00\x00\x00\x00\x01\xc0Y\xd4\x89C\xa0-\x18@4\xa2\xaa\x1f\x1b-\x0e',"{'xmin': -103.32087793962671, 'ymin': 20.635408348212017, 'xmax': -103.32087793962671, 'ymax': 20.635408348212017}",dining and drinking > restaurant > mexican restaurant > taco restaurant,1
61620dfe906fa92a090b3c33,Ricos Tacos Moy,20.674786,-101.34539,,Irapuato,Guanajuato,36500,,,,MX,2021-10-09,2021-10-09,,,,,,,,['4bf58dd8d48988d151941735'],['Dining and Drinking > Restaurant > Mexican Restaurant > Taco Restaurant'],b'\x00\x00\x00\x00\x01\xc0YV\x1a\xde\xa8\x97c@4\xac\xbe\xc6y\xccu',"{'xmin': -101.34539, 'ymin': 20.674786, 'xmax': -101.34539, 'ymax': 20.674786}",dining and drinking > restaurant > mexican restaurant > taco restaurant,1
57b5df11498e7942c0b7d43a,"Tacos ""El Cholo""",21.152626,-101.72929,Prolongación Campestre,León,Guanajuato,,,,,MX,2016-08-18,2020-11-24,,,,,,,,['4bf58dd8d48988d151941735'],['Dining and Drinking > Restaurant > Mexican Restaurant > Taco Restaurant'],"b""\x00\x00\x00\x00\x01\xc0Yn\xac\xaf\xf6\xd31@5'\x12\x7f^\x84\xf1""","{'xmin': -101.72929, 'ymin': 21.152626, 'xmax': -101.72929, 'ymax': 21.152626}",dining and drinking > restaurant > mexican restaurant > taco restaurant,1
ba968746a66f40115fea1d5c,Taqueria el Zully,21.108728,-101.686788,Pino Suarez 1145,León,Guanajuato,37390,,,,MX,2013-03-29,2023-12-06,,477 211 0468,,,,,,['4bf58dd8d48988d151941735'],['Dining and Drinking > Restaurant > Mexican Restaurant > Taco Restaurant'],b'\x00\x00\x00\x00\x01\xc0Yk\xf4U\xa7\xd2B@5\x1b\xd5\x99$(\xd4',"{'xmin': -101.686788, 'ymin': 21.108728, 'xmax': -101.686788, 'ymax': 21.108728}",dining and drinking > restaurant > mexican restaurant > taco restaurant,1
533393eb11d219ed07920332,El Rincón del Meme,20.512263,-100.799411,,,,,,,,MX,2014-03-27,2021-08-14,,,,,,,,['4bf58dd8d48988d151941735'],['Dining and Drinking > Restaurant > Mexican Restaurant > Taco Restaurant'],b'\x00\x00\x00\x00\x01\xc0Y3)\x8c\xc1D\x03@4\x83#\xaa\xff\xf3k',"{'xmin': -100.799411, 'ymin': 20.512263, 'xmax': -100.799411, 'ymax': 20.512263}",dining and drinking > restaurant > mexican restaurant > taco restaurant,1
5389f546498ebf727016b60c,Birria Don Javi,20.777145,-103.455794,,,,,,,,MX,2014-05-31,2021-08-15,,,,,,,,['4bf58dd8d48988d151941735'],['Dining and Drinking > Restaurant > Mexican Restaurant > Taco Restaurant'],b'\x00\x00\x00\x00\x01\xc0Y\xdd+\xba\x98\xed\xa2@4\xc6\xf2\xf9\x87?\xfb',"{'xmin': -103.455794, 'ymin': 20.777145, 'xmax': -103.455794, 'ymax': 20.777145}",dining and drinking > restaurant > mexican restaurant > taco restaurant,1
53f24d01498e0cce144f9c2a,Taqueria El Vaquero,22.1033,-100.957188,Prolongación Calzada de Guadalupe,,,,,,,MX,2014-08-18,2021-08-12,,,,,,,,['4bf58dd8d48988d151941735'],['Dining and Drinking > Restaurant > Mexican Restaurant > Taco Restaurant'],b'\x00\x00\x00\x00\x01\xc0Y=B\x91u\x07\xea@6\x1aq\xdei\xadC',"{'xmin': -100.957188, 'ymin': 22.1033, 'xmax': -100.957188, 'ymax': 22.1033}",dining and drinking > restaurant > mexican restaurant > taco restaurant,1
4f5eb76be4b0e5574b39c125,Los Agachados,22.151971,-100.973876,,,,,,,,MX,2012-03-13,2021-08-16,,,,,,,,['4bf58dd8d48988d151941735'],['Dining and Drinking > Restaurant > Mexican Restaurant > Taco Restaurant'],b'\x00\x00\x00\x00\x01\xc0Y>S\xfc\x00\x96\xff@6&\xe7\x92J\xf0\xbf',"{'xmin': -100.973876, 'ymin': 22.151971, 'xmax': -100.973876, 'ymax': 22.151971}",dining and drinking > restaurant > mexican restaurant > taco restaurant,1
530e41ba498e2e4af344e81a,Tacos Martin's,20.694387262986343,-101.36024147405793,Blvd. Arandas #825a,Irapuato,Guanajuato,,,,,MX,2014-02-26,2023-12-20,,462 590 9657,,,,,,['4bf58dd8d48988d151941735'],['Dining and Drinking > Restaurant > Mexican Restaurant > Taco Restaurant'],b'\x00\x00\x00\x00\x01\xc0YW\x0e2Aow@4\xb1\xc3]\x19I\t',"{'xmin': -101.36024147405793, 'ymin': 20.694387262986343, 'xmax': -101.36024147405793, 'ymax': 20.694387262986343}",dining and drinking > restaurant > mexican restaurant > taco restaurant,1
530ce311498e399719901a34,Tortas Don Pancho,21.3693790435791,-101.90892791748047,,,,,,,,MX,2014-02-25,2021-08-15,,,,,,,,['4bf58dd8d48988d151941735'],['Dining and Drinking > Restaurant > Mexican Restaurant > Taco Restaurant'],b'\x00\x00\x00\x00\x01\xc0Yz+\xe0\x00\x00\x00@5^\x8f\xa0\x00\x00\x00',"{'xmin': -101.90892791748047, 'ymin': 21.3693790435791, 'xmax': -101.90892791748047, 'ymax': 21.3693790435791}",dining and drinking > restaurant > mexican restaurant > taco restaurant,1
4f470090e4b0e4755b3d3326,Tacos Los Portales,20.662567637527307,-105.23090552450807,,,,,,,,MX,2012-02-24,2021-08-13,,,,,,,,['4bf58dd8d48988d151941735'],['Dining and Drinking > Restaurant > Mexican Restaurant > Taco Restaurant'],"b""\x00\x00\x00\x00\x01\xc0ZN\xc7'\xf7\x0e\x96@4\xa9\x9e\x08^\x91Y""","{'xmin': -105.23090552450807, 'ymin': 20.662567637527307, 'xmax': -105.23090552450807, 'ymax': 20.662567637527307}",dining and drinking > restaurant > mexican restaurant > taco restaurant,1
50390832e4b0307ba37563b6,Carnitas Sahuayo (CONALEP),19.236955903660455,-103.7071717259037,,,,,,,,MX,2012-08-25,2023-12-20,,312 314 2188,,,,,,['4bf58dd8d48988d151941735'],['Dining and Drinking > Restaurant > Mexican Restaurant > Taco Restaurant'],b'\x00\x00\x00\x00\x01\xc0Y\xedBM2\xdac@3<\xa9$`\xd0\xd7',"{'xmin': -103.7071717259037, 'ymin': 19.236955903660455, 'xmax': -103.7071717259037, 'ymax': 19.236955903660455}",dining and drinking > restaurant > mexican restaurant > taco restaurant,1
5f5110bda878b571b221d1a3,Carnitas Avenida,21.945768,-102.3296,Blvd. Paseo de los Chicahuales,Jesús María,Aguascalientes,,,,,MX,2020-09-03,2020-11-24,,,,,,,,['4bf58dd8d48988d151941735'],['Dining and Drinking > Restaurant > Mexican Restaurant > Taco Restaurant'],b'\x00\x00\x00\x00\x01\xc0Y\x95\x18*\x990\xbe@5\xf2\x1d\xda\x05\x9at',"{'xmin': -102.3296, 'ymin': 21.945768, 'xmax': -102.3296, 'ymax': 21.945768}",dining and drinking > restaurant > mexican restaurant > taco restaurant,1
4d955e049079b1f7a548e009,El Tacon Steak,20.65262,-103.39521,Mariano Otero,Guadalajara,JAL,,,,,MX,2011-04-01,2021-08-10,,,,,,,,['4bf58dd8d48988d151941735'],['Dining and Drinking > Restaurant > Mexican Restaurant > Taco Restaurant'],"b'\x00\x00\x00\x00\x01\xc0Y\xd9K\x1e\xe2CW@4\xa7\x12\x1a\xb4\xb7,'","{'xmin': -103.39521, 'ymin': 20.65262, 'xmax': -103.39521, 'ymax': 20.65262}",dining and drinking > restaurant > mexican restaurant > taco restaurant,1
f23dc6711dd94119a2a9214f,Venta de Tacos,21.866899,-102.303473,Avenida de la Convencion Sur 821,Aguascalientes,Aguascalientes,20230,,,,MX,2010-11-04,2023-12-06,,,,,,,,['4bf58dd8d48988d151941735'],['Dining and Drinking > Restaurant > Mexican Restaurant > Taco Restaurant'],b'\x00\x00\x00\x00\x01\xc0Y\x93l\x1a\x04\x8e\x04@5\xdd\xed\x17\xc5\xefc',"{'xmin': -102.303473, 'ymin': 21.866899, 'xmax': -102.303473, 'ymax': 21.866899}",dining and drinking > restaurant > mexican restaurant > taco restaurant,1
4e48894452b1bac0d992dd95,Tacos Los Güeros,21.156258148117935,-101.68661867190981,,León de Los Aldama,Guanajuato,,,,,MX,2011-08-15,2020-11-23,,,,,,,,['4bf58dd8d48988d151941735'],['Dining and Drinking > Restaurant > Mexican Restaurant > Taco Restaurant'],b'\x00\x00\x00\x00\x01\xc0Yk\xf1\x8fq+=@5(\x00\x88\xb3\xe6j',"{'xmin': -101.68661867190981, 'ymin': 21.156258148117935, 'xmax': -101.68661867190981, 'ymax': 21.156258148117935}",dining and drinking > restaurant > mexican restaurant > taco restaurant,1
5c8b0d76e47b46002c4ecc2c,Tacos Boye,20.641399,-103.371259,,Guadalajara,JAL,44930,,,,MX,2019-03-15,2021-08-14,,,,,,,,['4bf58dd8d48988d151941735' '4bf58dd8d48988d1cb941735'],"['Dining and Drinking > Restaurant > Mexican Restaurant > Taco Restaurant'
 'Dining and Drinking > Food Truck']",b'\x00\x00\x00\x00\x01\xc0Y\xd7\xc2\xb5\x1b\xd6\x1f@4\xa42\xb9\x90\xaf\xe6',"{'xmin': -103.371259, 'ymin': 20.641399, 'xmax': -103.371259, 'ymax': 20.641399}","dining and drinking > restaurant > mexican restaurant > taco restaurant, dining and drinking > food truck",1
6519ac809e78313885966b7d,Birreria EL SABIR DEL BORREGO,21.937275,-102.281046,,Aguascalientes,Ags.,20126,,,,MX,2023-10-01,2023-10-01,,,,,,,,['4bf58dd8d48988d151941735'],['Dining and Drinking > Restaurant > Mexican Restaurant > Taco Restaurant'],b'\x00\x00\x00\x00\x01\xc0Y\x91\xfc\xa8\\\xaa\xfc@5\xef\xf1A [\xc0',"{'xmin': -102.281046, 'ymin': 21.937275, 'xmax': -102.281046, 'ymax': 21.937275}",dining and drinking > restaurant > mexican restaurant > taco restaurant,1
505d2c9de4b0236a274b2e2a,Tacos Nick,20.388830428130074,-101.18156509474751,Carranza,Valle De Santiago,Guanajuato,38400,,,,MX,2012-09-22,2020-11-23,,,,,,,,['4bf58dd8d48988d151941735'],['Dining and Drinking > Restaurant > Mexican Restaurant > Taco Restaurant'],b'\x00\x00\x00\x00\x01\xc0YK\x9e\xc34\x02I@4c\x8ad\x14\x82#',"{'xmin': -101.18156509474751, 'ymin': 20.388830428130074, 'xmax': -101.18156509474751, 'ymax': 20.388830428130074}",dining and drinking > restaurant > mexican restaurant > taco restaurant,1
540dd6d7498e8ec6896b8fab,gorditas  apaseo,20.54020826571697,-100.70298143531575,,,,,,,,MX,2014-09-08,2020-11-30,,,,,,,,['4bf58dd8d48988d151941735'],['Dining and Drinking > Restaurant > Mexican Restaurant > Taco Restaurant'],"b'\x00\x00\x00\x00\x01\xc0Y,\xfd\xa5\xd8\x98\x15@4\x8aK\x16\xc2H\x84'","{'xmin': -100.70298143531575, 'ymin': 20.54020826571697, 'xmax': -100.70298143531575, 'ymax': 20.54020826571697}",dining and drinking > restaurant > mexican restaurant > taco restaurant,1
4d4d97bca7f86ea8415c38de,Tortas El Negro,20.720072413913044,-103.32748685387782,,Guadalajara,,,,,,MX,2011-02-05,2021-08-13,,,,,,,,['4bf58dd8d48988d151941735' '503288ae91d4c4b30a586d67'],"['Dining and Drinking > Restaurant > Mexican Restaurant > Taco Restaurant'
 'Dining and Drinking > Restaurant > Afghan Restaurant']",b'\x00\x00\x00\x00\x01\xc0Y\xd4\xf5\x8bk\xd1\x9c@4\xb8V\xaal\x82 ',"{'xmin': -103.32748685387782, 'ymin': 20.720072413913044, 'xmax': -103.32748685387782, 'ymax': 20.720072413913044}","dining and drinking > restaurant > mexican restaurant > taco restaurant, dining and drinking > restaurant > afghan restaurant",1
6136418e51d11f05c6fabbd7,El Charolitas,20.677681,-101.359787,Victorino De Las Fuentes Esquina Casimiro Liceaga,Irapuato,GTO,36690,,,,MX,2021-09-06,2021-09-06,,,,,,,,['4bf58dd8d48988d151941735'],['Dining and Drinking > Restaurant > Mexican Restaurant > Taco Restaurant'],b'\x00\x00\x00\x00\x01\xc0YW\x06\xc0\r\xa1\xa9@4\xad|\x80\x84\x1e\xde',"{'xmin': -101.359787, 'ymin': 20.677681, 'xmax': -101.359787, 'ymax': 20.677681}",dining and drinking > restaurant > mexican restaurant > taco restaurant,1
50faceb2e4b020b559c15c76,Tacos Don Eligio,20.722074804360265,-103.3456518651352,José Palomar,Zapopan,Jalisco,,,,,MX,2013-01-19,2020-11-23,,,,,,,,['4bf58dd8d48988d151941735'],['Dining and Drinking > Restaurant > Mexican Restaurant > Taco Restaurant'],b'\x00\x00\x00\x00\x01\xc0Y\xd6\x1f)\x00#\xa7@4\xb8\xd9\xe4\xf5\xfe1',"{'xmin': -103.3456518651352, 'ymin': 20.722074804360265, 'xmax': -103.3456518651352, 'ymax': 20.722074804360265}",dining and drinking > restaurant > mexican restaurant > taco restaurant,1
5376eb7d11d2b5bc6b97f036,La Coyotita Steak Carnes & Beer,20.610689972089894,-103.42986736524497,Avenida Adolfo López Mateos 900a,zapopan,,,,,,MX,2014-05-17,2020-11-25,,,,,,,,['4bf58dd8d48988d151941735'],['Dining and Drinking > Restaurant > Mexican Restaurant > Taco Restaurant'],b'\x00\x00\x00\x00\x01\xc0Y\xdb\x82\xf2h\xd6\x12@4\x9cV-\x92\x1f\n',"{'xmin': -103.42986736524497, 'ymin': 20.610689972089894, 'xmax': -103.42986736524497, 'ymax': 20.610689972089894}",dining and drinking > restaurant > mexican restaurant > taco restaurant,1
5c72d730646e38002cbbf7d9,Tacos De Barbacoa David,20.622939,-103.437834,Av De Las torres 81,Zapopan,JAL,45236,,,,MX,2019-02-24,2020-11-23,,,,,,,,['4bf58dd8d48988d151941735'],['Dining and Drinking > Restaurant > Mexican Restaurant > Taco Restaurant'],"b""\x00\x00\x00\x00\x01\xc0Y\xdc\x05x\xe5\xc4\xeb@4\x9fx\xee(g'""","{'xmin': -103.437834, 'ymin': 20.622939, 'xmax': -103.437834, 'ymax': 20.622939}",dining and drinking > restaurant > mexican restaurant > taco restaurant,1
554f8b68498e28648cf0a295,"Birrieria ""El Chivo Elegante""",20.756396,-103.441742,,,,,,,,MX,2015-05-10,2021-08-18,,,,,,,,['4bf58dd8d48988d151941735'],['Dining and Drinking > Restaurant > Mexican Restaurant > Taco Restaurant'],b'\x00\x00\x00\x00\x01\xc0Y\xdcE\x80<\xd1B@4\xc1\xa3+\x12\xd3A',"{'xmin': -103.441742, 'ymin': 20.756396, 'xmax': -103.441742, 'ymax': 20.756396}",dining and drinking > restaurant > mexican restaurant > taco restaurant,1
5dbba6bcc1e0290008fe6be1,Tacos A Otro Nivel,19.256323,-103.75248,Avenida Niños Héroes 482,Villa de Álvarez,COL,28984,,,,MX,2019-11-01,2020-11-30,,,,,,,,['4bf58dd8d48988d151941735'],['Dining and Drinking > Restaurant > Mexican Restaurant > Taco Restaurant'],b'\x00\x00\x00\x00\x01\xc0Y\xf0(\xa1\xdf\xb99@3A\x9ebV6m',"{'xmin': -103.75248, 'ymin': 19.256323, 'xmax': -103.75248, 'ymax': 19.256323}",dining and drinking > restaurant > mexican restaurant > taco restaurant,1
5327d8ab498e03962001714f,tacos los cuñados,21.08846061443232,-101.65678364856349,,,,,,,,MX,2014-03-18,2021-08-10,,,,,,,,['4bf58dd8d48988d151941735'],['Dining and Drinking > Restaurant > Mexican Restaurant > Taco Restaurant'],b'\x00\x00\x00\x00\x01\xc0Yj\x08\xbeH\xc8-@5\x16\xa5Z\xd5\xf8\x8c',"{'xmin': -101.65678364856349, 'ymin': 21.08846061443232, 'xmax': -101.65678364856349, 'ymax': 21.08846061443232}",dining and drinking > restaurant > mexican restaurant > taco restaurant,1
4f09d61be4b026656fa3b2c0,Birrieria Ilusion,20.593879,-103.633309,,,Jalisco,,,,,MX,2012-01-08,2020-11-23,,,,,,,,['4bf58dd8d48988d151941735'],['Dining and Drinking > Restaurant > Mexican Restaurant > Taco Restaurant'],"b'\x00\x00\x00\x00\x01\xc0Y\xe8\x88""x\xd0\xcc@4\x98\x08tB\xc7\xfc'","{'xmin': -103.633309, 'ymin': 20.593879, 'xmax': -103.633309, 'ymax': 20.593879}",dining and drinking > restaurant > mexican restaurant > taco restaurant,1
510550d4e4b051d6c1a7a038,Tacos Don Carnito,20.63477878433553,-103.38059057661678,,,,,,,,MX,2013-01-27,2021-08-16,,,,,,,,['4bf58dd8d48988d151941735'],['Dining and Drinking > Restaurant > Mexican Restaurant > Taco Restaurant'],b'\x00\x00\x00\x00\x01\xc0Y\xd8[\x98\x93\xef\x08@4\xa2\x80\xdc\xc6\xean',"{'xmin': -103.38059057661678, 'ymin': 20.63477878433553, 'xmax': -103.38059057661678, 'ymax': 20.63477878433553}",dining and drinking > restaurant > mexican restaurant > taco restaurant,1
5573ae71498e6be26580e95c,Tacos de Sirlon al Carbon,20.696485294164887,-101.35795145749455,,,,,,,,MX,2015-06-07,2021-08-12,,,,,,,,['4bf58dd8d48988d151941735'],['Dining and Drinking > Restaurant > Mexican Restaurant > Taco Restaurant'],b'\x00\x00\x00\x00\x01\xc0YV\xe8\xad:\xdf\xa8@4\xb2L\xdc8\x95H',"{'xmin': -101.35795145749455, 'ymin': 20.696485294164887, 'xmax': -101.35795145749455, 'ymax': 20.696485294164887}",dining and drinking > restaurant > mexican restaurant > taco restaurant,1
59069dcc75eee432181634f5,Tacos Al Pastor El Ivan,20.900123,-105.413479,,San Francisco,NAY,,,,,MX,2017-05-01,2020-11-25,,,,,,,,['4bf58dd8d48988d151941735'],['Dining and Drinking > Restaurant > Mexican Restaurant > Taco Restaurant'],b'\x00\x00\x00\x00\x01\xc0ZZvp\x9f\xa5L@4\xe6nu\xff`\x9e',"{'xmin': -105.413479, 'ymin': 20.900123, 'xmax': -105.413479, 'ymax': 20.900123}",dining and drinking > restaurant > mexican restaurant > taco restaurant,1
528d38a911d29594c71cfea0,Lecho Güicho (Taqueria),21.880979537963867,-102.2823257446289,Adolfo López Mateos,Centro,Aguascalientes,,,,,MX,2013-11-20,2021-08-12,,,,,,,,['4bf58dd8d48988d151941735'],['Dining and Drinking > Restaurant > Mexican Restaurant > Taco Restaurant'],b'\x00\x00\x00\x00\x01\xc0Y\x92\x11\xa0\x00\x00\x00@5\xe1\x87\xe0\x00\x00\x00',"{'xmin': -102.2823257446289, 'ymin': 21.880979537963867, 'xmax': -102.2823257446289, 'ymax': 21.880979537963867}",dining and drinking > restaurant > mexican restaurant > taco restaurant,1
5353e838498e594bc29b5e9b,Tacos Chela,19.110746937311067,-104.33570329794395,Eusebio Hernandez 493,Manzanillo,Colima,28219,,,,MX,2014-04-20,2020-11-24,,,,,,,,['4bf58dd8d48988d151941735'],['Dining and Drinking > Restaurant > Mexican Restaurant > Taco Restaurant'],b'\x00\x00\x00\x00\x01\xc0Z\x15|)\xafu\x08@3\x1cY\xe9I\xe2\x19',"{'xmin': -104.33570329794395, 'ymin': 19.110746937311067, 'xmax': -104.33570329794395, 'ymax': 19.110746937311067}",dining and drinking > restaurant > mexican restaurant > taco restaurant,1
60c5a4fa6584ad7b214889a9,Serranitos,20.729771,-103.42877,Avenida Santa Margarita 771,Zapopan,JAL,45136,,,,MX,2021-06-13,2021-06-13,,,,,,,,['4bf58dd8d48988d151941735'],['Dining and Drinking > Restaurant > Mexican Restaurant > Taco Restaurant'],b'\x00\x00\x00\x00\x01\xc0Y\xdbp\xf7\xb9\xe0a@4\xba\xd2E\xb2\x91\xb8',"{'xmin': -103.42877, 'ymin': 20.729771, 'xmax': -103.42877, 'ymax': 20.729771}",dining and drinking > restaurant > mexican restaurant > taco restaurant,1
561c0b1c498ee7909b73686e,Las Sabrosas Gorditas y Mas,20.791397094726562,-103.4685287475586,Avenida San Mateo 886,,jalisco,,,,,MX,2015-10-12,2021-08-14,,,,,,,,['4bf58dd8d48988d151941735'],['Dining and Drinking > Restaurant > Mexican Restaurant > Taco Restaurant'],b'\x00\x00\x00\x00\x01\xc0Y\xdd\xfc`\x00\x00\x00@4\xca\x99\x00\x00\x00\x00',"{'xmin': -103.4685287475586, 'ymin': 20.791397094726562, 'xmax': -103.4685287475586, 'ymax': 20.791397094726562}",dining and drinking > restaurant > mexican restaurant > taco restaurant,1
54d2e466498e4e44a77ca8be,La Norteña,22.135731336193114,-101.03033703041865,,,,,,,,MX,2015-02-05,2023-12-21,,55 5355 5290,,,,,,['4bf58dd8d48988d151941735'],['Dining and Drinking > Restaurant > Mexican Restaurant > Taco Restaurant'],"b'\x00\x00\x00\x00\x01\xc0YA\xf1\n\xba``@6""\xbfI\xf1\xfd\xe7'","{'xmin': -101.03033703041865, 'ymin': 22.135731336193114, 'xmax': -101.03033703041865, 'ymax': 22.135731336193114}",dining and drinking > restaurant > mexican restaurant > taco restaurant,1
4fe548f4e4b0bdc4f41ea9d6,Tacos Don Benja,20.694904363881694,-103.36221186694122,,Guadalajara,,,,,,MX,2012-06-23,2021-08-15,,,,,,,,['4bf58dd8d48988d151941735'],['Dining and Drinking > Restaurant > Mexican Restaurant > Taco Restaurant'],b'\x00\x00\x00\x00\x01\xc0Y\xd7.z\xae\xaf\x15@4\xb1\xe5@\x9c\xb85',"{'xmin': -103.36221186694122, 'ymin': 20.694904363881694, 'xmax': -103.36221186694122, 'ymax': 20.694904363881694}",dining and drinking > restaurant > mexican restaurant > taco restaurant,1
5931bbb193bd6364b455d5c6,Antojitos Chuy,20.629824,-103.41636,,Zapopan,Jalisco,,,,,MX,2017-06-02,2020-11-23,,,,,,,,['4bf58dd8d48988d151941735'],['Dining and Drinking > Restaurant > Mexican Restaurant > Taco Restaurant'],b'\x00\x00\x00\x00\x01\xc0Y\xda\xa5\xa4i\xd74@4\xa1<%J<d',"{'xmin': -103.41636, 'ymin': 20.629824, 'xmax': -103.41636, 'ymax': 20.629824}",dining and drinking > restaurant > mexican restaurant > taco restaurant,1
500c5c62e4b0c2a4e0c0928d,"Tacos de birria ""El Negro e hijos""",20.667994399926066,-103.35824087974183,,Guadalajara,,,,,,MX,2012-07-22,2021-08-12,,,,,,,,['4bf58dd8d48988d151941735'],['Dining and Drinking > Restaurant > Mexican Restaurant > Taco Restaurant'],"b""\x00\x00\x00\x00\x01\xc0Y\xd6\xedk'\xa56@4\xab\x01\xaeU\x97\xf6""","{'xmin': -103.35824087974183, 'ymin': 20.667994399926066, 'xmax': -103.35824087974183, 'ymax': 20.667994399926066}",dining and drinking > restaurant > mexican restaurant > taco restaurant,1
574a6f4b498e9eb415530a3e,"Taco Gigante """"El Yorch""",20.675174,-103.358487,Escorza,Guadalajara,Jalisco,,,,,MX,2016-05-29,2021-08-15,,,,,,,,['4bf58dd8d48988d151941735'],['Dining and Drinking > Restaurant > Mexican Restaurant > Taco Restaurant'],b'\x00\x00\x00\x00\x01\xc0Y\xd6\xf1suB\xa2@4\xac\xd84\t\x1c\x08',"{'xmin': -103.358487, 'ymin': 20.675174, 'xmax': -103.358487, 'ymax': 20.675174}",dining and drinking > restaurant > mexican restaurant > taco restaurant,1
5b9f31dbad910e0039507171,Tacos Y Tortas Dany’s,21.096674,-101.632203,,León,GTO,37530,,,,MX,2018-09-17,2020-11-25,,,,,,,,['4bf58dd8d48988d151941735'],['Dining and Drinking > Restaurant > Mexican Restaurant > Taco Restaurant'],b'\x00\x00\x00\x00\x01\xc0Yhv\x03\x92[\xb8@5\x18\xbf\xa0\x94_\x9e',"{'xmin': -101.632203, 'ymin': 21.096674, 'xmax': -101.632203, 'ymax': 21.096674}",dining and drinking > restaurant > mexican restaurant > taco restaurant,1
4ed272360aafd1869158ace2,Tacos Olegario,21.63192183433608,-102.97711117198095,,,,,,,,MX,2011-11-27,2021-08-16,,,,,,,,['4bf58dd8d48988d151941735'],['Dining and Drinking > Restaurant > Mexican Restaurant > Taco Restaurant'],b'\x00\x00\x00\x00\x01\xc0Y\xbe\x88\xfdL\r\xb9@5\xa1\xc5\xa1\x1c\x1a\x0f',"{'xmin': -102.97711117198095, 'ymin': 21.63192183433608, 'xmax': -102.97711117198095, 'ymax': 21.63192183433608}",dining and drinking > restaurant > mexican restaurant > taco restaurant,1
529feef011d234d22118212f,Tacos La Avenida,19.24419593811035,-103.73986053466797,Blvd. Rodolfo Chavez Carrillo 522,Colima,Colima,,,,,MX,2013-12-05,2020-11-25,,,,,,,,['4bf58dd8d48988d151941735'],['Dining and Drinking > Restaurant > Mexican Restaurant > Taco Restaurant'],b'\x00\x00\x00\x00\x01\xc0Y\xefY\xe0\x00\x00\x00@3>\x83\xa0\x00\x00\x00',"{'xmin': -103.73986053466797, 'ymin': 19.24419593811035, 'xmax': -103.73986053466797, 'ymax': 19.24419593811035}",dining and drinking > restaurant > mexican restaurant > taco restaurant,1
57e49964498ebc228c2f8859,Tacos Yair,20.654037,-103.334404,,Guadalajara,Jalisco,,,,,MX,2016-09-23,2021-08-13,,,,,,,,['4bf58dd8d48988d151941735'],['Dining and Drinking > Restaurant > Mexican Restaurant > Taco Restaurant'],b'\x00\x00\x00\x00\x01\xc0Y\xd5f\xe0\x08\xe9\xb4@4\xa7n\xf8\x05_\xbb',"{'xmin': -103.334404, 'ymin': 20.654037, 'xmax': -103.334404, 'ymax': 20.654037}",dining and drinking > restaurant > mexican restaurant > taco restaurant,1
50f4b341e4b0ae48c1395f40,Taqueria Jalisco,22.149017949876935,-100.8970238664446,,,,,,,,MX,2013-01-15,2020-11-24,,,,,,,,['4bf58dd8d48988d151941735'],['Dining and Drinking > Restaurant > Mexican Restaurant > Taco Restaurant'],b'\x00\x00\x00\x00\x01\xc0Y9h\xd6\xca\x87\x1b@6&&\nU=\x08',"{'xmin': -100.8970238664446, 'ymin': 22.149017949876935, 'xmax': -100.8970238664446, 'ymax': 22.149017949876935}",dining and drinking > restaurant > mexican restaurant > taco restaurant,1
4f0efdcae4b0dd8931eb19bb,tacos rafa,20.69408017204375,-103.30978679177115,,,,,,,,MX,2012-01-12,2023-12-21,,33 3651 5812,,,,,,['4bf58dd8d48988d151941735'],['Dining and Drinking > Restaurant > Mexican Restaurant > Taco Restaurant'],b'\x00\x00\x00\x00\x01\xc0Y\xd3\xd3\x8b\xfa\xd8\xf3@4\xb1\xaf<\xf7\xba\xdf',"{'xmin': -103.30978679177115, 'ymin': 20.69408017204375, 'xmax': -103.30978679177115, 'ymax': 20.69408017204375}",dining and drinking > restaurant > mexican restaurant > taco restaurant,1
5840f6d99850a03d83983f3d,Tacos UK,20.662642,-103.32326,,Guadalajara,Jalisco,,,,,MX,2016-12-02,2021-08-15,,,,,,,,['4bf58dd8d48988d151941735'],['Dining and Drinking > Restaurant > Mexican Restaurant > Taco Restaurant'],b'\x00\x00\x00\x00\x01\xc0Y\xd4\xb0J\xb6\x06\xb8@4\xa9\xa2\xe7\xf6\xf4\xbf',"{'xmin': -103.32326, 'ymin': 20.662642, 'xmax': -103.32326, 'ymax': 20.662642}",dining and drinking > restaurant > mexican restaurant > taco restaurant,1
511405cae4b04a9ef18cbd98,Rincón de San Miguel,20.676204427779513,-103.3622908366934,Morelos 1148,Guadalajara,Jalisco,,,,,MX,2013-02-07,2021-08-17,,,,,,,,['4bf58dd8d48988d151941735'],['Dining and Drinking > Restaurant > Mexican Restaurant > Taco Restaurant'],b'\x00\x00\x00\x00\x01\xc0Y\xd7/\xc5\xe7\xcfF@4\xad\x1b\xbb\xbe\xb91',"{'xmin': -103.3622908366934, 'ymin': 20.676204427779513, 'xmax': -103.3622908366934, 'ymax': 20.676204427779513}",dining and drinking > restaurant > mexican restaurant > taco restaurant,1
51f32d74498ee9cc8d9dd2c0,Tacos Miguelin,20.641895,-103.322787,,,,,,,,MX,2013-07-27,2021-08-10,,,,,,,,['4bf58dd8d48988d151941735'],['Dining and Drinking > Restaurant > Mexican Restaurant > Taco Restaurant'],b'\x00\x00\x00\x00\x01\xc0Y\xd4\xa8\x8a\xce$\xbc@4\xa4S;\x10wG',"{'xmin': -103.322787, 'ymin': 20.641895, 'xmax': -103.322787, 'ymax': 20.641895}",dining and drinking > restaurant > mexican restaurant > taco restaurant,1
5441e5a8498ef9dc18d53b19,taqueria 'De los Altos,20.59549678783614,-101.17469028539746,,Salamanca,Guanajuato,36720,,,,MX,2014-10-18,2020-11-25,,,,,,,,['4bf58dd8d48988d151941735'],['Dining and Drinking > Restaurant > Mexican Restaurant > Taco Restaurant'],b'\x00\x00\x00\x00\x01\xc0YK. )\xad\x81@4\x98rz<\xa1\x18',"{'xmin': -101.17469028539746, 'ymin': 20.59549678783614, 'xmax': -101.17469028539746, 'ymax': 20.59549678783614}",dining and drinking > restaurant > mexican restaurant > taco restaurant,1
53584cd911d2217d3f65c23d,Tacos Neto,19.947077058616873,-105.327682618793,,,,,,,,MX,2014-04-23,2020-11-25,,,,,,,,['4bf58dd8d48988d151941735'],['Dining and Drinking > Restaurant > Mexican Restaurant > Taco Restaurant'],b'\x00\x00\x00\x00\x01\xc0ZT\xf8\xc0\x84\xcb\xc0@3\xf2s\xa4a\x8d%',"{'xmin': -105.327682618793, 'ymin': 19.947077058616873, 'xmax': -105.327682618793, 'ymax': 19.947077058616873}",dining and drinking > restaurant > mexican restaurant > taco restaurant,1
50386779e4b0450c9ce28eab,Tacos El cora,20.727983,-103.372631,,,,,,,,MX,2012-08-25,2021-08-13,,,,,,,,['4bf58dd8d48988d151941735'],['Dining and Drinking > Restaurant > Mexican Restaurant > Taco Restaurant'],b'\x00\x00\x00\x00\x01\xc0Y\xd7\xd9/\xb1\x9es@4\xba]\x18\t\x0bA',"{'xmin': -103.372631, 'ymin': 20.727983, 'xmax': -103.372631, 'ymax': 20.727983}",dining and drinking > restaurant > mexican restaurant > taco restaurant,1
4f811787e4b0a6d0b6c23a2d,Tacos Carmelo,21.157848358154297,-101.65616607666016,"Oxígeno, León de Los Aldama, GTO",León de Los Aldama,Guanajuato,,,,,MX,2012-04-08,2020-11-23,,,,,,,,['4bf58dd8d48988d151941735'],['Dining and Drinking > Restaurant > Mexican Restaurant > Taco Restaurant'],b'\x00\x00\x00\x00\x01\xc0Yi\xfe\xa0\x00\x00\x00@5(h\xc0\x00\x00\x00',"{'xmin': -101.65616607666016, 'ymin': 21.157848358154297, 'xmax': -101.65616607666016, 'ymax': 21.157848358154297}",dining and drinking > restaurant > mexican restaurant > taco restaurant,1
5bea3e55491be7002cd2f165,Tacos De La Guadalajara,20.644693,-103.286804,río nilo,Guadalajara,Jalisco,44860,,,,MX,2018-11-13,2021-08-24,,,,,,,,['4bf58dd8d48988d151941735'],['Dining and Drinking > Restaurant > Mexican Restaurant > Taco Restaurant'],b'\x00\x00\x00\x00\x01\xc0Y\xd2Z\xff*\x17+@4\xa5\n\x99\xb6\xf5\xcb',"{'xmin': -103.286804, 'ymin': 20.644693, 'xmax': -103.286804, 'ymax': 20.644693}",dining and drinking > restaurant > mexican restaurant > taco restaurant,1
56254a56498e4f3e1d3e3554,"Tacos de Barbacoa ""La Gloria""",20.677953932077738,-103.34914868854267,,,,,,,,MX,2015-10-19,2023-12-20,,33 1641 9135,,,,,,['4bf58dd8d48988d151941735'],['Dining and Drinking > Restaurant > Mexican Restaurant > Taco Restaurant'],b'\x00\x00\x00\x00\x01\xc0Y\xd6Xs\xbd\xae\xda@4\xad\x8ec\x8ew\xef',"{'xmin': -103.34914868854267, 'ymin': 20.677953932077738, 'xmax': -103.34914868854267, 'ymax': 20.677953932077738}",dining and drinking > restaurant > mexican restaurant > taco restaurant,1
558ec830498e023e0f7625fe,Tacos Al Vapor Don Pablito,20.67529296875,-103.33547973632812,,Guadalajara,,,,,,MX,2015-06-27,2021-08-13,,,,,,,,['4bf58dd8d48988d151941735'],['Dining and Drinking > Restaurant > Mexican Restaurant > Taco Restaurant'],b'\x00\x00\x00\x00\x01\xc0Y\xd5x\x80\x00\x00\x00@4\xac\xe0\x00\x00\x00\x00',"{'xmin': -103.33547973632812, 'ymin': 20.67529296875, 'xmax': -103.33547973632812, 'ymax': 20.67529296875}",dining and drinking > restaurant > mexican restaurant > taco restaurant,1
53a6fcbb498e070ad51ecda1,"Tacos del ""telecable""",21.36472,-102.844634,,,,,,,,MX,2014-06-22,2020-11-30,,,,,,,,['4bf58dd8d48988d151941735'],['Dining and Drinking > Restaurant > Mexican Restaurant > Taco Restaurant'],b'\x00\x00\x00\x00\x01\xc0Y\xb6\x0e{\xc3\xc5\xbd@5]^J82v',"{'xmin': -102.844634, 'ymin': 21.36472, 'xmax': -102.844634, 'ymax': 21.36472}",dining and drinking > restaurant > mexican restaurant > taco restaurant,1
b098a557f94143f10d485d49,Tamales de Aselga,19.94793,-103.760579,Benito Juarez 138,Tapalpa,Jalisco,49340,,,,MX,2013-05-29,2023-12-06,,343 432 0093,,gabyvar3@gmail.com,,,,['4bf58dd8d48988d151941735'],['Dining and Drinking > Restaurant > Mexican Restaurant > Taco Restaurant'],b'\x00\x00\x00\x00\x01\xc0Y\xf0\xadS\x8a\xc1\x90@3\xf2\xab\x8a\\\xe5\xb4',"{'xmin': -103.760579, 'ymin': 19.94793, 'xmax': -103.760579, 'ymax': 19.94793}",dining and drinking > restaurant > mexican restaurant > taco restaurant,1
570d3125498e6cc84f8ad0c0,Carnitas Del Rio,20.665344,-103.36833,Av Chapultepec #693,Guadalajara,,,,,,MX,2016-04-12,2021-08-11,,,,,,,,['4bf58dd8d48988d151941735'],['Dining and Drinking > Restaurant > Mexican Restaurant > Taco Restaurant'],b'\x00\x00\x00\x00\x01\xc0Y\xd7\x92\xb7\xfe\x08\xaf@4\xaaS\xfc\x00\x96\xff',"{'xmin': -103.36833, 'ymin': 20.665344, 'xmax': -103.36833, 'ymax': 20.665344}",dining and drinking > restaurant > mexican restaurant > taco restaurant,1
66245bfbff4a1c2af12306d2,Peztaco,20.619096,-105.231732,C. Honduras 125,Puerto Vallarta,Jal.,48350,,,,MX,2024-04-21,2024-04-24,,,,,,,,"['4bf58dd8d48988d1ce941735' '4bf58dd8d48988d116941735'
 '4bf58dd8d48988d151941735']","['Dining and Drinking > Restaurant > Seafood Restaurant'
 'Dining and Drinking > Bar'
 'Dining and Drinking > Restaurant > Mexican Restaurant > Taco Restaurant']",b'\x00\x00\x00\x00\x01\xc0ZN\xd4\xb2t[\xf2@4\x9e}\x13Q\x15\x9c',"{'xmin': -105.231732, 'ymin': 20.619096, 'xmax': -105.231732, 'ymax': 20.619096}","dining and drinking > restaurant > seafood restaurant, dining and drinking > bar, dining and drinking > restaurant > mexican restaurant > taco restaurant",1
51137529e4b0363df7372343,tacos arandas,20.63832440222185,-103.43244090953466,Av. Ladron de Guevara,Zapopan,Jal,,,,,MX,2013-02-07,2020-11-24,,,,,,,,['4bf58dd8d48988d151941735'],['Dining and Drinking > Restaurant > Mexican Restaurant > Taco Restaurant'],b'\x00\x00\x00\x00\x01\xc0Y\xdb\xad\x1c\xa2\xf9\xd9@4\xa3i:_\xc8\x17',"{'xmin': -103.43244090953466, 'ymin': 20.63832440222185, 'xmax': -103.43244090953466, 'ymax': 20.63832440222185}",dining and drinking > restaurant > mexican restaurant > taco restaurant,1
605559d22d587c167ca54dab,De Tripitas Corazón,20.672185,-103.421902,Doctores 208,Zapopan,JAL,45039,,,,MX,2021-03-20,2021-03-20,,,,,,,,['4bf58dd8d48988d151941735' '4bf58dd8d48988d1c1941735'],"['Dining and Drinking > Restaurant > Mexican Restaurant > Taco Restaurant'
 'Dining and Drinking > Restaurant > Mexican Restaurant']",b'\x00\x00\x00\x00\x01\xc0Y\xdb\x00q?\x07}@4\xac\x14P\xef\xdc\x9c',"{'xmin': -103.421902, 'ymin': 20.672185, 'xmax': -103.421902, 'ymax': 20.672185}","dining and drinking > restaurant > mexican restaurant > taco restaurant, dining and drinking > restaurant > mexican restaurant",1
4f1edf0ae4b026f19b6633ab,Tacos El Matador (Originales),21.116525270843418,-101.68828038460134,,,,,,,,MX,2012-01-24,2021-08-15,,,,,,,,['4bf58dd8d48988d151941735'],['Dining and Drinking > Restaurant > Mexican Restaurant > Taco Restaurant'],b'\x00\x00\x00\x00\x01\xc0Yl\x0c\xc9+\x95\xd4@5\x1d\xd4\x99\xa3n\x16',"{'xmin': -101.68828038460134, 'ymin': 21.116525270843418, 'xmax': -101.68828038460134, 'ymax': 21.116525270843418}",dining and drinking > restaurant > mexican restaurant > taco restaurant,1
54380802498eaf92fe307b90,tortillitas doña,20.531001007036867,-100.81844874302453,,,,,,,,MX,2014-10-10,2021-08-12,,,,,,,,['4bf58dd8d48988d151941735'],['Dining and Drinking > Restaurant > Mexican Restaurant > Taco Restaurant'],b'\x00\x00\x00\x00\x01\xc0Y4av\xd6/\x88@4\x87\xef\xae\x97]\xcd',"{'xmin': -100.81844874302453, 'ymin': 20.531001007036867, 'xmax': -100.81844874302453, 'ymax': 20.531001007036867}",dining and drinking > restaurant > mexican restaurant > taco restaurant,1
5829e6e71632352ed556f9a1,Carnes Asadas Al Carbón El Amigo,20.699838,-103.348784,,Guadalajara,,,,,,MX,2016-11-14,2021-08-16,,,,,,,,['4bf58dd8d48988d151941735'],['Dining and Drinking > Restaurant > Mexican Restaurant > Taco Restaurant'],b'\x00\x00\x00\x00\x01\xc0Y\xd6Rz W\x8e@4\xb3(\x95J\x7f\x80',"{'xmin': -103.348784, 'ymin': 20.699838, 'xmax': -103.348784, 'ymax': 20.699838}",dining and drinking > restaurant > mexican restaurant > taco restaurant,1
4f29d98ce4b0244f908bef87,"Ricos Tacos ""Los Primos""",20.704152,-103.349993,Francisco Tejeda,Guadalajara,Jalisco,,,,,MX,2012-02-02,2021-08-12,,,,,,,,['4bf58dd8d48988d151941735'],['Dining and Drinking > Restaurant > Mexican Restaurant > Taco Restaurant'],b'\x00\x00\x00\x00\x01\xc0Y\xd6fI\n5\r@4\xb4CN3i\xba',"{'xmin': -103.349993, 'ymin': 20.704152, 'xmax': -103.349993, 'ymax': 20.704152}",dining and drinking > restaurant > mexican restaurant > taco restaurant,1
502db733e4b0adcbebdd7be3,Rincon Gallero,21.888309478759766,-102.25614166259766,Jesus Teran,Aguascaientes,Aguascalientes,20190,,,,MX,2012-08-17,2021-08-12,,,,,,,,['4bf58dd8d48988d151941735'],['Dining and Drinking > Restaurant > Mexican Restaurant > Taco Restaurant'],b'\x00\x00\x00\x00\x01\xc0Y\x90d\xa0\x00\x00\x00@5\xe3h@\x00\x00\x00',"{'xmin': -102.25614166259766, 'ymin': 21.888309478759766, 'xmax': -102.25614166259766, 'ymax': 21.888309478759766}",dining and drinking > restaurant > mexican restaurant > taco restaurant,1
51d9b779ccda7e2c173b7932,Tacos de Birria Don Chuy,21.129410629192574,-101.69467806816101,Calle Michoacán Col. Chapalita,León,Guanajuato,,,,,MX,2013-07-07,2020-11-22,,,,,,,,['4bf58dd8d48988d151941735'],['Dining and Drinking > Restaurant > Mexican Restaurant > Taco Restaurant'],b'\x00\x00\x00\x00\x01\xc0Ylu\x9b\x00\x00\x00@5!!\x0e\x14#\x0b',"{'xmin': -101.69467806816101, 'ymin': 21.129410629192574, 'xmax': -101.69467806816101, 'ymax': 21.129410629192574}",dining and drinking > restaurant > mexican restaurant > taco restaurant,1
4d23eb82e704b60cd1e65ca9,Tacos El Kiosko,20.637223131395803,-103.42783138537455,,Zapopan,Jalisco,,,,,MX,2011-01-05,2020-11-24,,,,,,,,['4bf58dd8d48988d151941735'],['Dining and Drinking > Restaurant > Mexican Restaurant > Taco Restaurant'],b'\x00\x00\x00\x00\x01\xc0Y\xdba\x96\xe4\x18\xb5@4\xa3!\x0e\x1d\x99\x85',"{'xmin': -103.42783138537455, 'ymin': 20.637223131395803, 'xmax': -103.42783138537455, 'ymax': 20.637223131395803}",dining and drinking > restaurant > mexican restaurant > taco restaurant,1
57e344ac498ea81529b50971,Tacos Charly,20.66506,-101.355042,Manuel M. Ponce,Irapuato,Guanajuato,81169,,,,MX,2016-09-22,2020-11-21,,,,,,,,['4bf58dd8d48988d151941735'],['Dining and Drinking > Restaurant > Mexican Restaurant > Taco Restaurant'],b'\x00\x00\x00\x00\x01\xc0YV\xb9\x02\x14\xad6@4\xaaA_E\xe0\xb5',"{'xmin': -101.355042, 'ymin': 20.66506, 'xmax': -101.355042, 'ymax': 20.66506}",dining and drinking > restaurant > mexican restaurant > taco restaurant,1
4e81342e30f86985e3f44e1b,El Taco Picante,19.68095088902706,-101.22571461459877,Av. periodismo #2080,Morelia,Michoacán de Ocampo,06600,,,,MX,2011-09-27,2020-11-23,,,,,,,,['4bf58dd8d48988d151941735'],['Dining and Drinking > Restaurant > Mexican Restaurant > Taco Restaurant'],b'\x00\x00\x00\x00\x01\xc0YNr\x1b\xb5\xfb\x95@3\xaeR\xcc&\x8d\xa8',"{'xmin': -101.22571461459877, 'ymin': 19.68095088902706, 'xmax': -101.22571461459877, 'ymax': 19.68095088902706}",dining and drinking > restaurant > mexican restaurant > taco restaurant,1
4e700b22b0fba1302a07f67c,Merendero San Martin,20.600798830139563,-105.22791142068914,,,,,,,,MX,2011-09-14,2021-08-15,,,,,,,,['4bf58dd8d48988d1c1941735' '4bf58dd8d48988d151941735'],"['Dining and Drinking > Restaurant > Mexican Restaurant'
 'Dining and Drinking > Restaurant > Mexican Restaurant > Taco Restaurant']",b'\x00\x00\x00\x00\x01\xc0ZN\x96\x19\xc8\x8f\xaa@4\x99\xcd\xf3\xbe\xec\xab',"{'xmin': -105.22791142068914, 'ymin': 20.600798830139563, 'xmax': -105.22791142068914, 'ymax': 20.600798830139563}","dining and drinking > restaurant > mexican restaurant, dining and drinking > restaurant > mexican restaurant > taco restaurant",1
5400bfef498ed8dfcfe0d6d0,Super Takko Tors,20.634623030777945,-103.37254039809261,,,,,,,,MX,2014-08-29,2021-08-14,,,,,,,,['4bf58dd8d48988d151941735'],['Dining and Drinking > Restaurant > Mexican Restaurant > Taco Restaurant'],b'\x00\x00\x00\x00\x01\xc0Y\xd7\xd7\xb3\xae\x8f\xc8@4\xa2v\xa7\xaaz\xcc',"{'xmin': -103.37254039809261, 'ymin': 20.634623030777945, 'xmax': -103.37254039809261, 'ymax': 20.634623030777945}",dining and drinking > restaurant > mexican restaurant > taco restaurant,1
5844adc9668af742c7e35a49,Taquería La Tradicional,21.635957,-102.976998,,,,,,,,MX,2016-12-04,2021-08-15,,,,,,,,['4bf58dd8d48988d151941735'],['Dining and Drinking > Restaurant > Mexican Restaurant > Taco Restaurant'],"b'\x00\x00\x00\x00\x01\xc0Y\xbe\x87""\x9e\x90y@5\xa2\xce\x13\xf4\xa9\x8b'","{'xmin': -102.976998, 'ymin': 21.635957, 'xmax': -102.976998, 'ymax': 21.635957}",dining and drinking > restaurant > mexican restaurant > taco restaurant,1
574b9a1d498ebb5c6a483798,"¡Ah, q'carbón!",20.671312,-103.41788,Blvd. Manuel J. Clouthier,Zapopan,Jalisco,,,,,MX,2016-05-30,2020-11-25,,,,,,,,['4bf58dd8d48988d151941735'],['Dining and Drinking > Restaurant > Mexican Restaurant > Taco Restaurant'],b'\x00\x00\x00\x00\x01\xc0Y\xda\xbe\x8b\xc1i\xc2@4\xab\xdb\x1ami\x90',"{'xmin': -103.41788, 'ymin': 20.671312, 'xmax': -103.41788, 'ymax': 20.671312}",dining and drinking > restaurant > mexican restaurant > taco restaurant,1
4f08c7ade4b07c8f8c80824a,Tortas ahogadas,20.68855851393836,-103.31102316570704,San Pablo 1450,Guadalajara,Jalisco,,,,,MX,2012-01-07,2021-08-16,,,,,,,,['4bf58dd8d48988d151941735'],['Dining and Drinking > Restaurant > Mexican Restaurant > Taco Restaurant'],b'\x00\x00\x00\x00\x01\xc0Y\xd3\xe7\xcd\xb5@\xa6@4\xb0E^\xea\xbfd',"{'xmin': -103.31102316570704, 'ymin': 20.68855851393836, 'xmax': -103.31102316570704, 'ymax': 20.68855851393836}",dining and drinking > restaurant > mexican restaurant > taco restaurant,1
5896165098f8aa7c1430b601,Tacos de Ollita,20.66615,-103.347097,,Guadalajara,,,,,,MX,2017-02-04,2021-08-17,,,,,,,,['4bf58dd8d48988d151941735'],['Dining and Drinking > Restaurant > Mexican Restaurant > Taco Restaurant'],b'\x00\x00\x00\x00\x01\xc0Y\xd66\xd6U\xe2\x8b@4\xaa\x88\xcep:\xfb',"{'xmin': -103.347097, 'ymin': 20.66615, 'xmax': -103.347097, 'ymax': 20.66615}",dining and drinking > restaurant > mexican restaurant > taco restaurant,1
60c2832658fd74597ccc201d,Taqueria Los Jar8'S,20.56863,-103.45143,,Los Gavilanes,Jalisco,45645,,,,MX,2021-06-10,2021-06-10,,,,,,,,['4bf58dd8d48988d151941735'],['Dining and Drinking > Restaurant > Mexican Restaurant > Taco Restaurant'],b'\x00\x00\x00\x00\x01\xc0Y\xdc\xe4:\xa7\x9b\xbb@4\x91\x91\xbcU\x86D',"{'xmin': -103.45143, 'ymin': 20.56863, 'xmax': -103.45143, 'ymax': 20.56863}",dining and drinking > restaurant > mexican restaurant > taco restaurant,1
6475755f4de9984ca4bd89f3,Tacos “El Norteño”,20.667154,-103.312469,Av. Francisco Javier Mina #1558,Guadalajara,JAL,44700,,,,MX,2023-05-30,2023-09-14,,,,,,,,['4bf58dd8d48988d151941735'],['Dining and Drinking > Restaurant > Mexican Restaurant > Taco Restaurant'],b'\x00\x00\x00\x00\x01\xc0Y\xd3\xff}\xfa\x00\xe2@4\xaa\xca\x9a\xc3eE',"{'xmin': -103.312469, 'ymin': 20.667154, 'xmax': -103.312469, 'ymax': 20.667154}",dining and drinking > restaurant > mexican restaurant > taco restaurant,1
fb88c865135e4054bf6f9c68,Salones y Banqutes Real Santa Julia,21.078427,-101.644239,Tecomate 101,León,Guanajuato,37530,,,,MX,2014-11-22,2023-12-06,,477 148 6272,,,,,,['4bf58dd8d48988d151941735'],['Dining and Drinking > Restaurant > Mexican Restaurant > Taco Restaurant'],b'\x00\x00\x00\x00\x01\xc0Yi;66\xf3\xb2@5\x14\x13\xca\xb8\x1f\x97',"{'xmin': -101.644239, 'ymin': 21.078427, 'xmax': -101.644239, 'ymax': 21.078427}",dining and drinking > restaurant > mexican restaurant > taco restaurant,1
514be8f8e4b0e4f733d84b61,Tacos Corona Araiza,19.77954513834144,-104.36512947525222,Corona Araiza,Autlan,Jalisco,48900,,,,MX,2013-03-22,2020-11-22,,,,,,,,['4bf58dd8d48988d151941735'],['Dining and Drinking > Restaurant > Mexican Restaurant > Taco Restaurant'],b'\x00\x00\x00\x00\x01\xc0Z\x17^H\x04\xc0\xe4@3\xc7\x90E*\xee\xaa',"{'xmin': -104.36512947525222, 'ymin': 19.77954513834144, 'xmax': -104.36512947525222, 'ymax': 19.77954513834144}",dining and drinking > restaurant > mexican restaurant > taco restaurant,1
53194473498e06688cebc68a,Tacos al pastor,19.202234835620764,-104.68288776740846,,,,,,,,MX,2014-03-07,2021-08-14,,,,,,,,['4bf58dd8d48988d151941735'],['Dining and Drinking > Restaurant > Mexican Restaurant > Taco Restaurant'],b'\x00\x00\x00\x00\x01\xc0Z+\xb4n\xe4\xf6\xe6@33\xc5\xa9\x85\x1af',"{'xmin': -104.68288776740846, 'ymin': 19.202234835620764, 'xmax': -104.68288776740846, 'ymax': 19.202234835620764}",dining and drinking > restaurant > mexican restaurant > taco restaurant,1
4f6699afe4b087553edd1b47,Tacos La Silla Roja,20.750983,-105.382532,,,,,,,,MX,2012-03-19,2021-08-13,,,,,,,,['4bf58dd8d48988d151941735'],['Dining and Drinking > Restaurant > Mexican Restaurant > Taco Restaurant'],b'\x00\x00\x00\x00\x01\xc0ZX{g\x7fk\x1a@4\xc0@l\x00\xda\x1b',"{'xmin': -105.382532, 'ymin': 20.750983, 'xmax': -105.382532, 'ymax': 20.750983}",dining and drinking > restaurant > mexican restaurant > taco restaurant,1
5042dd71e4b0152f584b45cc,Las Brazas,21.522216389612282,-104.88743121662056,,,,,,,,MX,2012-09-02,2021-08-14,,,,,,,,['4bf58dd8d48988d151941735'],['Dining and Drinking > Restaurant > Mexican Restaurant > Taco Restaurant'],b'\x00\x00\x00\x00\x01\xc0Z8\xcb\xacM5m@5\x85\xaf\xf9*\xd1\xe8',"{'xmin': -104.88743121662056, 'ymin': 21.522216389612282, 'xmax': -104.88743121662056, 'ymax': 21.522216389612282}",dining and drinking > restaurant > mexican restaurant > taco restaurant,1
53083078498ebfb5a8f60ca1,tacos el güero,20.625932,-103.245771,,,,,,,,MX,2014-02-22,2021-08-16,,,,,,,,['4bf58dd8d48988d151941735'],['Dining and Drinking > Restaurant > Mexican Restaurant > Taco Restaurant'],b'\x00\x00\x00\x00\x01\xc0Y\xcf\xba\xb6I\xd3\x89@4\xa0=\x14]\x85\x16',"{'xmin': -103.245771, 'ymin': 20.625932, 'xmax': -103.245771, 'ymax': 20.625932}",dining and drinking > restaurant > mexican restaurant > taco restaurant,1
50db3074e4b02e40989968ac,Antojeria Del Sabor,22.134806,-100.921462,,,,,,,,MX,2012-12-26,2021-08-15,,,,,,,,['4bf58dd8d48988d151941735'],['Dining and Drinking > Restaurant > Mexican Restaurant > Taco Restaurant'],"b'\x00\x00\x00\x00\x01\xc0Y:\xf9;\xc0\xa0o@6""\x82\xa5aM\xf9'","{'xmin': -100.921462, 'ymin': 22.134806, 'xmax': -100.921462, 'ymax': 22.134806}",dining and drinking > restaurant > mexican restaurant > taco restaurant,1
587d9d76b3cdc808feca1c60,El fogón del Rey,20.676235,-103.315454,,,,,,,,MX,2017-01-17,2021-08-16,,,,,,,,['4bf58dd8d48988d151941735'],['Dining and Drinking > Restaurant > Mexican Restaurant > Taco Restaurant'],b'\x00\x00\x00\x00\x01\xc0Y\xd40e\xf9Y\x1d@4\xad\x1d\xbc\xa9i\x1a',"{'xmin': -103.315454, 'ymin': 20.676235, 'xmax': -103.315454, 'ymax': 20.676235}",dining and drinking > restaurant > mexican restaurant > taco restaurant,1
4fc0fe4ee4b0758d9164d3ef,Tacos Los Weros,22.146691,-102.275871,,,,,,,,MX,2012-05-26,2021-08-11,,,,,,,,['4bf58dd8d48988d151941735'],['Dining and Drinking > Restaurant > Mexican Restaurant > Taco Restaurant'],b'\x00\x00\x00\x00\x01\xc0Y\x91\xa7\xde\xd6\xba\x8c@6%\x8d\x8a\x97\x9e\x17',"{'xmin': -102.275871, 'ymin': 22.146691, 'xmax': -102.275871, 'ymax': 22.146691}",dining and drinking > restaurant > mexican restaurant > taco restaurant,1
56cf3903498e071d14a4572e,Carnitas La Huasteca,21.028023934590596,-101.87357594279975,,,,,,,,MX,2016-02-25,2021-08-11,,,,,,,,['4bf58dd8d48988d151941735'],['Dining and Drinking > Restaurant > Mexican Restaurant > Taco Restaurant'],"b'\x00\x00\x00\x00\x01\xc0Yw\xe8\xab\x129m@5\x07,\x93\x9a\x92e'","{'xmin': -101.87357594279975, 'ymin': 21.028023934590596, 'xmax': -101.87357594279975, 'ymax': 21.028023934590596}",dining and drinking > restaurant > mexican restaurant > taco restaurant,1
526952ac11d21cc80083b8d6,El Rey Del Duro,21.900461,-102.305202,Arboledas,Aguascalientes,Aguascalientes,,,,,MX,2013-10-24,2020-11-22,,,,,,,,['4bf58dd8d48988d151941735'],['Dining and Drinking > Restaurant > Mexican Restaurant > Taco Restaurant'],b'\x00\x00\x00\x00\x01\xc0Y\x93\x88m\xf8+\x1f@5\xe6\x84\x9c\xb2R\xce',"{'xmin': -102.305202, 'ymin': 21.900461, 'xmax': -102.305202, 'ymax': 21.900461}",dining and drinking > restaurant > mexican restaurant > taco restaurant,1
52b9c98911d25e591d0e12e9,Tacos Gera,20.712732315063477,-103.29431915283203,,,,,,,,MX,2013-12-24,2021-08-14,,,,,,,,['4bf58dd8d48988d151941735'],['Dining and Drinking > Restaurant > Mexican Restaurant > Taco Restaurant'],b'\x00\x00\x00\x00\x01\xc0Y\xd2\xd6 \x00\x00\x00@4\xb6u\xa0\x00\x00\x00',"{'xmin': -103.29431915283203, 'ymin': 20.712732315063477, 'xmax': -103.29431915283203, 'ymax': 20.712732315063477}",dining and drinking > restaurant > mexican restaurant > taco restaurant,1
4d509d39dcce224b8bf7d91b,Taqueria El Santuario,20.80740412173253,-102.75860067274117,Hidalgo 80,Tepatitlan,Jalisco,,,,,MX,2011-02-08,2020-11-21,,,,,,,,['4bf58dd8d48988d151941735'],['Dining and Drinking > Restaurant > Mexican Restaurant > Taco Restaurant'],b'\x00\x00\x00\x00\x01\xc0Y\xb0\x8c\xe9\xd6\tg@4\xce\xb2\tY\x7f0',"{'xmin': -102.75860067274117, 'ymin': 20.80740412173253, 'xmax': -102.75860067274117, 'ymax': 20.80740412173253}",dining and drinking > restaurant > mexican restaurant > taco restaurant,1
52a6716011d28eca2365a0e7,Tacos Geli y Familia,20.778180090351075,-103.45466244674209,,,,,,,,MX,2013-12-10,2021-08-14,,,,,,,,['4bf58dd8d48988d151941735'],['Dining and Drinking > Restaurant > Mexican Restaurant > Taco Restaurant'],b'\x00\x00\x00\x00\x01\xc0Y\xdd\x190\x84\xde\x81@4\xc76\xcfvt\xc9',"{'xmin': -103.45466244674209, 'ymin': 20.778180090351075, 'xmax': -103.45466244674209, 'ymax': 20.778180090351075}",dining and drinking > restaurant > mexican restaurant > taco restaurant,1
5997072c491be70d55f22f91,Tacos Tejas Al Carbon,21.149596,-101.685182,Lopez Mateos Frente A Nissan,León,GTO,37180,,,,MX,2017-08-18,2020-11-30,,,,,,,,['4bf58dd8d48988d151941735'],['Dining and Drinking > Restaurant > Mexican Restaurant > Taco Restaurant'],b'\x00\x00\x00\x00\x01\xc0Yk\xda\x05\x9as\xb4@5&K\xecg\x9c\xc7',"{'xmin': -101.685182, 'ymin': 21.149596, 'xmax': -101.685182, 'ymax': 21.149596}",dining and drinking > restaurant > mexican restaurant > taco restaurant,1
4cbb2acba33bb1f75ba292fd,Tacos Leos,20.602099749994224,-103.44157943487953,,,,,,,,MX,2010-10-17,2021-08-16,,,,,,,,['4bf58dd8d48988d151941735'],['Dining and Drinking > Restaurant > Mexican Restaurant > Taco Restaurant'],"b""\x00\x00\x00\x00\x01\xc0Y\xdcB\xd6c\xd93@4\x9a#5\x8f'\xac""","{'xmin': -103.44157943487953, 'ymin': 20.602099749994224, 'xmax': -103.44157943487953, 'ymax': 20.602099749994224}",dining and drinking > restaurant > mexican restaurant > taco restaurant,1
596975e93b4e003a5c8862a7,Taqueria Los Carnívoros,20.667587,-101.353546,,Irapuato,Guanajuato,,,,,MX,2017-07-15,2020-11-26,,,,,,,,['4bf58dd8d48988d151941735'],['Dining and Drinking > Restaurant > Mexican Restaurant > Taco Restaurant'],b'\x00\x00\x00\x00\x01\xc0YV\xa0\x7ff\xe8l@4\xaa\xe6\xfbL<\x19',"{'xmin': -101.353546, 'ymin': 20.667587, 'xmax': -101.353546, 'ymax': 20.667587}",dining and drinking > restaurant > mexican restaurant > taco restaurant,1
5133e099e4b0ee8b3e683326,El Paisa,20.90534310614364,-100.72541617246769,Blvd. de La Conspiración,San Miguel de Allende,Gto.,,,,,MX,2013-03-03,2020-11-22,,415 121 4236,,,,,,['4bf58dd8d48988d1c1941735' '4bf58dd8d48988d151941735'],"['Dining and Drinking > Restaurant > Mexican Restaurant'
 'Dining and Drinking > Restaurant > Mexican Restaurant > Taco Restaurant']",b'\x00\x00\x00\x00\x01\xc0Y.m7\xf4/?@4\xe7\xc4\x90\xd8\x8b\xc6',"{'xmin': -100.72541617246769, 'ymin': 20.90534310614364, 'xmax': -100.72541617246769, 'ymax': 20.90534310614364}","dining and drinking > restaurant > mexican restaurant, dining and drinking > restaurant > mexican restaurant > taco restaurant",1
4e9dc18502d5277806469551,Cabeza De Res Estilo Guasave,20.589725466407824,-103.38552470280806,Periferico sur,Tlaquepaque,JAL,,,,,MX,2011-10-18,2023-12-19,,33 1113 8549,,,,,,['4bf58dd8d48988d151941735'],['Dining and Drinking > Restaurant > Mexican Restaurant > Taco Restaurant'],b'\x00\x00\x00\x00\x01\xc0Y\xd8\xaco\xcd\x97\x16@4\x96\xf8?\x87\xd7\x07',"{'xmin': -103.38552470280806, 'ymin': 20.589725466407824, 'xmax': -103.38552470280806, 'ymax': 20.589725466407824}",dining and drinking > restaurant > mexican restaurant > taco restaurant,1
5405e03a498ea2d8e5c540fa,Tacos El Zurdo,19.213224,-103.805674,Frente al Campus Coquimatlan,,,,,,,MX,2014-09-02,2021-08-11,,,,,,,,['4bf58dd8d48988d151941735'],['Dining and Drinking > Restaurant > Mexican Restaurant > Taco Restaurant'],b'\x00\x00\x00\x00\x01\xc0Y\xf3\x90)\xaeO3@36\x95\xd9\x1a\xb8\xe9',"{'xmin': -103.805674, 'ymin': 19.213224, 'xmax': -103.805674, 'ymax': 19.213224}",dining and drinking > restaurant > mexican restaurant > taco restaurant,1
50b81aa0e4b0220e62cc0626,"Tacos Ramiro ""El Suadero""",20.704710441924398,-103.34729874416657,Francisco Verdín,Guadalajara,Jalisco,44280,,,,MX,2012-11-30,2021-08-11,,,,,,,,['4bf58dd8d48988d151941735'],['Dining and Drinking > Restaurant > Mexican Restaurant > Taco Restaurant'],b'\x00\x00\x00\x00\x01\xc0Y\xd6:$\x83\x08\xc9@4\xb4g\xe7M7\n',"{'xmin': -103.34729874416657, 'ymin': 20.704710441924398, 'xmax': -103.34729874416657, 'ymax': 20.704710441924398}",dining and drinking > restaurant > mexican restaurant > taco restaurant,1
5047fb16e4b0d14d95f5699e,Tacos Los Alteños,20.636386310777745,-103.4322701535972,,,,,,,,MX,2012-09-06,2021-08-13,,,,,,,,['4bf58dd8d48988d151941735'],['Dining and Drinking > Restaurant > Mexican Restaurant > Taco Restaurant'],b'\x00\x00\x00\x00\x01\xc0Y\xdb\xaaPo/)@4\xa2\xea6\x98i\x9a',"{'xmin': -103.4322701535972, 'ymin': 20.636386310777745, 'xmax': -103.4322701535972, 'ymax': 20.636386310777745}",dining and drinking > restaurant > mexican restaurant > taco restaurant,1
5b8ee3ad6e4650002cc7cdfb,Tacos De Barbacoa La Cumbia,20.669922,-103.348973,Colon,Guadalajara,JAL,44469,,,,MX,2018-09-04,2023-12-20,,33 3613 2645,,,,,,['4bf58dd8d48988d151941735'],['Dining and Drinking > Restaurant > Mexican Restaurant > Taco Restaurant'],b'\x00\x00\x00\x00\x01\xc0Y\xd6U\x92\xd9\x8b\xf8@4\xab\x80\x02\x18\xde\xf4',"{'xmin': -103.348973, 'ymin': 20.669922, 'xmax': -103.348973, 'ymax': 20.669922}",dining and drinking > restaurant > mexican restaurant > taco restaurant,1
5297e3a9498ecb826cf44be1,Tacos El Rayo,21.89940496089112,-102.30584954431563,Av Universidad 202,Aguascalientes,Aguascalientes,20010,,,,MX,2013-11-29,2020-11-30,,,,,,,,['4bf58dd8d48988d151941735'],['Dining and Drinking > Restaurant > Mexican Restaurant > Taco Restaurant'],b'\x00\x00\x00\x00\x01\xc0Y\x93\x93\t\xf7\x95B@5\xe6?gL\xe34',"{'xmin': -102.30584954431563, 'ymin': 21.89940496089112, 'xmax': -102.30584954431563, 'ymax': 21.89940496089112}",dining and drinking > restaurant > mexican restaurant > taco restaurant,1
5d62d7c58b45db0007d8fdda,Tacos Madeline,19.231618,-103.677664,176 Paseo Miguel Alemán,Colima,COL,28610,,,,MX,2019-08-25,2020-11-30,,,,,,,,['4bf58dd8d48988d151941735'],['Dining and Drinking > Restaurant > Mexican Restaurant > Taco Restaurant'],b'\x00\x00\x00\x00\x01\xc0Y\xeb^\xd8\xd3kL@3;KQ7*9',"{'xmin': -103.677664, 'ymin': 19.231618, 'xmax': -103.677664, 'ymax': 19.231618}",dining and drinking > restaurant > mexican restaurant > taco restaurant,1
54b6a111498ef6705f0da65f,Tacos Tocaven,19.684125414751893,-101.19075887123495,Calle Virrey de Mendoza Esq. Taximaroa,Morelia,Michoacan,,,,,MX,2014-08-17,2021-12-19,,,,,,,,['4bf58dd8d48988d151941735'],['Dining and Drinking > Restaurant > Mexican Restaurant > Taco Restaurant'],"b'\x00\x00\x00\x00\x01\xc0YL5d\xb2X\x10@3\xaf""\xd7\xda\xb8\xc9'","{'xmin': -101.19075887123495, 'ymin': 19.684125414751893, 'xmax': -101.19075887123495, 'ymax': 19.684125414751893}",dining and drinking > restaurant > mexican restaurant > taco restaurant,1
505d60c9e4b0bcb213946cf7,El Trompo Taqueria,20.683217849128106,-103.39360178175271,Mayas 3121,Guadalajara,Jalisco,,,,,MX,2012-09-22,2021-08-11,,33 1425 1740,,,,,tacoseltrompo,['4bf58dd8d48988d151941735'],['Dining and Drinking > Restaurant > Mexican Restaurant > Taco Restaurant'],b'\x00\x00\x00\x00\x01\xc0Y\xd90\xc5\x87\x11\x9d@4\xae\xe7]n\x0cv',"{'xmin': -103.39360178175271, 'ymin': 20.683217849128106, 'xmax': -103.39360178175271, 'ymax': 20.683217849128106}",dining and drinking > restaurant > mexican restaurant > taco restaurant,1
5005ffdde4b093d397ad2878,Tacos El Zaguán,20.965445,-101.279552,,,,,,,,MX,2012-07-18,2021-08-11,,,,,,,,['4bf58dd8d48988d151941735'],['Dining and Drinking > Restaurant > Mexican Restaurant > Taco Restaurant'],"b""\x00\x00\x00\x00\x01\xc0YQ\xe4.\x12b\x02@4\xf7'gM\x163""","{'xmin': -101.279552, 'ymin': 20.965445, 'xmax': -101.279552, 'ymax': 20.965445}",dining and drinking > restaurant > mexican restaurant > taco restaurant,1
4eb16cf602d5c1a5e43c253b,Tacos el Mantegaza,21.13338433726561,-101.68790738099368,,,,,,,,MX,2011-11-02,2021-08-12,,,,,,,,['4bf58dd8d48988d151941735'],['Dining and Drinking > Restaurant > Mexican Restaurant > Taco Restaurant'],"b'\x00\x00\x00\x00\x01\xc0Yl\x06\xac\xae\x02\xdf@5""%y\xd6Z\xbc'","{'xmin': -101.68790738099368, 'ymin': 21.13338433726561, 'xmax': -101.68790738099368, 'ymax': 21.13338433726561}",dining and drinking > restaurant > mexican restaurant > taco restaurant,1
5642b51d498e5d69aa30542d,Tacos Samy,20.687043361651465,-101.3271047266218,,,,,,,,MX,2015-11-11,2021-08-12,,,,,,,,['4bf58dd8d48988d151941735'],['Dining and Drinking > Restaurant > Mexican Restaurant > Taco Restaurant'],b'\x00\x00\x00\x00\x01\xc0YT\xefH\xa9\xcdJ@4\xaf\xe2\x12\xe1:\x19',"{'xmin': -101.3271047266218, 'ymin': 20.687043361651465, 'xmax': -101.3271047266218, 'ymax': 20.687043361651465}",dining and drinking > restaurant > mexican restaurant > taco restaurant,1
4fa99195bb3d0ea58714dd5d,Brasitacos,20.675195,-101.376268,Mariano J. García,Irapuato,GTO,,,,,MX,2012-05-08,2020-11-21,,,,,,,,['4bf58dd8d48988d151941735'],['Dining and Drinking > Restaurant > Mexican Restaurant > Taco Restaurant'],b'\x00\x00\x00\x00\x01\xc0YX\x14\xc6`\xa2\x01@4\xac\xd9\x94[l7',"{'xmin': -101.376268, 'ymin': 20.675195, 'xmax': -101.376268, 'ymax': 20.675195}",dining and drinking > restaurant > mexican restaurant > taco restaurant,1
5b4a4043de3bbf00397ccfff,Tacos Charlie,20.632679,-103.414406,,Zapopan,Jalisco,45070,,,,MX,2018-07-14,2020-11-25,,,,,,,,['4bf58dd8d48988d151941735'],['Dining and Drinking > Restaurant > Mexican Restaurant > Taco Restaurant'],b'\x00\x00\x00\x00\x01\xc0Y\xda\x85\xa0\xbeQ\t@4\xa1\xf7@=\xdd\xb1',"{'xmin': -103.414406, 'ymin': 20.632679, 'xmax': -103.414406, 'ymax': 20.632679}",dining and drinking > restaurant > mexican restaurant > taco restaurant,1
54e290af498eee7bd097c977,Taqueria Bar Micheladas Emilianos,19.117249687041078,-104.3524355482802,"Miraflores , Santiago",Manzanillo,Colima,,,,,MX,2015-02-17,2020-11-23,,,,,,,,['4bf58dd8d48988d151941735'],['Dining and Drinking > Restaurant > Mexican Restaurant > Taco Restaurant'],b'\x00\x00\x00\x00\x01\xc0Z\x16\x8eM\xd4s\xec@3\x1e\x04\x13SN\xc3',"{'xmin': -104.3524355482802, 'ymin': 19.117249687041078, 'xmax': -104.3524355482802, 'ymax': 19.117249687041078}",dining and drinking > restaurant > mexican restaurant > taco restaurant,1
503ed7bee4b0ad39e6106bba,Taquería Don Toño,20.660555717487625,-103.31772585716271,,,,,,,,MX,2012-08-30,2023-12-20,,445 458 3718,,,,,,['4bf58dd8d48988d151941735'],['Dining and Drinking > Restaurant > Mexican Restaurant > Taco Restaurant'],b'\x00\x00\x00\x00\x01\xc0Y\xd4U\x9e\xd5f\xe0@4\xa9\x1a-\xf3\xcb\x90',"{'xmin': -103.31772585716271, 'ymin': 20.660555717487625, 'xmax': -103.31772585716271, 'ymax': 20.660555717487625}",dining and drinking > restaurant > mexican restaurant > taco restaurant,1
5ef62ae8868ffa0008abcdbf,Carnitas Victoria,20.623217,-103.432915,Periférico Sur 65,Zapopan,Jalisco,45236,,,,MX,2020-06-26,2020-11-25,,,,,,,,['4bf58dd8d48988d151941735'],['Dining and Drinking > Restaurant > Mexican Restaurant > Taco Restaurant'],b'\x00\x00\x00\x00\x01\xc0Y\xdb\xb4\xe1\x1d\xbc\xa9@4\x9f\x8b&9O\xad',"{'xmin': -103.432915, 'ymin': 20.623217, 'xmax': -103.432915, 'ymax': 20.623217}",dining and drinking > restaurant > mexican restaurant > taco restaurant,1
5d9b5e32c664840008b48c50,Carnitas Crispin,21.114407,-101.62734,,León,GTO,37287,,,,MX,2019-10-07,2020-11-23,,,,,,,,['4bf58dd8d48988d151941735'],['Dining and Drinking > Restaurant > Mexican Restaurant > Taco Restaurant'],b'\x00\x00\x00\x00\x01\xc0Yh&V\xab\xde@@5\x1dI\xc6\xf3n\xf8',"{'xmin': -101.62734, 'ymin': 21.114407, 'xmax': -101.62734, 'ymax': 21.114407}",dining and drinking > restaurant > mexican restaurant > taco restaurant,1
531c8221498e90f570ddabd8,Carnitas Zinapecuro,20.596837997436523,-103.40681457519531,,,,,,,,MX,2014-03-09,2021-08-13,,,,,,,,['4bf58dd8d48988d151941735'],['Dining and Drinking > Restaurant > Mexican Restaurant > Taco Restaurant'],b'\x00\x00\x00\x00\x01\xc0Y\xda\t@\x00\x00\x00@4\x98\xca`\x00\x00\x00',"{'xmin': -103.40681457519531, 'ymin': 20.596837997436523, 'xmax': -103.40681457519531, 'ymax': 20.596837997436523}",dining and drinking > restaurant > mexican restaurant > taco restaurant,1
51450557e4b0dba1af988bd1,Birrieria Arenas,21.357438,-101.933049,,,,,,,,MX,2013-03-16,2021-08-15,,,,,,,,['4bf58dd8d48988d151941735'],['Dining and Drinking > Restaurant > Mexican Restaurant > Taco Restaurant'],"b""\x00\x00\x00\x00\x01\xc0Y{\xb7\x13'$1@5[\x81\x0e\x88X\xff""","{'xmin': -101.933049, 'ymin': 21.357438, 'xmax': -101.933049, 'ymax': 21.357438}",dining and drinking > restaurant > mexican restaurant > taco restaurant,1
505bbbcee4b03366b9832001,Tacos y Antojitos Del Barrio,20.744681,-103.432395,Valle Ameca #2457,Zapopan,Jalisco,45130,,,,MX,2012-09-21,2020-11-24,,33 1517 5585,,,,,,['4bf58dd8d48988d151941735'],['Dining and Drinking > Restaurant > Mexican Restaurant > Taco Restaurant'],b'\x00\x00\x00\x00\x01\xc0Y\xdb\xac\\\x13\xfd\r@4\xbe\xa3i\xfc\xf3\xdc',"{'xmin': -103.432395, 'ymin': 20.744681, 'xmax': -103.432395, 'ymax': 20.744681}",dining and drinking > restaurant > mexican restaurant > taco restaurant,1
516d66d0e4b0eb3a2ba635d5,Birria De Res 'Alejandro',21.155539721890694,-101.6521879954108,,,,,,,,MX,2013-04-16,2021-08-15,,,,,,,,['4bf58dd8d48988d1c1941735' '4bf58dd8d48988d151941735'],"['Dining and Drinking > Restaurant > Mexican Restaurant'
 'Dining and Drinking > Restaurant > Mexican Restaurant > Taco Restaurant']","b""\x00\x00\x00\x00\x01\xc0Yi\xbdr\xb7\xc8\x86@5'\xd1s\x82\xbf\xdd""","{'xmin': -101.6521879954108, 'ymin': 21.155539721890694, 'xmax': -101.6521879954108, 'ymax': 21.155539721890694}","dining and drinking > restaurant > mexican restaurant, dining and drinking > restaurant > mexican restaurant > taco restaurant",1
52e5b07d498edb3e8369dce5,los volcanes,22.150725399712183,-100.98678033931989,,,,,,,,MX,2014-01-27,2021-08-15,,,,,,,,['4bf58dd8d48988d151941735'],['Dining and Drinking > Restaurant > Mexican Restaurant > Taco Restaurant'],"b""\x00\x00\x00\x00\x01\xc0Y?'h\xb9m\xbe@6&\x95\xf0\x96p\xbb""","{'xmin': -100.98678033931989, 'ymin': 22.150725399712183, 'xmax': -100.98678033931989, 'ymax': 22.150725399712183}",dining and drinking > restaurant > mexican restaurant > taco restaurant,1
57044487498ea1545a90b495,Tacos El Machin,20.648881674223606,-105.20060698390176,Fco. Medina Ascencio,,,,,,,MX,2016-04-05,2021-08-12,,,,,,,,['4bf58dd8d48988d151941735'],['Dining and Drinking > Restaurant > Mexican Restaurant > Taco Restaurant'],b'\x00\x00\x00\x00\x01\xc0ZL\xd6\xbe\xac\xcdD@4\xa6\x1d\x1c\x01\xc3\x9d',"{'xmin': -105.20060698390176, 'ymin': 20.648881674223606, 'xmax': -105.20060698390176, 'ymax': 20.648881674223606}",dining and drinking > restaurant > mexican restaurant > taco restaurant,1
5203b13e498ec73f6a07e6de,"Tacos Dorados  ""Pachi""",20.760144,-105.23089,,,,,,,,MX,2013-08-08,2021-08-13,,,,,,,,['4bf58dd8d48988d151941735'],['Dining and Drinking > Restaurant > Mexican Restaurant > Taco Restaurant'],b'\x00\x00\x00\x00\x01\xc0ZN\xc6\xe6\xd9\xbeM@4\xc2\x98\xcc\x14@)',"{'xmin': -105.23089, 'ymin': 20.760144, 'xmax': -105.23089, 'ymax': 20.760144}",dining and drinking > restaurant > mexican restaurant > taco restaurant,1
4d9222b280d337046df2ac06,Tacos de Carnitas del DIF,21.908067212836166,-102.31026562169646,Av. Universidad,Aguascalientes,AGS,,,,,MX,2011-03-29,2020-11-30,,,,,,,,['4bf58dd8d48988d151941735'],['Dining and Drinking > Restaurant > Mexican Restaurant > Taco Restaurant'],b'\x00\x00\x00\x00\x01\xc0Y\x93\xdbdV\x90\x9a@5\xe8w\x17\xc5\xb3\x82',"{'xmin': -102.31026562169646, 'ymin': 21.908067212836166, 'xmax': -102.31026562169646, 'ymax': 21.908067212836166}",dining and drinking > restaurant > mexican restaurant > taco restaurant,1
5148c949e4b0fbd6677f8272,Birrieria Jaramillo,21.902591077123144,-102.30531841765135,,,,,,,,MX,2013-03-19,2021-08-15,,,,,,,,['4bf58dd8d48988d1c1941735' '4bf58dd8d48988d151941735'],"['Dining and Drinking > Restaurant > Mexican Restaurant'
 'Dining and Drinking > Restaurant > Mexican Restaurant > Taco Restaurant']",b'\x00\x00\x00\x00\x01\xc0Y\x93\x8aVB\xabu@5\xe7\x105u\xe7\xc3',"{'xmin': -102.30531841765135, 'ymin': 21.902591077123144, 'xmax': -102.30531841765135, 'ymax': 21.902591077123144}","dining and drinking > restaurant > mexican restaurant, dining and drinking > restaurant > mexican restaurant > taco restaurant",1
5162380a498ee174cff8946c,Tacos Doña Teta,19.257739,-103.730318,,,,,,,,MX,2013-04-08,2020-11-23,,,,,,,,['4bf58dd8d48988d151941735'],['Dining and Drinking > Restaurant > Mexican Restaurant > Taco Restaurant'],b'\x00\x00\x00\x00\x01\xc0Y\xee\xbd\x87\xb5k\x87@3A\xfb.\xdf\xe7\\',"{'xmin': -103.730318, 'ymin': 19.257739, 'xmax': -103.730318, 'ymax': 19.257739}",dining and drinking > restaurant > mexican restaurant > taco restaurant,1
19a911abc6644abd53f235eb,Tacos Tuxpeños Don Rafa,19.238294,-103.696746,Andres Quintana Roo 1397,Colima,Colima,28046,,,,MX,2010-11-04,2023-12-06,,312 312 5323,,,,,,['4bf58dd8d48988d151941735'],['Dining and Drinking > Restaurant > Mexican Restaurant > Taco Restaurant'],b'\x00\x00\x00\x00\x01\xc0Y\xec\x97|\x88\xe7\x9b@3=\x00\xd5\xe8\xd5A',"{'xmin': -103.696746, 'ymin': 19.238294, 'xmax': -103.696746, 'ymax': 19.238294}",dining and drinking > restaurant > mexican restaurant > taco restaurant,1
5151d731e4b057ba6c0d06f9,tacos martin (La Jali),21.030339742828943,-102.39355353925184,,,,,,,,MX,2013-03-26,2021-08-15,,,,,,,,['4bf58dd8d48988d151941735'],['Dining and Drinking > Restaurant > Mexican Restaurant > Taco Restaurant'],b'\x00\x00\x00\x00\x01\xc0Y\x99/\xfb/\x13\xf3@5\x07\xc4Xk8(',"{'xmin': -102.39355353925184, 'ymin': 21.030339742828943, 'xmax': -102.39355353925184, 'ymax': 21.030339742828943}",dining and drinking > restaurant > mexican restaurant > taco restaurant,1
50ba44e0e4b0fa375bf4a38d,Tacos de Barbacoa Beny,20.623372596055546,-103.36289357725205,María C. Bancalari,,,,,,,MX,2012-12-01,2021-08-13,,,,,,,,['4bf58dd8d48988d151941735'],['Dining and Drinking > Restaurant > Mexican Restaurant > Taco Restaurant'],b'\x00\x00\x00\x00\x01\xc0Y\xd79\xa5\xfb\x8ew@4\x9f\x95X\xb1G\xfc',"{'xmin': -103.36289357725205, 'ymin': 20.623372596055546, 'xmax': -103.36289357725205, 'ymax': 20.623372596055546}",dining and drinking > restaurant > mexican restaurant > taco restaurant,1
5ae88a2c249623002cf896de,Quesadillas “LA CHINA”,21.095427,-101.58702,Blvd Galeana 412,León,GTO,37294,,,,MX,2018-05-01,2020-11-30,,,,,,,,['4bf58dd8d48988d151941735'],['Dining and Drinking > Restaurant > Mexican Restaurant > Taco Restaurant'],"b""\x00\x00\x00\x00\x01\xc0Ye\x91\xbcU\x86D@5\x18m\xe7d'\xc8""","{'xmin': -101.58702, 'ymin': 21.095427, 'xmax': -101.58702, 'ymax': 21.095427}",dining and drinking > restaurant > mexican restaurant > taco restaurant,1
5ada58f767a9fe3967086669,"Taqueria ""El Habanero""",19.252974,-99.598854,,Santa Cruz-Barrio-,Estado de México,52140,,,,MX,2018-04-20,2020-11-24,,,,,,,,['4bf58dd8d48988d151941735'],['Dining and Drinking > Restaurant > Mexican Restaurant > Taco Restaurant'],b'\x00\x00\x00\x00\x01\xc0X\xe6S\x9f\xbaE\x0b@3@\xc2\xe7p\xbd\x01',"{'xmin': -99.598854, 'ymin': 19.252974, 'xmax': -99.598854, 'ymax': 19.252974}",dining and drinking > restaurant > mexican restaurant > taco restaurant,1
58fc18c64acb19179873f1cd,Tacos Don Beto,19.268143,-99.53438,,San Mateo Atenco,Estado de México,,,,,MX,2017-04-23,2020-11-22,,,,,,,,['4bf58dd8d48988d151941735'],['Dining and Drinking > Restaurant > Mexican Restaurant > Taco Restaurant'],b'\x00\x00\x00\x00\x01\xc0X\xe23H+\xe8\xbc@3D\xa5\x05\x07\xa6\xbd',"{'xmin': -99.53438, 'ymin': 19.268143, 'xmax': -99.53438, 'ymax': 19.268143}",dining and drinking > restaurant > mexican restaurant > taco restaurant,1
51eb1ccd498ebe9b6c0a1ea7,Taquería Maralú,19.72450817686315,-101.19023810667132,,,,,,,,MX,2013-07-20,2021-08-11,,,,,,,,['4bf58dd8d48988d151941735'],['Dining and Drinking > Restaurant > Mexican Restaurant > Taco Restaurant'],"b'\x00\x00\x00\x00\x01\xc0YL,\xdcs\xa6\xcd@3\xb9y^-O\xd3'","{'xmin': -101.19023810667132, 'ymin': 19.72450817686315, 'xmax': -101.19023810667132, 'ymax': 19.72450817686315}",dining and drinking > restaurant > mexican restaurant > taco restaurant,1
4f9b0126e4b07e720ca3efbd,El Tabasqueño,19.2967233564378,-99.14647736089918,,,,,,,,MX,2012-04-27,2021-08-16,,,,,,,,['4bf58dd8d48988d151941735'],['Dining and Drinking > Restaurant > Mexican Restaurant > Taco Restaurant'],b'\x00\x00\x00\x00\x01\xc0X\xc9_\xe2\x94\xaa\xa6@3K\xf6\x0f\xd7\xdc\x15',"{'xmin': -99.14647736089918, 'ymin': 19.2967233564378, 'xmax': -99.14647736089918, 'ymax': 19.2967233564378}",dining and drinking > restaurant > mexican restaurant > taco restaurant,1
538249df498eaf0c79093554,Pancita y Pozole Doña Mary,19.23445546333427,-99.11440480026748,,,,,,,,MX,2014-05-25,2021-08-17,,,,,,,,['4bf58dd8d48988d151941735'],['Dining and Drinking > Restaurant > Mexican Restaurant > Taco Restaurant'],b'\x00\x00\x00\x00\x01\xc0X\xc7Rh\x82\xe9\xdf@3<\x05E\xf3c\xa4',"{'xmin': -99.11440480026748, 'ymin': 19.23445546333427, 'xmax': -99.11440480026748, 'ymax': 19.23445546333427}",dining and drinking > restaurant > mexican restaurant > taco restaurant,1
4fed13ffe4b0562c828a3917,Quecas Las Karolas,19.319539,-99.102211,Laura Mendez,Mexico,Df,,,,,MX,2012-06-29,2020-11-30,,,,,,,,['4bf58dd8d48988d151941735'],['Dining and Drinking > Restaurant > Mexican Restaurant > Taco Restaurant'],b'\x00\x00\x00\x00\x01\xc0X\xc6\x8a\xa0\x01\x92\xa7@3Q\xcdN\xd2\xcb\xea',"{'xmin': -99.102211, 'ymin': 19.319539, 'xmax': -99.102211, 'ymax': 19.319539}",dining and drinking > restaurant > mexican restaurant > taco restaurant,1
52abae8811d22548fb89fea2,Taqueria EL REY DE XOTEPINGO,19.32829737109454,-99.13869446234285,,,,,,,,MX,2013-12-14,2021-08-12,,,,,,,,['4bf58dd8d48988d151941735'],['Dining and Drinking > Restaurant > Mexican Restaurant > Taco Restaurant'],b'\x00\x00\x00\x00\x01\xc0X\xc8\xe0^\xbc\xf9\x87@3T\x0bK\xe86\xbd',"{'xmin': -99.13869446234285, 'ymin': 19.32829737109454, 'xmax': -99.13869446234285, 'ymax': 19.32829737109454}",dining and drinking > restaurant > mexican restaurant > taco restaurant,1
501889c3e4b018aa711c3260,El azador mexicano,17.069127362138744,-96.70000712322333,,,,,,,,MX,2012-08-01,2021-08-15,,,,,,,,['4bf58dd8d48988d151941735'],['Dining and Drinking > Restaurant > Mexican Restaurant > Taco Restaurant'],"b'\x00\x00\x00\x00\x01\xc0X,\xcc\xea\xadM\x85@1\x11\xb2T\xaf\xa5\x08'","{'xmin': -96.70000712322333, 'ymin': 17.069127362138744, 'xmax': -96.70000712322333, 'ymax': 17.069127362138744}",dining and drinking > restaurant > mexican restaurant > taco restaurant,1
50ee2463e4b03df1181a4b50,Tacos Don Wero,19.248847,-99.122927,,,,,,,,MX,2013-01-10,2021-08-15,,,,,,,,['4bf58dd8d48988d151941735'],['Dining and Drinking > Restaurant > Mexican Restaurant > Taco Restaurant'],b'\x00\x00\x00\x00\x01\xc0X\xc7\xde\t52\xe8@3?\xb4o\xde\xb5-',"{'xmin': -99.122927, 'ymin': 19.248847, 'xmax': -99.122927, 'ymax': 19.248847}",dining and drinking > restaurant > mexican restaurant > taco restaurant,1
4cce7fab063a721eb2809a9a,El Cuñado,20.339404,-102.774923,,,,,,,,MX,2010-11-01,2021-08-14,,,,,,,,['4bf58dd8d48988d151941735'],['Dining and Drinking > Restaurant > Mexican Restaurant > Taco Restaurant'],b'\x00\x00\x00\x00\x01\xc0Y\xb1\x98V\xa3z\xc4@4V\xe3.8!\xaf',"{'xmin': -102.774923, 'ymin': 20.339404, 'xmax': -102.774923, 'ymax': 20.339404}",dining and drinking > restaurant > mexican restaurant > taco restaurant,1
50d229fce4b0076d6fd85fb9,Carnitas Madreselva,19.253784,-99.100555,,,,,,,,MX,2012-12-19,2021-08-15,,,,,,,,['4bf58dd8d48988d151941735'],['Dining and Drinking > Restaurant > Mexican Restaurant > Taco Restaurant'],b'\x00\x00\x00\x00\x01\xc0X\xc6o~=\x1c\xc1@3@\xf7\xfc\xfc?\x81',"{'xmin': -99.100555, 'ymin': 19.253784, 'xmax': -99.100555, 'ymax': 19.253784}",dining and drinking > restaurant > mexican restaurant > taco restaurant,1
57d55c0b498e0a6410a6d8a3,pancitta la mejor de la zona,20.488326,-103.497874,,,,,,,,MX,2016-09-11,2021-08-11,,,,,,,,['4bf58dd8d48988d151941735'],['Dining and Drinking > Restaurant > Mexican Restaurant > Taco Restaurant'],b'\x00\x00\x00\x00\x01\xc0Y\xdf\xdd*\xe8\xe1\xd6@4}\x02\xee\xc7\xc9X',"{'xmin': -103.497874, 'ymin': 20.488326, 'xmax': -103.497874, 'ymax': 20.488326}",dining and drinking > restaurant > mexican restaurant > taco restaurant,1
532070b3498e63ae31d5c51f,Taquería Lulu,19.25409644375273,-99.62717282985847,,,,,,,,MX,2014-03-12,2020-11-25,,,,,,,,['4bf58dd8d48988d151941735'],['Dining and Drinking > Restaurant > Mexican Restaurant > Taco Restaurant'],b'\x00\x00\x00\x00\x01\xc0X\xe8#\x99\x82K\xa4@3A\x0cv\xeb\xf2\xa8',"{'xmin': -99.62717282985847, 'ymin': 19.25409644375273, 'xmax': -99.62717282985847, 'ymax': 19.25409644375273}",dining and drinking > restaurant > mexican restaurant > taco restaurant,1
4f9db38fe4b0d04dc18dec0b,El Mayab antojitos yucatecos,18.81241057612371,-100.14087053689421,,Tejupilco,Mexico,,,,,MX,2012-04-29,2020-11-23,,,,,,,,['4bf58dd8d48988d151941735'],['Dining and Drinking > Restaurant > Mexican Restaurant > Taco Restaurant'],b'\x00\x00\x00\x00\x01\xc0Y\t\x04\x05\xdb;\x8f@2\xcf\xfa#\xb7`8',"{'xmin': -100.14087053689421, 'ymin': 18.81241057612371, 'xmax': -100.14087053689421, 'ymax': 18.81241057612371}",dining and drinking > restaurant > mexican restaurant > taco restaurant,1
553dac10498e04e928a3588b,Taquería El Pedregal,19.27515977466474,-99.17582136301787,,,,,,,,MX,2015-04-27,2021-08-17,,,,,,,,['4bf58dd8d48988d151941735'],['Dining and Drinking > Restaurant > Mexican Restaurant > Taco Restaurant'],b'\x00\x00\x00\x00\x01\xc0X\xcb@\xa8?\x06e@3Fp\xde\xf9\\\x1b',"{'xmin': -99.17582136301787, 'ymin': 19.27515977466474, 'xmax': -99.17582136301787, 'ymax': 19.27515977466474}",dining and drinking > restaurant > mexican restaurant > taco restaurant,1
55eba11e498ee0668356314b,Tacos La Parrilla,19.91563,-103.019863,,Mazamitla,Jalisco,,,,,MX,2015-09-06,2020-11-24,,,,,,,,['4bf58dd8d48988d151941735'],['Dining and Drinking > Restaurant > Mexican Restaurant > Taco Restaurant'],b'\x00\x00\x00\x00\x01\xc0Y\xc1Eou\xd9\xa1@3\xeaf\xbaI<\x8a',"{'xmin': -103.019863, 'ymin': 19.91563, 'xmax': -103.019863, 'ymax': 19.91563}",dining and drinking > restaurant > mexican restaurant > taco restaurant,1
65739030bba6ab5934cb6ebd,La Ola Taquería,15.833255,-97.044968,,Brisas de Zicatela,Oax.,71980,,,,MX,2023-12-08,2023-12-08,,,,,,,,['4bf58dd8d48988d151941735'],['Dining and Drinking > Restaurant > Mexican Restaurant > Taco Restaurant'],b'\x00\x00\x00\x00\x01\xc0XB\xe0\xc1vWu@/\xaa\xa0f<t\xfb',"{'xmin': -97.044968, 'ymin': 15.833255, 'xmax': -97.044968, 'ymax': 15.833255}",dining and drinking > restaurant > mexican restaurant > taco restaurant,1
5acd9008b1538e1cfc86b7c0,Taqueria El Salsero,19.333666,-99.10553,,Ciudad de México,Ciudad de México,09809,,,,MX,2018-04-11,2020-11-23,,,,,,,,['4bf58dd8d48988d151941735'],['Dining and Drinking > Restaurant > Mexican Restaurant > Taco Restaurant'],"b'\x00\x00\x00\x00\x01\xc0X\xc6\xc1\x00\xe6\xaf\xcd@3Uk""\x8d\xc9\x82'","{'xmin': -99.10553, 'ymin': 19.333666, 'xmax': -99.10553, 'ymax': 19.333666}",dining and drinking > restaurant > mexican restaurant > taco restaurant,1
4d4b7bc5d28f3704ac09f422,Tacos El cuñado,19.311503155950785,-99.10400005251954,Rosario Castellanos,Mexico City,Distrito Federal,04909,,,,MX,2011-02-04,2020-11-23,,,,,,,,['4bf58dd8d48988d151941735'],['Dining and Drinking > Restaurant > Mexican Restaurant > Taco Restaurant'],b'\x00\x00\x00\x00\x01\xc0X\xc6\xa7\xef\xd6\x16\xa3@3O\xbe\xab\xbbh\xcf',"{'xmin': -99.10400005251954, 'ymin': 19.311503155950785, 'xmax': -99.10400005251954, 'ymax': 19.311503155950785}",dining and drinking > restaurant > mexican restaurant > taco restaurant,1
4efca21ec512b6718ab26a37,Tacos de Canasta Jorge,19.69883438338314,-101.20801795852216,,,,,,,,MX,2011-12-29,2021-08-16,,,,,,,,['4bf58dd8d48988d151941735'],['Dining and Drinking > Restaurant > Mexican Restaurant > Taco Restaurant'],b'\x00\x00\x00\x00\x01\xc0YMP*\x8e5V@3\xb2\xe6\xcfe\xf3o',"{'xmin': -101.20801795852216, 'ymin': 19.69883438338314, 'xmax': -101.20801795852216, 'ymax': 19.69883438338314}",dining and drinking > restaurant > mexican restaurant > taco restaurant,1
5d02af66a22db7002cec4cc9,TAQUERIA EL CIRCO CDMX,19.308893014806927,-99.13289621472359,CALZADA DE LAS BOMBAS #60,COYOACAN,CIUDAD DE MEXICO,04899,,,,MX,2019-06-13,2020-11-25,,55 5677 3373,,,,,,['4bf58dd8d48988d151941735'],['Dining and Drinking > Restaurant > Mexican Restaurant > Taco Restaurant'],b'\x00\x00\x00\x00\x01\xc0X\xc8\x81_ \x00\x00@3O\x13\x9c\xd4\x8f\x00',"{'xmin': -99.13289621472359, 'ymin': 19.308893014806927, 'xmax': -99.13289621472359, 'ymax': 19.308893014806927}",dining and drinking > restaurant > mexican restaurant > taco restaurant,1
5973c0fb46e1b64b6ba87a77,Tacomanía,18.933753,-99.218361,,Cuernavaca,MOR,62290,,,,MX,2017-07-22,2020-11-30,,,,,,,,['4bf58dd8d48988d151941735'],['Dining and Drinking > Restaurant > Mexican Restaurant > Taco Restaurant'],b'\x00\x00\x00\x00\x01\xc0X\xcd\xf9\xa0jn3@2\xef\no\xc5\x8a\xb9',"{'xmin': -99.218361, 'ymin': 18.933753, 'xmax': -99.218361, 'ymax': 18.933753}",dining and drinking > restaurant > mexican restaurant > taco restaurant,1
4f7d4d95e4b0b591d5dfd0df,Taqueria los rudos,19.2972074,-99.2262219,,,,,,,,MX,2012-04-05,2021-08-15,,,,,,,,['4bf58dd8d48988d151941735'],['Dining and Drinking > Restaurant > Mexican Restaurant > Taco Restaurant'],b'\x00\x00\x00\x00\x01\xc0X\xcezkk\x88\xe5@3L\x15\xc8\xbf!\x13',"{'xmin': -99.2262219, 'ymin': 19.2972074, 'xmax': -99.2262219, 'ymax': 19.2972074}",dining and drinking > restaurant > mexican restaurant > taco restaurant,1
51fd3fbd498e0c5e69012085,Taqueria Capulhuac,19.28987,-99.650142,,,,,,,,MX,2013-08-03,2021-08-16,,,,,,,,['4bf58dd8d48988d151941735'],['Dining and Drinking > Restaurant > Mexican Restaurant > Taco Restaurant'],b'\x00\x00\x00\x00\x01\xc0X\xe9\x9b\xed0\xf0c@3J4\xeb\x9a\x17n',"{'xmin': -99.650142, 'ymin': 19.28987, 'xmax': -99.650142, 'ymax': 19.28987}",dining and drinking > restaurant > mexican restaurant > taco restaurant,1
55fb8e8b498e521ac63836d9,El Hornito,17.12334558565178,-96.76866210911544,El Tule,Oaxaca,,,,,,MX,2015-09-18,2020-11-30,,,,,,,,['4bf58dd8d48988d151941735'],['Dining and Drinking > Restaurant > Mexican Restaurant > Taco Restaurant'],b'\x00\x00\x00\x00\x01\xc0X11\xc2\x8f\x14\xd0@1\x1f\x93\x93\x88z\xf9',"{'xmin': -96.76866210911544, 'ymin': 17.12334558565178, 'xmax': -96.76866210911544, 'ymax': 17.12334558565178}",dining and drinking > restaurant > mexican restaurant > taco restaurant,1
5378efd7498efd10374d03da,tacos carnitas,19.33781,-99.118345,,,,,,,,MX,2014-05-18,2021-08-13,,,,,,,,['4bf58dd8d48988d151941735'],['Dining and Drinking > Restaurant > Mexican Restaurant > Taco Restaurant'],b'\x00\x00\x00\x00\x01\xc0X\xc7\x92\xf6\xe8)J@3Vz\xb7VC\x03',"{'xmin': -99.118345, 'ymin': 19.33781, 'xmax': -99.118345, 'ymax': 19.33781}",dining and drinking > restaurant > mexican restaurant > taco restaurant,1
51fc747d498ebc23c5b88285,Espartacos,19.163909912109375,-96.12870025634766,,,,,,,,MX,2013-08-03,2020-11-26,,,,,,,,['4bf58dd8d48988d151941735'],['Dining and Drinking > Restaurant > Mexican Restaurant > Taco Restaurant'],b'\x00\x00\x00\x00\x01\xc0X\x08<\xa0\x00\x00\x00@3)\xf6\x00\x00\x00\x00',"{'xmin': -96.12870025634766, 'ymin': 19.163909912109375, 'xmax': -96.12870025634766, 'ymax': 19.163909912109375}",dining and drinking > restaurant > mexican restaurant > taco restaurant,1
4dec3cf3ae60e9892387c415,Tacos Petaquillas de Manolo,16.85152983616829,-99.90228692194674,"Cinco de Mayo (Siete Esquinas), Centro",Acapulco,Guerrero,,,,,MX,2011-06-06,2020-11-24,,,,,,,,['4bf58dd8d48988d151941735'],['Dining and Drinking > Restaurant > Mexican Restaurant > Taco Restaurant'],b'\x00\x00\x00\x00\x01\xc0X\xf9\xbf\x11\xa5W\xaa@0\xd9\xfd\xdb\xfd\xe9:',"{'xmin': -99.90228692194674, 'ymin': 16.85152983616829, 'xmax': -99.90228692194674, 'ymax': 16.85152983616829}",dining and drinking > restaurant > mexican restaurant > taco restaurant,1
53a65946498e92f6ecf5c8cd,Los tacones del Sur,19.282815339544676,-99.14633682963294,Arenal 570,Arenal Tepepan,Distrito federal,,,,,MX,2014-06-22,2020-11-23,,55 5641 8955,,,,,,['4bf58dd8d48988d151941735'],['Dining and Drinking > Restaurant > Mexican Restaurant > Taco Restaurant'],b'\x00\x00\x00\x00\x01\xc0X\xc9]\x95&^S@3Hf\x96\n&\xca',"{'xmin': -99.14633682963294, 'ymin': 19.282815339544676, 'xmax': -99.14633682963294, 'ymax': 19.282815339544676}",dining and drinking > restaurant > mexican restaurant > taco restaurant,1
4f011b51be7bbcd4f4c41136,Tacos de Teresilla,20.180478787061745,-102.60141466852703,,"El Fortin, Venustiano Carranza",Michoacan,,,,,MX,2012-01-02,2020-11-24,,,,,,,,['4bf58dd8d48988d151941735'],['Dining and Drinking > Restaurant > Mexican Restaurant > Taco Restaurant'],b'\x00\x00\x00\x00\x01\xc0Y\xa6}\x93\xf3*!@4.3\xdb\x98\rL',"{'xmin': -102.60141466852703, 'ymin': 20.180478787061745, 'xmax': -102.60141466852703, 'ymax': 20.180478787061745}",dining and drinking > restaurant > mexican restaurant > taco restaurant,1
51bfd454e4b0111e5f0e6abe,Tacos los Tios,18.92613756150875,-99.20361290676871,calle tamaulipas,morelos,cuernavaca,,,,,MX,2013-06-18,2020-11-22,,,,,,,,['4bf58dd8d48988d151941735'],['Dining and Drinking > Restaurant > Mexican Restaurant > Taco Restaurant'],b'\x00\x00\x00\x00\x01\xc0X\xcd\x07\xfem\xe7^@2\xed\x17Y\xeaF\xfb',"{'xmin': -99.20361290676871, 'ymin': 18.92613756150875, 'xmax': -99.20361290676871, 'ymax': 18.92613756150875}",dining and drinking > restaurant > mexican restaurant > taco restaurant,1
52e53b8611d230e189569559,Barbacoa Médica Sur,19.296707153320312,-99.17267608642578,,,,,,,,MX,2014-01-26,2021-08-15,,,,,,,,['4bf58dd8d48988d151941735'],['Dining and Drinking > Restaurant > Mexican Restaurant > Taco Restaurant'],b'\x00\x00\x00\x00\x01\xc0X\xcb\r \x00\x00\x00@3K\xf5\x00\x00\x00\x00',"{'xmin': -99.17267608642578, 'ymin': 19.296707153320312, 'xmax': -99.17267608642578, 'ymax': 19.296707153320312}",dining and drinking > restaurant > mexican restaurant > taco restaurant,1
56761cb9498e0699694c3ef9,Tacos de Cabeza Charlys,18.469019,-97.40848,,,,,,,,MX,2015-12-20,2021-08-17,,,,,,,,['4bf58dd8d48988d151941735'],['Dining and Drinking > Restaurant > Mexican Restaurant > Taco Restaurant'],b'\x00\x00\x00\x00\x01\xc0XZ$\x89LD|@2x\x11\xa1\x123\xdf',"{'xmin': -97.40848, 'ymin': 18.469019, 'xmax': -97.40848, 'ymax': 18.469019}",dining and drinking > restaurant > mexican restaurant > taco restaurant,1
52ce0fc0498e3a0155b05fc8,Tacos Don José,20.55176544189453,-103.44326782226562,,,,,,,,MX,2014-01-09,2021-08-11,,,,,,,,['4bf58dd8d48988d151941735'],['Dining and Drinking > Restaurant > Mexican Restaurant > Taco Restaurant'],b'\x00\x00\x00\x00\x01\xc0Y\xdc^\x80\x00\x00\x00@4\x8d@\x80\x00\x00\x00',"{'xmin': -103.44326782226562, 'ymin': 20.55176544189453, 'xmax': -103.44326782226562, 'ymax': 20.55176544189453}",dining and drinking > restaurant > mexican restaurant > taco restaurant,1
4fef8819e4b079c53f0cfd7e,Los Primos,19.690478993391217,-101.16280568856641,,,,,,,,MX,2012-06-30,2021-08-14,,,,,,,,['4bf58dd8d48988d151941735'],['Dining and Drinking > Restaurant > Mexican Restaurant > Taco Restaurant'],b'\x00\x00\x00\x00\x01\xc0YJkh\x8c\xff\xb6@3\xb0\xc3;70\xb6',"{'xmin': -101.16280568856641, 'ymin': 19.690478993391217, 'xmax': -101.16280568856641, 'ymax': 19.690478993391217}",dining and drinking > restaurant > mexican restaurant > taco restaurant,1
59b311d1112c6c0852706541,Taqueria De La Sierra,19.23936,-99.143667,,Ciudad de México,CDMX,16240,,,,MX,2017-09-08,2020-11-20,,,,,,,,['4bf58dd8d48988d151941735'],['Dining and Drinking > Restaurant > Mexican Restaurant > Taco Restaurant'],b'\x00\x00\x00\x00\x01\xc0X\xc91\xd7\x12\xa0\xec@3=F\xb2k\xf8w',"{'xmin': -99.143667, 'ymin': 19.23936, 'xmax': -99.143667, 'ymax': 19.23936}",dining and drinking > restaurant > mexican restaurant > taco restaurant,1
5d33579a90a6f60008e5e83a,Los Mineros,19.69562,-101.176609,,Morelia,MICH,58260,,,,MX,2019-07-20,2020-11-23,,,,,,,,['4bf58dd8d48988d151941735'],['Dining and Drinking > Restaurant > Mexican Restaurant > Taco Restaurant'],b'\x00\x00\x00\x00\x01\xc0YKM\x8f\xd5\xcby@3\xb2\x14&\xfeq\x8b',"{'xmin': -101.176609, 'ymin': 19.69562, 'xmax': -101.176609, 'ymax': 19.69562}",dining and drinking > restaurant > mexican restaurant > taco restaurant,1
515112aae4b0ab38c5c627f0,Tacos Doña Juanita,19.33448305807242,-99.02135669582037,,Iztapalapa,Distrito Federal,09670,,,,MX,2013-03-26,2020-11-23,,,,,,,,['4bf58dd8d48988d151941735'],['Dining and Drinking > Restaurant > Mexican Restaurant > Taco Restaurant'],b'\x00\x00\x00\x00\x01\xc0X\xc1]\xe8y\x86X@3U\xa0\xae\x83|\xb3',"{'xmin': -99.02135669582037, 'ymin': 19.33448305807242, 'xmax': -99.02135669582037, 'ymax': 19.33448305807242}",dining and drinking > restaurant > mexican restaurant > taco restaurant,1
54e2ab6d498e8f443038877d,El Farolito,19.26714340209688,-99.62597672752104,,Metepec,Morelos,,,,,MX,2015-02-17,2020-11-30,,,,,,,,['4bf58dd8d48988d151941735'],['Dining and Drinking > Restaurant > Mexican Restaurant > Taco Restaurant'],b'\x00\x00\x00\x00\x01\xc0X\xe8\x10\x00\xb10\xa3@3Dc\x82\x8fY)',"{'xmin': -99.62597672752104, 'ymin': 19.26714340209688, 'xmax': -99.62597672752104, 'ymax': 19.26714340209688}",dining and drinking > restaurant > mexican restaurant > taco restaurant,1
