fsq_place_id,name,latitude,longitude,address,locality,region,postcode,admin_region,post_town,po_box,country,date_created,date_refreshed,date_closed,tel,website,email,facebook_id,instagram,twitter,fsq_category_ids,fsq_category_labels,geom,bbox,labels_str,taco_restaurant
4f020427f9abd5b3928e7857,Birria La Doña,31.826879894401724,-116.6019775738583,,Ensenada,Baja California,,,,,MX,2012-01-02,2020-11-25,,,,,,,,['4bf58dd8d48988d151941735'],['Dining and Drinking > Restaurant > Mexican Restaurant > Taco Restaurant'],"b'\x00\x00\x00\x00\x01\xc0]&\x86\xcc\xf2)f@?\xd3\xaef\x98,\xe3'","{'xmin': -116.6019775738583, 'ymin': 31.826879894401724, 'xmax': -116.6019775738583, 'ymax': 31.826879894401724}",dining and drinking > restaurant > mexican restaurant > taco restaurant,1
59223dac75eee41483a35975,Tacos Sandra,32.548313,-116.04601,,Manchón Blanco,Baja California,,,,,MX,2017-05-22,2020-11-30,,,,,,,,['4bf58dd8d48988d151941735'],['Dining and Drinking > Restaurant > Mexican Restaurant > Taco Restaurant'],b'\x00\x00\x00\x00\x01\xc0]\x02\xf1\xd3\xedR~@@F/\x1e\xd1|_',"{'xmin': -116.04601, 'ymin': 32.548313, 'xmax': -116.04601, 'ymax': 32.548313}",dining and drinking > restaurant > mexican restaurant > taco restaurant,1
57488e89cd1062490c80dd12,Carnitas De Mi Pueblo,32.613647600792405,-115.46481494459962,,,,,,,,MX,2016-05-27,2023-12-19,,686 559 6900,,,,,,['4bf58dd8d48988d151941735'],['Dining and Drinking > Restaurant > Mexican Restaurant > Taco Restaurant'],"b'\x00\x00\x00\x00\x01\xc0\\\xdd\xbf\x87.o\xd6@@N\x8c\x01,V\x0c'","{'xmin': -115.46481494459962, 'ymin': 32.613647600792405, 'xmax': -115.46481494459962, 'ymax': 32.613647600792405}",dining and drinking > restaurant > mexican restaurant > taco restaurant,1
5063f031e4b033de5a2c67a2,tacos La Esquina,32.513855288833135,-117.11615442893131,,,,,,,,MX,2012-09-27,2021-08-16,,,,,,,,['4bf58dd8d48988d151941735'],['Dining and Drinking > Restaurant > Mexican Restaurant > Taco Restaurant'],b'\x00\x00\x00\x00\x01\xc0]Go\x12\xfcb\xea@@A\xc6\x02\x965\x1d',"{'xmin': -117.11615442893131, 'ymin': 32.513855288833135, 'xmax': -117.11615442893131, 'ymax': 32.513855288833135}",dining and drinking > restaurant > mexican restaurant > taco restaurant,1
4ea5b3ebb80355a9831ab53b,Los Barriles Birria,32.52463680893563,-116.94491966409268,,Tijuana,Baja California,,,,,MX,2011-10-24,2020-11-24,,,,,,,,['4bf58dd8d48988d151941735'],['Dining and Drinking > Restaurant > Mexican Restaurant > Taco Restaurant'],"b""\x00\x00\x00\x00\x01\xc0]<y\x90S\xa8\x06@@C'L\x88T\x03""","{'xmin': -116.94491966409268, 'ymin': 32.52463680893563, 'xmax': -116.94491966409268, 'ymax': 32.52463680893563}",dining and drinking > restaurant > mexican restaurant > taco restaurant,1
5de9e30e775cb400082a01f9,El Regreso,31.865208,-116.62254,,Ensenada,Baja California,22800,,,,MX,2019-12-06,2020-11-22,,,,,,,,['4bf58dd8d48988d151941735'],['Dining and Drinking > Restaurant > Mexican Restaurant > Taco Restaurant'],"b""\x00\x00\x00\x00\x01\xc0]'\xd7\xb2\x03\x1c\xeb@?\xdd~E\x80<\xd1""","{'xmin': -116.62254, 'ymin': 31.865208, 'xmax': -116.62254, 'ymax': 31.865208}",dining and drinking > restaurant > mexican restaurant > taco restaurant,1
527fc0bf11d2708b18ea0a48,Tacos de Borrego El Güero,32.615516662597656,-115.47891235351562,,,,,,,,MX,2013-11-10,2021-08-14,,,,,,,,['4bf58dd8d48988d151941735'],['Dining and Drinking > Restaurant > Mexican Restaurant > Taco Restaurant'],b'\x00\x00\x00\x00\x01\xc0\\\xde\xa6\x80\x00\x00\x00@@N\xc9@\x00\x00\x00',"{'xmin': -115.47891235351562, 'ymin': 32.615516662597656, 'xmax': -115.47891235351562, 'ymax': 32.615516662597656}",dining and drinking > restaurant > mexican restaurant > taco restaurant,1
4ebeb3289911a2ec5b7bed44,Carnitas El Pájaro,32.635378,-115.423126,Río Presidio,Mexicali,Baja California,,,,,MX,2011-11-12,2020-11-30,,528413026,,,,,,['4bf58dd8d48988d151941735'],['Dining and Drinking > Restaurant > Mexican Restaurant > Taco Restaurant'],b'\x00\x00\x00\x00\x01\xc0\\\xdb\x14\x7f\x13\x05\x96@@QT\x10\xf9L\x88',"{'xmin': -115.423126, 'ymin': 32.635378, 'xmax': -115.423126, 'ymax': 32.635378}",dining and drinking > restaurant > mexican restaurant > taco restaurant,1
525053aa11d20b9d7c9f58dd,El padrino birria,31.872797,-116.60743,,,,,,,,MX,2013-10-05,2021-08-16,,,,,,,,['4bf58dd8d48988d151941735'],['Dining and Drinking > Restaurant > Mexican Restaurant > Taco Restaurant'],"b'\x00\x00\x00\x00\x01\xc0]&\xe0""\x14&\xfe@?\xdfo\x9f\xcb\x0c\x02'","{'xmin': -116.60743, 'ymin': 31.872797, 'xmax': -116.60743, 'ymax': 31.872797}",dining and drinking > restaurant > mexican restaurant > taco restaurant,1
5e2361935159da000884575f,San Pedro Birrieria,32.644873,-115.46693,Calle F 2464,Mexicali,BC,21030,,,,MX,2020-01-18,2020-11-22,,,,,,,,['4bf58dd8d48988d1c1941735' '4bf58dd8d48988d151941735'],"['Dining and Drinking > Restaurant > Mexican Restaurant'
 'Dining and Drinking > Restaurant > Mexican Restaurant > Taco Restaurant']",b'\x00\x00\x00\x00\x01\xc0\\\xdd\xe2.]\xe1]@@R\x8b2\xce\x89e',"{'xmin': -115.46693, 'ymin': 32.644873, 'xmax': -115.46693, 'ymax': 32.644873}","dining and drinking > restaurant > mexican restaurant, dining and drinking > restaurant > mexican restaurant > taco restaurant",1
5426e8cb498e8524eb687d39,Taco Riendo,31.8615779876709,-116.62833404541016,,,,,,,,MX,2014-09-27,2021-08-11,,,,,,,,['4bf58dd8d48988d151941735'],['Dining and Drinking > Restaurant > Mexican Restaurant > Taco Restaurant'],b'\x00\x00\x00\x00\x01\xc0](6\xa0\x00\x00\x00@?\xdc\x90`\x00\x00\x00',"{'xmin': -116.62833404541016, 'ymin': 31.8615779876709, 'xmax': -116.62833404541016, 'ymax': 31.8615779876709}",dining and drinking > restaurant > mexican restaurant > taco restaurant,1
50edf98efe70b4bdc4ee870c,El Comalito,32.65357607304548,-115.4391860961914,Av. Rio Colorado 400,Mexicali,BC,,,,,MX,2013-01-09,2020-11-24,,,,,,,,['4bf58dd8d48988d151941735'],['Dining and Drinking > Restaurant > Mexican Restaurant > Taco Restaurant'],b'\x00\x00\x00\x00\x01\xc0\\\xdc\x1b\xa0\x00\x00\x00@@S\xa8ay\x96\xd7',"{'xmin': -115.4391860961914, 'ymin': 32.65357607304548, 'xmax': -115.4391860961914, 'ymax': 32.65357607304548}",dining and drinking > restaurant > mexican restaurant > taco restaurant,1
51fdc42b498e6da0a42c6965,Tacos El Cachanilla,32.443429835849045,-117.03561513573304,,,,,,,,MX,2013-08-04,2020-11-23,,,,,,,,['4bf58dd8d48988d151941735'],['Dining and Drinking > Restaurant > Mexican Restaurant > Taco Restaurant'],b'\x00\x00\x00\x00\x01\xc0]BG\x84\xb4\xcd\xd3@@8\xc2O\x11\x85j',"{'xmin': -117.03561513573304, 'ymin': 32.443429835849045, 'xmax': -117.03561513573304, 'ymax': 32.443429835849045}",dining and drinking > restaurant > mexican restaurant > taco restaurant,1
521fd91211d2ea824fdc8372,Tacos y Tortas El Meño,31.86215591430664,-116.61122131347656,,,,,,,,MX,2013-08-29,2021-08-11,,,,,,,,['4bf58dd8d48988d151941735'],['Dining and Drinking > Restaurant > Mexican Restaurant > Taco Restaurant'],"b""\x00\x00\x00\x00\x01\xc0]'\x1e@\x00\x00\x00@?\xdc\xb6@\x00\x00\x00""","{'xmin': -116.61122131347656, 'ymin': 31.86215591430664, 'xmax': -116.61122131347656, 'ymax': 31.86215591430664}",dining and drinking > restaurant > mexican restaurant > taco restaurant,1
4e55f33ed164a0684c58c044,Tacos El Texano,31.86545,-116.588284,,Ensenada,Baja California,,,,,MX,2011-08-25,2020-11-30,,,,,,,,['4bf58dd8d48988d151941735'],['Dining and Drinking > Restaurant > Mexican Restaurant > Taco Restaurant'],b'\x00\x00\x00\x00\x01\xc0]%\xa6q\xef0\xa5@?\xdd\x8e!\x96R\xbd',"{'xmin': -116.588284, 'ymin': 31.86545, 'xmax': -116.588284, 'ymax': 31.86545}",dining and drinking > restaurant > mexican restaurant > taco restaurant,1
4ebeb21f93ad36d7a88ef88e,Burritos El Toro,31.810339349467604,-116.59440463922155,,Ensenada,Baja California,,,,,MX,2011-11-12,2020-11-24,,,,,,,,['4bf58dd8d48988d151941735'],['Dining and Drinking > Restaurant > Mexican Restaurant > Taco Restaurant'],b'\x00\x00\x00\x00\x01\xc0]&\n\xb9\xc1\x83\x06@?\xcfrfL\xa0\x12',"{'xmin': -116.59440463922155, 'ymin': 31.810339349467604, 'xmax': -116.59440463922155, 'ymax': 31.810339349467604}",dining and drinking > restaurant > mexican restaurant > taco restaurant,1
4d8ccf825091a1cd111c6901,Tacos De Carne Asada,32.621013996531744,-115.47922924120337,,,,,,,,MX,2011-03-25,2021-08-11,,,,,,,,['4bf58dd8d48988d151941735'],['Dining and Drinking > Restaurant > Mexican Restaurant > Taco Restaurant'],b'\x00\x00\x00\x00\x01\xc0\\\xde\xab\xb1\x1f\x90X@@O}b\xfa\xbb&',"{'xmin': -115.47922924120337, 'ymin': 32.621013996531744, 'xmax': -115.47922924120337, 'ymax': 32.621013996531744}",dining and drinking > restaurant > mexican restaurant > taco restaurant,1
54b0e620498eacea32500c2d,Taco el mimi,32.53207,-117.023747,,,,,,,,MX,2015-01-10,2021-08-12,,,,,,,,['4bf58dd8d48988d151941735'],['Dining and Drinking > Restaurant > Mexican Restaurant > Taco Restaurant'],b'\x00\x00\x00\x00\x01\xc0]A\x85\x12#\x183@@D\x1a\xde\xa8\x97c',"{'xmin': -117.023747, 'ymin': 32.53207, 'xmax': -117.023747, 'ymax': 32.53207}",dining and drinking > restaurant > mexican restaurant > taco restaurant,1
4dfb6ae6b0fb73bb4d79b80a,Tacos Yaya,32.62776628154657,-115.4209545939504,Gordiano Guzmán 1400,Mexicali,Baja California,21299,,,,MX,2011-06-17,2020-11-22,,0,,,,,,['4bf58dd8d48988d151941735'],['Dining and Drinking > Restaurant > Mexican Restaurant > Taco Restaurant'],b'\x00\x00\x00\x00\x01\xc0\\\xda\xf0\xeb\x89\x87\x8c@@PZ\xa5@c\x14',"{'xmin': -115.4209545939504, 'ymin': 32.62776628154657, 'xmax': -115.4209545939504, 'ymax': 32.62776628154657}",dining and drinking > restaurant > mexican restaurant > taco restaurant,1
56f8c088498e706cc625932b,Taqueria Tadeo,22.13025619430158,-100.968146808137,Justo Corro No. 200,San Luis Potosí Méx.,,,,,,MX,2016-03-28,2021-08-10,,,,,,,,['4bf58dd8d48988d151941735'],['Dining and Drinking > Restaurant > Mexican Restaurant > Taco Restaurant'],b'\x00\x00\x00\x00\x01\xc0Y=\xf6\x1e\x07\xab7@6!XxN\xa0p',"{'xmin': -100.968146808137, 'ymin': 22.13025619430158, 'xmax': -100.968146808137, 'ymax': 22.13025619430158}",dining and drinking > restaurant > mexican restaurant > taco restaurant,1
4ef0afa4e5fa4678421ecebd,Tacos de Canasta Don Chuy,20.706167221069336,-103.35091400146484,Atenógenes Silva,guadalajara,JAL,,,,,MX,2011-12-20,2021-08-16,,,,,,,,['4bf58dd8d48988d151941735'],['Dining and Drinking > Restaurant > Mexican Restaurant > Taco Restaurant'],b'\x00\x00\x00\x00\x01\xc0Y\xd6u`\x00\x00\x00@4\xb4\xc7`\x00\x00\x00',"{'xmin': -103.35091400146484, 'ymin': 20.706167221069336, 'xmax': -103.35091400146484, 'ymax': 20.706167221069336}",dining and drinking > restaurant > mexican restaurant > taco restaurant,1
55e736d0498e3feb193e45f4,Taqueria Don Pancho,20.675537041637455,-103.27386988788857,Pablo Valdez,,Jalisco,44760,,,,MX,2015-09-02,2021-08-10,,,,,,,,['4bf58dd8d48988d151941735'],['Dining and Drinking > Restaurant > Mexican Restaurant > Taco Restaurant'],b'\x00\x00\x00\x00\x01\xc0Y\xd1\x87\x15\x90\xf5\xcc@4\xac\xef\xfe\xdd\x11\xc8',"{'xmin': -103.27386988788857, 'ymin': 20.675537041637455, 'xmax': -103.27386988788857, 'ymax': 20.675537041637455}",dining and drinking > restaurant > mexican restaurant > taco restaurant,1
57a0c626498ec5d26365fe1a,tacos lucas,21.147967,-101.675541,,,,,,,,MX,2016-08-02,2021-09-19,,,,,,,,['4bf58dd8d48988d151941735'],['Dining and Drinking > Restaurant > Mexican Restaurant > Taco Restaurant'],"b'\x00\x00\x00\x00\x01\xc0Yk<\x10Q\x86\xdb@5%\xe1*Q\xe3""'","{'xmin': -101.675541, 'ymin': 21.147967, 'xmax': -101.675541, 'ymax': 21.147967}",dining and drinking > restaurant > mexican restaurant > taco restaurant,1
50b10494e4b0708d8a45ab0c,tacos y gorditas doña Yuyis y don Nico,20.724838842384784,-103.39664167725971,Cuhitlahuac #69,Zapopan,Jalisco,,,,,MX,2012-11-24,2020-11-23,,,,,,,,['4bf58dd8d48988d151941735'],['Dining and Drinking > Restaurant > Mexican Restaurant > Taco Restaurant'],b'\x00\x00\x00\x00\x01\xc0Y\xd9b\x93\xc6\x03\xe8@4\xb9\x8f\t\xd2\xe9\xc4',"{'xmin': -103.39664167725971, 'ymin': 20.724838842384784, 'xmax': -103.39664167725971, 'ymax': 20.724838842384784}",dining and drinking > restaurant > mexican restaurant > taco restaurant,1
5e6db0fffc8400000812130f,La Ternera Gaúcha,20.736311,-103.36132,,Zapopan,Jalisco,45188,,,,MX,2020-03-15,2020-11-30,,,,,,,,['4bf58dd8d48988d151941735'],['Dining and Drinking > Restaurant > Mexican Restaurant > Taco Restaurant'],b'\x00\x00\x00\x00\x01\xc0Y\xd7\x1f\xdd\xeb\xd9\x02@4\xbc~\xe0\xb0\xaf`',"{'xmin': -103.36132, 'ymin': 20.736311, 'xmax': -103.36132, 'ymax': 20.736311}",dining and drinking > restaurant > mexican restaurant > taco restaurant,1
580280a538fa42d68d4d937f,Taqueria La Estancia,20.673264,-103.42695,,,,,,,,MX,2016-10-15,2021-08-13,,,,,,,,['4bf58dd8d48988d151941735'],['Dining and Drinking > Restaurant > Mexican Restaurant > Taco Restaurant'],b'\x00\x00\x00\x00\x01\xc0Y\xdbS&\x17\xc1\xbe@4\xac[\x07\x8d\x92\xfb',"{'xmin': -103.42695, 'ymin': 20.673264, 'xmax': -103.42695, 'ymax': 20.673264}",dining and drinking > restaurant > mexican restaurant > taco restaurant,1
5c4255069d7468002c167f7d,Tacos Los Juarez,21.502787,-104.88378,Juárez 477,Tepic,Nayarit,63177,,,,MX,2019-01-18,2020-11-25,,,,,,,,['4bf58dd8d48988d151941735'],['Dining and Drinking > Restaurant > Mexican Restaurant > Taco Restaurant'],b'\x00\x00\x00\x00\x01\xc0Z8\x8f\xd9\xfd6\xf8@5\x80\xb6\xa6\x19\xda\x9d',"{'xmin': -104.88378, 'ymin': 21.502787, 'xmax': -104.88378, 'ymax': 21.502787}",dining and drinking > restaurant > mexican restaurant > taco restaurant,1
4e129494d4c07597ff8b171a,Quesadillotas,21.01962011202101,-101.25730824389036,Alhóndiga,Guanajuato,Guanajuato,,,,,MX,2011-07-05,2020-11-25,,,,,,,,['4bf58dd8d48988d151941735'],['Dining and Drinking > Restaurant > Mexican Restaurant > Taco Restaurant'],b'\x00\x00\x00\x00\x01\xc0YPw\xbc\xff \x05@5\x05\x05\xd2\xdby^',"{'xmin': -101.25730824389036, 'ymin': 21.01962011202101, 'xmax': -101.25730824389036, 'ymax': 21.01962011202101}",dining and drinking > restaurant > mexican restaurant > taco restaurant,1
4d6b1d228fe6a1431eb1f0a3,Tacos El Güero,21.87590216666104,-102.31854701932687,Florencia,Aguascalientes,AGS,,,,,MX,2011-02-28,2020-11-23,,,,,,,,['4bf58dd8d48988d1cb941735' '4bf58dd8d48988d151941735'],"['Dining and Drinking > Food Truck'
 'Dining and Drinking > Restaurant > Mexican Restaurant > Taco Restaurant']",b'\x00\x00\x00\x00\x01\xc0Y\x94c\x13\t\x8f\xd2@5\xe0;\x1f\xd8N\x01',"{'xmin': -102.31854701932687, 'ymin': 21.87590216666104, 'xmax': -102.31854701932687, 'ymax': 21.87590216666104}","dining and drinking > food truck, dining and drinking > restaurant > mexican restaurant > taco restaurant",1
514f27ace4b06ae760f6852a,Loncheria Chava's,20.64910560810763,-103.31677855613161,,,,,,,,MX,2013-03-24,2021-08-16,,,,,,,,['4bf58dd8d48988d151941735' '4bf58dd8d48988d16e941735'],"['Dining and Drinking > Restaurant > Mexican Restaurant > Taco Restaurant'
 'Dining and Drinking > Restaurant > Fast Food Restaurant']",b'\x00\x00\x00\x00\x01\xc0Y\xd4F\x19\x90\xaa3@4\xa6+\xc8\xfex\xf3',"{'xmin': -103.31677855613161, 'ymin': 20.64910560810763, 'xmax': -103.31677855613161, 'ymax': 20.64910560810763}","dining and drinking > restaurant > mexican restaurant > taco restaurant, dining and drinking > restaurant > fast food restaurant",1
52abc93911d2b6a371068078,Taqueria el Güero,20.765108485205264,-103.4363859821269,,,,,,,,MX,2013-12-14,2021-08-11,,,,,,,,['4bf58dd8d48988d151941735'],['Dining and Drinking > Restaurant > Mexican Restaurant > Taco Restaurant'],b'\x00\x00\x00\x00\x01\xc0Y\xdb\xed\xbfxj\xbe@4\xc3\xde&Q\xd9E',"{'xmin': -103.4363859821269, 'ymin': 20.765108485205264, 'xmax': -103.4363859821269, 'ymax': 20.765108485205264}",dining and drinking > restaurant > mexican restaurant > taco restaurant,1
595efc963d47915fa802f15c,"Taqueria ""El Tule""",20.53868,-100.802407,,,,,,,,MX,2017-07-07,2021-08-13,,,,,,,,['4bf58dd8d48988d151941735'],['Dining and Drinking > Restaurant > Mexican Restaurant > Taco Restaurant'],b'\x00\x00\x00\x00\x01\xc0Y3Z\xa2\xe3\xc57@4\x89\xe6\xee\xb7\x02`',"{'xmin': -100.802407, 'ymin': 20.53868, 'xmax': -100.802407, 'ymax': 20.53868}",dining and drinking > restaurant > mexican restaurant > taco restaurant,1
4d0b8e8e46bab60c315d2890,Tacos al vapor lupita,20.69488313419384,-103.33330392837524,Av maestros,Guadalajara,Jalisco,,,,,MX,2010-12-17,2021-12-18,,,,,,,,['4bf58dd8d48988d151941735'],['Dining and Drinking > Restaurant > Mexican Restaurant > Taco Restaurant'],b'\x00\x00\x00\x00\x01\xc0Y\xd5T\xda\x00\x00\x00@4\xb1\xe3\xdco\xe7\x8f',"{'xmin': -103.33330392837524, 'ymin': 20.69488313419384, 'xmax': -103.33330392837524, 'ymax': 20.69488313419384}",dining and drinking > restaurant > mexican restaurant > taco restaurant,1
5768b1a0cd105c894d7397c2,Tacos Tony Irapuato,20.68325774209543,-101.3778446321024,"Centro Cuatro Vías. Blvd. Gómez Morín 3377, Local 12.",Irapuato,Guanajuato,36670,,,,MX,2016-06-21,2020-11-24,,462 135 6142,http://www.tacostony.com.mx,,,,ttony_irapuato,['4bf58dd8d48988d151941735'],['Dining and Drinking > Restaurant > Mexican Restaurant > Taco Restaurant'],b'\x00\x00\x00\x00\x01\xc0YX.\x9b@vU@4\xae\xe9\xfa\xb9\t\xe7',"{'xmin': -101.3778446321024, 'ymin': 20.68325774209543, 'xmax': -101.3778446321024, 'ymax': 20.68325774209543}",dining and drinking > restaurant > mexican restaurant > taco restaurant,1
5312c52b498e37421ced0fbe,"Taquería ""El Guerrillero""",19.275242693278308,-103.74259781723674,Av. Pablo Silva García 298,,Colima,,,,,MX,2014-03-02,2021-08-13,,,,,,,,['4bf58dd8d48988d151941735'],['Dining and Drinking > Restaurant > Mexican Restaurant > Taco Restaurant'],b'\x00\x00\x00\x00\x01\xc0Y\xef\x86\xb8\xfe\xc78@3FvN\x1e\x17\xe2',"{'xmin': -103.74259781723674, 'ymin': 19.275242693278308, 'xmax': -103.74259781723674, 'ymax': 19.275242693278308}",dining and drinking > restaurant > mexican restaurant > taco restaurant,1
52311d45498e61916507591f,Tacos El Paisa,20.737937059575383,-105.27003949012487,,,,,,,,MX,2013-09-12,2020-11-25,,,,,,,,['4bf58dd8d48988d151941735'],['Dining and Drinking > Restaurant > Mexican Restaurant > Taco Restaurant'],b'\x00\x00\x00\x00\x01\xc0ZQHS\xb6\xad\xc0@4\xbc\xe9qqa\xf7',"{'xmin': -105.27003949012487, 'ymin': 20.737937059575383, 'xmax': -105.27003949012487, 'ymax': 20.737937059575383}",dining and drinking > restaurant > mexican restaurant > taco restaurant,1
5cf2d046b399f7002cbe5e40,Tacos Al Vapor San Juan,21.120297,-101.702815,,León,GTO,37426,,,,MX,2019-06-01,2020-11-24,,,,,,,,['4bf58dd8d48988d151941735'],['Dining and Drinking > Restaurant > Mexican Restaurant > Taco Restaurant'],b'\x00\x00\x00\x00\x01\xc0Yl\xfa\xeb\xc4\x08\xd9@5\x1e\xcb\xc8\xc0\xce\x92',"{'xmin': -101.702815, 'ymin': 21.120297, 'xmax': -101.702815, 'ymax': 21.120297}",dining and drinking > restaurant > mexican restaurant > taco restaurant,1
573a3035498e8e01a22559cf,Pellizcadas y Tacos Obregón,20.673742,-103.33912,Alvaro Obregón 304,Guadalajara,Jalisco,44360,,,,MX,2016-05-16,2021-08-14,,,,,,,,['4bf58dd8d48988d151941735'],['Dining and Drinking > Restaurant > Mexican Restaurant > Taco Restaurant'],b'\x00\x00\x00\x00\x01\xc0Y\xd5\xb4$_Z\xd9@4\xacz[\x0f\xf1\x0f',"{'xmin': -103.33912, 'ymin': 20.673742, 'xmax': -103.33912, 'ymax': 20.673742}",dining and drinking > restaurant > mexican restaurant > taco restaurant,1
4e95e13593addf31e9a2e9e7,Carnitas Don Chava,20.633770560718677,-103.40859482827271,,,,,,,,MX,2011-10-12,2021-08-17,,,,,,,,['4bf58dd8d48988d151941735'],['Dining and Drinking > Restaurant > Mexican Restaurant > Taco Restaurant'],b'\x00\x00\x00\x00\x01\xc0Y\xda&j\xec/\xbf@4\xa2>\xc9\x97tM',"{'xmin': -103.40859482827271, 'ymin': 20.633770560718677, 'xmax': -103.40859482827271, 'ymax': 20.633770560718677}",dining and drinking > restaurant > mexican restaurant > taco restaurant,1
51d87735498e40b205ee57d7,"""Tortas Brayam""",20.74033522460805,-103.41527363624041,,,,,,,,MX,2013-07-06,2021-08-16,,,,,,,,['4bf58dd8d48988d151941735'],['Dining and Drinking > Restaurant > Mexican Restaurant > Taco Restaurant'],b'\x00\x00\x00\x00\x01\xc0Y\xda\x93\xd7\xdf\xa2\xca@4\xbd\x86\x9b\xf9\xc4\xb5',"{'xmin': -103.41527363624041, 'ymin': 20.74033522460805, 'xmax': -103.41527363624041, 'ymax': 20.74033522460805}",dining and drinking > restaurant > mexican restaurant > taco restaurant,1
4fb46e41e4b0a6875af2773d,Tacos El Primo,20.6123,-103.39652,Paseo de la Serenata,,,,,,,MX,2012-05-17,2021-08-16,,,,,,,,['4bf58dd8d48988d151941735'],['Dining and Drinking > Restaurant > Mexican Restaurant > Taco Restaurant'],b'\x00\x00\x00\x00\x01\xc0Y\xd9`\x95l\ro@4\x9c\xbf\xb1[W?',"{'xmin': -103.39652, 'ymin': 20.6123, 'xmax': -103.39652, 'ymax': 20.6123}",dining and drinking > restaurant > mexican restaurant > taco restaurant,1
5c5ce1e9135b3900393e4c38,Los Volcanes La Cantera,20.533905,-100.8562,,,Guanajuato,,,,,MX,2019-02-08,2020-11-23,,,,,,,,['4bf58dd8d48988d151941735'],['Dining and Drinking > Restaurant > Mexican Restaurant > Taco Restaurant'],b'\x00\x00\x00\x00\x01\xc0Y6\xcb\xfb\x15\xb5t@4\x88\xad\xff\x82+\xbf',"{'xmin': -100.8562, 'ymin': 20.533905, 'xmax': -100.8562, 'ymax': 20.533905}",dining and drinking > restaurant > mexican restaurant > taco restaurant,1
4dd083f17d8b975f1901dd2c,El Rodeo,20.62738259510531,-103.41746854068997,Av. 18 de Marzo  #2137,Zapopan,Jalisco,45080,,,,MX,2011-05-16,2023-12-20,,33 3634 1079,,,,,,['4bf58dd8d48988d151941735'],['Dining and Drinking > Restaurant > Mexican Restaurant > Taco Restaurant'],b'\x00\x00\x00\x00\x01\xc0Y\xda\xb7\xcd\xf8W\xd3@4\xa0\x9c%P\x0e\x92',"{'xmin': -103.41746854068997, 'ymin': 20.62738259510531, 'xmax': -103.41746854068997, 'ymax': 20.62738259510531}",dining and drinking > restaurant > mexican restaurant > taco restaurant,1
4f50388ae4b062d9d9ab3511,Tacos el Güero,22.167836837898793,-101.01935904577842,,San Luis Potosi,,,,,,MX,2012-03-02,2020-11-23,,,,,,,,['4bf58dd8d48988d151941735'],['Dining and Drinking > Restaurant > Mexican Restaurant > Taco Restaurant'],b'\x00\x00\x00\x00\x01\xc0YA=-\xb9 \x01@6*\xf7Z\xe1\xd6\xe1',"{'xmin': -101.01935904577842, 'ymin': 22.167836837898793, 'xmax': -101.01935904577842, 'ymax': 22.167836837898793}",dining and drinking > restaurant > mexican restaurant > taco restaurant,1
50665f4de4b08aab5f74842a,Don taco y su pandilla,21.86423115174495,-102.30817534979884,Lima 707,Aguascalientes,Aguascalientes,,,,,MX,2012-09-29,2023-12-20,,449 971 4750,,,,,,['4bf58dd8d48988d151941735'],['Dining and Drinking > Restaurant > Mexican Restaurant > Taco Restaurant'],b'\x00\x00\x00\x00\x01\xc0Y\x93\xb9%\x1a4q@5\xdd>@\xb4\xed\xd1',"{'xmin': -102.30817534979884, 'ymin': 21.86423115174495, 'xmax': -102.30817534979884, 'ymax': 21.86423115174495}",dining and drinking > restaurant > mexican restaurant > taco restaurant,1
4e9758844fc6eb26c72b47dc,Ta' Corriendo La Torta,20.687364306628506,-103.37649017572403,Eulogio Parra,Guadalajara,Jalisco,,,,,MX,2011-10-13,2021-08-12,,,,,,,,['4bf58dd8d48988d151941735'],['Dining and Drinking > Restaurant > Mexican Restaurant > Taco Restaurant'],b'\x00\x00\x00\x00\x01\xc0Y\xd8\x18j@\x00\x00@4\xaf\xf7\x1bqh;',"{'xmin': -103.37649017572403, 'ymin': 20.687364306628506, 'xmax': -103.37649017572403, 'ymax': 20.687364306628506}",dining and drinking > restaurant > mexican restaurant > taco restaurant,1
4fe5fd4be4b0899a0a1f7d6a,Tacos El Toni,20.087584551354105,-101.51393685628231,Jaime Nuño,Puruandiro,Michoacán,58500,,,,MX,2012-06-23,2020-11-21,,,,,,,,['4bf58dd8d48988d151941735'],['Dining and Drinking > Restaurant > Mexican Restaurant > Taco Restaurant'],b'\x00\x00\x00\x00\x01\xc0Y`\xe4Wi|C@4\x16k\xf0\xef\xb3b',"{'xmin': -101.51393685628231, 'ymin': 20.087584551354105, 'xmax': -101.51393685628231, 'ymax': 20.087584551354105}",dining and drinking > restaurant > mexican restaurant > taco restaurant,1
5531e8c1498e0bb386d2e93b,Monchitacos,20.599178314208984,-103.33490753173828,,,,,,,,MX,2015-04-18,2021-08-12,,,,,,,,['4bf58dd8d48988d151941735'],['Dining and Drinking > Restaurant > Mexican Restaurant > Taco Restaurant'],b'\x00\x00\x00\x00\x01\xc0Y\xd5o \x00\x00\x00@4\x99c\xc0\x00\x00\x00',"{'xmin': -103.33490753173828, 'ymin': 20.599178314208984, 'xmax': -103.33490753173828, 'ymax': 20.599178314208984}",dining and drinking > restaurant > mexican restaurant > taco restaurant,1
4f6e2034e4b03b575cd97196,Tortas Ahogadas El Moreño,20.6549970629808,-103.2871134429259,Maria benites,,jalisco,,,,,MX,2012-03-24,2023-12-19,,33 3605 6013,,,,,,['4bf58dd8d48988d151941735'],['Dining and Drinking > Restaurant > Mexican Restaurant > Taco Restaurant'],b'\x00\x00\x00\x00\x01\xc0Y\xd2`\x11\x0f\xe6\xf5@4\xa7\xad\xe34z\x85',"{'xmin': -103.2871134429259, 'ymin': 20.6549970629808, 'xmax': -103.2871134429259, 'ymax': 20.6549970629808}",dining and drinking > restaurant > mexican restaurant > taco restaurant,1
54adef54498e8b0303bb06b5,Taqueria El Moreno,21.016489110601924,-101.2716843592642,Pueblito De Rocha,,,,,,,MX,2015-01-08,2021-08-14,,,,,,,,['4bf58dd8d48988d151941735'],['Dining and Drinking > Restaurant > Mexican Restaurant > Taco Restaurant'],b'\x00\x00\x00\x00\x01\xc0YQcF\xcbw\xf7@5\x048\xa1^\xc6\x80',"{'xmin': -101.2716843592642, 'ymin': 21.016489110601924, 'xmax': -101.2716843592642, 'ymax': 21.016489110601924}",dining and drinking > restaurant > mexican restaurant > taco restaurant,1
536a7d65498e23887082d107,TacoFut,20.681579411931295,-103.43531363281085,Calle Independencia,Zapopan,Jalisco,,,,,MX,2014-05-07,2020-11-25,,,,,,,,['4bf58dd8d48988d151941735'],['Dining and Drinking > Restaurant > Mexican Restaurant > Taco Restaurant'],b'\x00\x00\x00\x00\x01\xc0Y\xdb\xdc-\xb6\x1b<@4\xae{\xfd\x03\xdf0',"{'xmin': -103.43531363281085, 'ymin': 20.681579411931295, 'xmax': -103.43531363281085, 'ymax': 20.681579411931295}",dining and drinking > restaurant > mexican restaurant > taco restaurant,1
569e4de9498ef437bc65338a,tacos de canasta,19.685726196377928,-101.19856336872424,Valle De Guayangareo,Morelia,Michoacán,,,,,MX,2016-01-19,2020-11-30,,,,,,,,['4bf58dd8d48988d151941735'],['Dining and Drinking > Restaurant > Mexican Restaurant > Taco Restaurant'],b'\x00\x00\x00\x00\x01\xc0YL\xb5C!\xb6\xab@3\xaf\x8b\xc0\x83t$',"{'xmin': -101.19856336872424, 'ymin': 19.685726196377928, 'xmax': -101.19856336872424, 'ymax': 19.685726196377928}",dining and drinking > restaurant > mexican restaurant > taco restaurant,1
530d5c11498e8016aeb5227c,Don Rubenchón,20.573227,-103.453766,,,,,,,,MX,2014-02-26,2021-08-12,2016-12-18,,,,,,,['4bf58dd8d48988d151941735'],['Dining and Drinking > Restaurant > Mexican Restaurant > Taco Restaurant'],"b""\x00\x00\x00\x00\x01\xc0Y\xdd\n\x80\x8c\x82Z@4\x92\xbf\x012/'""","{'xmin': -103.453766, 'ymin': 20.573227, 'xmax': -103.453766, 'ymax': 20.573227}",dining and drinking > restaurant > mexican restaurant > taco restaurant,1
4b5f18aaf964a520dfa529e3,El frances,20.678136697108254,-103.43401553771739,Jose clemente orozco,Zapopan,Jalisco,,,,,MX,2010-01-26,2020-11-22,,,,,,,,['4bf58dd8d48988d151941735'],['Dining and Drinking > Restaurant > Mexican Restaurant > Taco Restaurant'],b'\x00\x00\x00\x00\x01\xc0Y\xdb\xc6\xe9\x1b\x1c\xee@4\xad\x9a]\xd8L#',"{'xmin': -103.43401553771739, 'ymin': 20.678136697108254, 'xmax': -103.43401553771739, 'ymax': 20.678136697108254}",dining and drinking > restaurant > mexican restaurant > taco restaurant,1
65fe4f6088ed1949c406448c,Cenaduria Juarez,20.389915,-101.176994,Juarez 89,Valle de Santiago,Gto.,38400,,,,MX,2024-03-23,2024-10-18,,,,,,,,['4bf58dd8d48988d1c1941735' '4bf58dd8d48988d151941735'],"['Dining and Drinking > Restaurant > Mexican Restaurant'
 'Dining and Drinking > Restaurant > Mexican Restaurant > Taco Restaurant']",b'\x00\x00\x00\x00\x01\xc0YKS\xde\xa4e\xa5@4c\xd1x-8G',"{'xmin': -101.176994, 'ymin': 20.389915, 'xmax': -101.176994, 'ymax': 20.389915}","dining and drinking > restaurant > mexican restaurant, dining and drinking > restaurant > mexican restaurant > taco restaurant",1
52c30099498e0d5ae64f74d3,tacos chepa,20.632659132590113,-103.3132431559974,,,,,,,,MX,2013-12-31,2021-08-11,,,,,,,,['4bf58dd8d48988d151941735'],['Dining and Drinking > Restaurant > Mexican Restaurant > Taco Restaurant'],b'\x00\x00\x00\x00\x01\xc0Y\xd4\x0c-\x05\xad\x19@4\xa1\xf5\xf2\xeb\xfd\x82',"{'xmin': -103.3132431559974, 'ymin': 20.632659132590113, 'xmax': -103.3132431559974, 'ymax': 20.632659132590113}",dining and drinking > restaurant > mexican restaurant > taco restaurant,1
5254cf4811d242182f31e33e,Taquería Los Orozco,21.49492213780787,-104.8826712679247,,,,,,,,MX,2013-10-09,2021-08-17,,,,,,,,['4bf58dd8d48988d151941735'],['Dining and Drinking > Restaurant > Mexican Restaurant > Taco Restaurant'],b'\x00\x00\x00\x00\x01\xc0Z8}\xaf\xa16\xc0@5~\xb37\x9b\xf3\x82',"{'xmin': -104.8826712679247, 'ymin': 21.49492213780787, 'xmax': -104.8826712679247, 'ymax': 21.49492213780787}",dining and drinking > restaurant > mexican restaurant > taco restaurant,1
56721b8d498e0a5d3959cafe,Taquería El George's,20.651752,-103.441579,"Moctezuma 6580-A, Haciendas del Tepeyac",Zapopan,Jalisco,45053,,,,MX,2015-12-17,2020-11-25,,,,,,,,['4bf58dd8d48988d151941735'],['Dining and Drinking > Restaurant > Mexican Restaurant > Taco Restaurant'],b'\x00\x00\x00\x00\x01\xc0Y\xdcB\xd4\x90\xe6m@4\xa6\xd98\x15\x1aC',"{'xmin': -103.441579, 'ymin': 20.651752, 'xmax': -103.441579, 'ymax': 20.651752}",dining and drinking > restaurant > mexican restaurant > taco restaurant,1
514e8149e4b0eeb901f281ea,tacos Beto's,20.663887327068842,-101.35399536443325,Avenida Insurgentes Sur #877,Irapuato,Guanajuato,,,,,MX,2013-03-24,2020-11-24,,,,,,,,['4bf58dd8d48988d151941735'],['Dining and Drinking > Restaurant > Mexican Restaurant > Taco Restaurant'],"b'\x00\x00\x00\x00\x01\xc0YV\xa7\xdc,KJ@4\xa9\xf4\x85\x15\xfdR'","{'xmin': -101.35399536443325, 'ymin': 20.663887327068842, 'xmax': -101.35399536443325, 'ymax': 20.663887327068842}",dining and drinking > restaurant > mexican restaurant > taco restaurant,1
52e931d4498eb759699f4fd7,Tacos Paco's,20.035668,-100.72816,,,,,,,,MX,2014-01-29,2021-08-14,,,,,,,,['4bf58dd8d48988d151941735'],['Dining and Drinking > Restaurant > Mexican Restaurant > Taco Restaurant'],"b'\x00\x00\x00\x00\x01\xc0Y.\x9a,f\x90X@4\t!\x89\xbd\x83\x84'","{'xmin': -100.72816, 'ymin': 20.035668, 'xmax': -100.72816, 'ymax': 20.035668}",dining and drinking > restaurant > mexican restaurant > taco restaurant,1
5f5e9a71cbec5b25a1228138,Doraditos Puruandiro,20.093828,-101.529205,Aquiles Serdan #1417,Puruándiro,Michoacán,58508,,,,MX,2020-09-13,2020-11-25,,,,,,doraditospuruandiro,,['4bf58dd8d48988d151941735'],['Dining and Drinking > Restaurant > Mexican Restaurant > Taco Restaurant'],b'\x00\x00\x00\x00\x01\xc0Ya\xde~\xa5\xf8M@4\x18\x05\x1c\x9fr\xf7',"{'xmin': -101.529205, 'ymin': 20.093828, 'xmax': -101.529205, 'ymax': 20.093828}",dining and drinking > restaurant > mexican restaurant > taco restaurant,1
53228425498e7c57fdf4d5cf,taqueria copacabana 2,21.159332692127766,-101.68726348767318,,,,,,,,MX,2014-03-14,2021-08-15,,,,,,,,['4bf58dd8d48988d151941735'],['Dining and Drinking > Restaurant > Mexican Restaurant > Taco Restaurant'],b'\x00\x00\x00\x00\x01\xc0Yk\xfc\x1f\xfe\xd2\xa3@5(\xca\x06\xfd\xdfU',"{'xmin': -101.68726348767318, 'ymin': 21.159332692127766, 'xmax': -101.68726348767318, 'ymax': 21.159332692127766}",dining and drinking > restaurant > mexican restaurant > taco restaurant,1
4ba59f6ff964a5206e1739e3,Tacos Providencia,20.685349288985236,-103.38513741260464,Ruben Darío 534,Guadalajara,Jalisco,44657,,,,MX,2010-03-21,2024-06-27,,33 3641 6049,http://www.lostarascos.com.mx,,133704110031961.0,,,['4bf58dd8d48988d151941735' '4bf58dd8d48988d1c1941735'],"['Dining and Drinking > Restaurant > Mexican Restaurant > Taco Restaurant'
 'Dining and Drinking > Restaurant > Mexican Restaurant']",b'\x00\x00\x00\x00\x01\xc0Y\xd8\xa6\x17c\xe6\x97@4\xafs\r\x0e\x87H',"{'xmin': -103.38513741260464, 'ymin': 20.685349288985236, 'xmax': -103.38513741260464, 'ymax': 20.685349288985236}","dining and drinking > restaurant > mexican restaurant > taco restaurant, dining and drinking > restaurant > mexican restaurant",1
507b8325e4b025807acaeda6,Tacos Uri,20.21331121775143,-101.1327549832764,Miguel Hidalgo,Yuriria,Guanajuato,38940,,,,MX,2012-10-15,2020-11-30,,,,,,,,['4bf58dd8d48988d151941735'],['Dining and Drinking > Restaurant > Mexican Restaurant > Taco Restaurant'],b'\x00\x00\x00\x00\x01\xc0YH\x7f\x0e\xc1\xe3g@46\x9b\x90`\x1c\xc1',"{'xmin': -101.1327549832764, 'ymin': 20.21331121775143, 'xmax': -101.1327549832764, 'ymax': 20.21331121775143}",dining and drinking > restaurant > mexican restaurant > taco restaurant,1
55688484498eddb8bb0c0f59,La Salsa,21.237888383204126,-102.34070815532681,Carretera San Juan - Jalostotitlan,San Juan De Los Lagos,Jalisco,,,,,MX,2015-05-29,2020-11-25,,,,,,,,['4bf58dd8d48988d151941735'],['Dining and Drinking > Restaurant > Mexican Restaurant > Taco Restaurant'],b'\x00\x00\x00\x00\x01\xc0Y\x95\xce)\x94&\xfc@5<\xe6@\xc9\xf5\xc5',"{'xmin': -102.34070815532681, 'ymin': 21.237888383204126, 'xmax': -102.34070815532681, 'ymax': 21.237888383204126}",dining and drinking > restaurant > mexican restaurant > taco restaurant,1
4e4fba04628441666991b836,Tacos de Birria ALEX,20.61259295573487,-105.23117408223919,Matamoros,Puerto Vallarta,Jalisco,48300,,,,MX,2011-08-20,2020-11-30,,,,,,,,['4bf58dd8d48988d151941735'],['Dining and Drinking > Restaurant > Mexican Restaurant > Taco Restaurant'],b'\x00\x00\x00\x00\x01\xc0ZN\xcb\x8e`\xb9\x9c@4\x9c\xd2\xe4V\xa4(',"{'xmin': -105.23117408223919, 'ymin': 20.61259295573487, 'xmax': -105.23117408223919, 'ymax': 20.61259295573487}",dining and drinking > restaurant > mexican restaurant > taco restaurant,1
510f157be4b0a47ac4d0c234,tacos don layo,20.760077500110537,-103.33797611147595,Granada,Zapopan,Jalisco,45180,,,,MX,2013-02-04,2020-11-25,,,,,,,,['4bf58dd8d48988d151941735'],['Dining and Drinking > Restaurant > Mexican Restaurant > Taco Restaurant'],b'\x00\x00\x00\x00\x01\xc0Y\xd5\xa1f\x8eg\x95@4\xc2\x94pefs',"{'xmin': -103.33797611147595, 'ymin': 20.760077500110537, 'xmax': -103.33797611147595, 'ymax': 20.760077500110537}",dining and drinking > restaurant > mexican restaurant > taco restaurant,1
5b12043104d1ae002cc28b1e,Tacos Galera,20.527854,-100.803732,,Celaya,GTO,38057,,,,MX,2018-06-02,2020-11-22,,,,,,,,['4bf58dd8d48988d151941735' '4bf58dd8d48988d1c1941735'],"['Dining and Drinking > Restaurant > Mexican Restaurant > Taco Restaurant'
 'Dining and Drinking > Restaurant > Mexican Restaurant']",b'\x00\x00\x00\x00\x01\xc0Y3pXW\xaf\xea@4\x87!p\x93\x10\x13',"{'xmin': -100.803732, 'ymin': 20.527854, 'xmax': -100.803732, 'ymax': 20.527854}","dining and drinking > restaurant > mexican restaurant > taco restaurant, dining and drinking > restaurant > mexican restaurant",1
52d74489498e47cdf792c74e,Tacos Julio,21.159716,-101.634298,,,,,,,,MX,2014-01-16,2021-08-17,,,,,,,,['4bf58dd8d48988d151941735'],['Dining and Drinking > Restaurant > Mexican Restaurant > Taco Restaurant'],b'\x00\x00\x00\x00\x01\xc0Yh\x98V\xa3z\xc4@5(\xe3%\xd4\xa5\xdf',"{'xmin': -101.634298, 'ymin': 21.159716, 'xmax': -101.634298, 'ymax': 21.159716}",dining and drinking > restaurant > mexican restaurant > taco restaurant,1
5c0ca8db492814002cdef419,Tacos Don Juve,20.607018,-103.392136,Paseo de la Serenata,San Pedro Tlaquepaque,Jalisco,45606,,,,MX,2018-12-09,2020-11-23,,,,,,,,['4bf58dd8d48988d151941735'],['Dining and Drinking > Restaurant > Mexican Restaurant > Taco Restaurant'],b'\x00\x00\x00\x00\x01\xc0Y\xd9\x18\xc1\x97\xe5d@4\x9be\x88\x1a\x15U',"{'xmin': -103.392136, 'ymin': 20.607018, 'xmax': -103.392136, 'ymax': 20.607018}",dining and drinking > restaurant > mexican restaurant > taco restaurant,1
603cf9f9b80ab26e9ddcdf2c,Tacos Chuy Barbacoa,20.727045,-103.32306,,Guadalajara,Jalisco,44250,,,,MX,2021-03-01,2021-08-17,,,,,,,,['4bf58dd8d48988d151941735'],['Dining and Drinking > Restaurant > Mexican Restaurant > Taco Restaurant'],b'\x00\x00\x00\x00\x01\xc0Y\xd4\xad\x03\xd9\xa9T@4\xba\x1f\x9f\x01\xb8g',"{'xmin': -103.32306, 'ymin': 20.727045, 'xmax': -103.32306, 'ymax': 20.727045}",dining and drinking > restaurant > mexican restaurant > taco restaurant,1
548c71f6498e125250698777,Menuderia y Taqueria Mendiola,21.084683,-101.643216,Paseo De Jerez,Leon,Guanajuato,,,,,MX,2014-12-13,2020-11-30,,,,,,,,['4bf58dd8d48988d151941735'],['Dining and Drinking > Restaurant > Mexican Restaurant > Taco Restaurant'],b'\x00\x00\x00\x00\x01\xc0Yi*sq\x10\xe4@5\x15\xad\xc8\xfb\x86\xf4',"{'xmin': -101.643216, 'ymin': 21.084683, 'xmax': -101.643216, 'ymax': 21.084683}",dining and drinking > restaurant > mexican restaurant > taco restaurant,1
576ac7d1498e9549d1b033f9,Tacos de barbacoa el becerro,20.648997,-103.702479,,,,,,,,MX,2016-06-22,2021-08-14,,,,,,,,['4bf58dd8d48988d151941735'],['Dining and Drinking > Restaurant > Mexican Restaurant > Taco Restaurant'],b'\x00\x00\x00\x00\x01\xc0Y\xec\xf5jz\xc8\x1d@4\xa6$\xaa\xda3\xbe',"{'xmin': -103.702479, 'ymin': 20.648997, 'xmax': -103.702479, 'ymax': 20.648997}",dining and drinking > restaurant > mexican restaurant > taco restaurant,1
58d1ee70158b965da9dbef72,Tacos Tlecuitl,20.729598,-103.436363,,Zapopan,Jalisco,,,,,MX,2017-03-22,2020-11-22,,,,,,,,['4bf58dd8d48988d151941735'],['Dining and Drinking > Restaurant > Mexican Restaurant > Taco Restaurant'],b'\x00\x00\x00\x00\x01\xc0Y\xdb\xed_\x13\x8b\xce@4\xba\xc6\xef=:\x1d',"{'xmin': -103.436363, 'ymin': 20.729598, 'xmax': -103.436363, 'ymax': 20.729598}",dining and drinking > restaurant > mexican restaurant > taco restaurant,1
51aa525f498e055c65d1c8a7,Tortas Ahogadas El Parientr,20.673452377319336,-103.34976196289062,,,,,,,,MX,2013-06-01,2021-08-12,,,,,,,,['4bf58dd8d48988d151941735'],['Dining and Drinking > Restaurant > Mexican Restaurant > Taco Restaurant'],b'\x00\x00\x00\x00\x01\xc0Y\xd6b\x80\x00\x00\x00@4\xacg`\x00\x00\x00',"{'xmin': -103.34976196289062, 'ymin': 20.673452377319336, 'xmax': -103.34976196289062, 'ymax': 20.673452377319336}",dining and drinking > restaurant > mexican restaurant > taco restaurant,1
51dc3d45498e2448c1e28770,"Tortas ahogadas ""Doña Pancha""",21.49734391464738,-104.8328844304471,Av. Principal # 144,Tepic,Nayarit,,,,,MX,2013-07-09,2020-11-25,,,,,,,,['4bf58dd8d48988d151941735'],['Dining and Drinking > Restaurant > Mexican Restaurant > Taco Restaurant'],b'\x00\x00\x00\x00\x01\xc0Z5M\xfa\x7f\x87\x8b@5\x7fQ\xeeHFn',"{'xmin': -104.8328844304471, 'ymin': 21.49734391464738, 'xmax': -104.8328844304471, 'ymax': 21.49734391464738}",dining and drinking > restaurant > mexican restaurant > taco restaurant,1
51ff2295498ebd46ca75740b,Tacos El Gallo,22.148393,-101.01187,,,,,,,,MX,2013-08-05,2021-08-12,,,,,,,,['4bf58dd8d48988d151941735'],['Dining and Drinking > Restaurant > Mexican Restaurant > Taco Restaurant'],b'\x00\x00\x00\x00\x01\xc0Y@\xc2zcsm@6%\xfd\x15i\xf4\x90',"{'xmin': -101.01187, 'ymin': 22.148393, 'xmax': -101.01187, 'ymax': 22.148393}",dining and drinking > restaurant > mexican restaurant > taco restaurant,1
5c2e40c94ac28a002cc0b8b3,El Gran Vaquito,20.73909,-103.539828,,Zapopan,JAL,,,,,MX,2019-01-03,2020-11-24,,,,,,,,['4bf58dd8d48988d151941735'],['Dining and Drinking > Restaurant > Mexican Restaurant > Taco Restaurant'],b'\x00\x00\x00\x00\x01\xc0Y\xe2\x8c\x8a\xbd]\xc4@4\xbd5\x00\x92\xcc\xf7',"{'xmin': -103.539828, 'ymin': 20.73909, 'xmax': -103.539828, 'ymax': 20.73909}",dining and drinking > restaurant > mexican restaurant > taco restaurant,1
629b7aa37d50ee21c37a10bb,Birrieria Don Jerry,21.123419,-101.597336,,León,Guanajuato,37296,,,,MX,2022-06-04,2022-06-04,,,,,,,,['4bf58dd8d48988d151941735'],['Dining and Drinking > Restaurant > Mexican Restaurant > Taco Restaurant'],b'\x00\x00\x00\x00\x01\xc0Yf:\xc0\xc6.M@5\x1f\x98c8\xb4|',"{'xmin': -101.597336, 'ymin': 21.123419, 'xmax': -101.597336, 'ymax': 21.123419}",dining and drinking > restaurant > mexican restaurant > taco restaurant,1
4dfcd63a45ddebdfeaabd7e2,Tacos El Carnalito,20.636167153756308,-103.32500950204171,Rio Zula,Guadalajara,JAL,,,,,MX,2011-06-18,2021-08-15,,,,,,,,['4bf58dd8d48988d151941735'],['Dining and Drinking > Restaurant > Mexican Restaurant > Taco Restaurant'],"b'\x00\x00\x00\x00\x01\xc0Y\xd4\xcc\xf4\xa7\x8a#@4\xa2\xdb\xd9\xc0,9'","{'xmin': -103.32500950204171, 'ymin': 20.636167153756308, 'xmax': -103.32500950204171, 'ymax': 20.636167153756308}",dining and drinking > restaurant > mexican restaurant > taco restaurant,1
4dc74c11d4c0ad9c0fb644f6,Auténticos Chiarcos Taquería,22.137941333723717,-100.98737968075379,Himno Nacional 3906,San Luis Potosi,SLP,,,,,MX,2011-05-09,2020-11-30,,,,,,,,['4bf58dd8d48988d151941735'],['Dining and Drinking > Restaurant > Mexican Restaurant > Taco Restaurant'],b'\x00\x00\x00\x00\x01\xc0Y?1:\x8bd\xa3@6#P\x1f\x8d\x1c(',"{'xmin': -100.98737968075379, 'ymin': 22.137941333723717, 'xmax': -100.98737968075379, 'ymax': 22.137941333723717}",dining and drinking > restaurant > mexican restaurant > taco restaurant,1
4c184904d4d9c9287d50ef29,Las Costras Tacos Y Quesos,20.669390928411993,-103.418652484753,Clouthier,Zapopan,Jalisco,,,,,MX,2010-06-16,2020-11-21,,33 1613 3847,,,,,,['4bf58dd8d48988d151941735'],['Dining and Drinking > Restaurant > Mexican Restaurant > Taco Restaurant'],b'\x00\x00\x00\x00\x01\xc0Y\xda\xcb3\xca\x99\xcf@4\xab]41\xc4\xc2',"{'xmin': -103.418652484753, 'ymin': 20.669390928411993, 'xmax': -103.418652484753, 'ymax': 20.669390928411993}",dining and drinking > restaurant > mexican restaurant > taco restaurant,1
4f2df2dee4b00ef1a5b4cad4,"Tacos y Carne Asada ""Los Tíos""",20.68176619698544,-103.30899742331172,Emilio rabaza 1991,Guadalajara,Jalisco,,,,,MX,2012-02-05,2021-08-15,,,,,,,,['4bf58dd8d48988d151941735'],['Dining and Drinking > Restaurant > Mexican Restaurant > Taco Restaurant'],b'\x00\x00\x00\x00\x01\xc0Y\xd3\xc6\x9d \xeb\x04@4\xae\x88:\xbf\x92\x1d',"{'xmin': -103.30899742331172, 'ymin': 20.68176619698544, 'xmax': -103.30899742331172, 'ymax': 20.68176619698544}",dining and drinking > restaurant > mexican restaurant > taco restaurant,1
58e5a12154073d4614af3e1a,Taquería El Charro Grill,20.674104,-103.359575,,Guadalajara,Jalisco,,,,,MX,2017-04-06,2021-08-17,,,,,,,,['4bf58dd8d48988d151941735'],['Dining and Drinking > Restaurant > Mexican Restaurant > Taco Restaurant'],b'\x00\x00\x00\x00\x01\xc0Y\xd7\x03F\xdc]d@4\xac\x92\x14j\x1aP',"{'xmin': -103.359575, 'ymin': 20.674104, 'xmax': -103.359575, 'ymax': 20.674104}",dining and drinking > restaurant > mexican restaurant > taco restaurant,1
5c87deacb77c770033ec650b,Poli-Tacos,22.123486,-100.986305,Urbano Villalón,San Luis Potosí,San Luis Potosí,78369,,,,MX,2019-03-12,2020-11-25,,,,,,,,['4bf58dd8d48988d151941735'],['Dining and Drinking > Restaurant > Mexican Restaurant > Taco Restaurant'],b'\x00\x00\x00\x00\x01\xc0Y?\x1f\x9f\x01\xb8g@6\x1f\x9c\xc7K\x83\x8c',"{'xmin': -100.986305, 'ymin': 22.123486, 'xmax': -100.986305, 'ymax': 22.123486}",dining and drinking > restaurant > mexican restaurant > taco restaurant,1
4eec0a599adf257d6530f9e6,"Tacos ""El Güero""",19.68372907933752,-101.1876659920834,Nicolas Bravo,Morelia,Michoacan,58000,,,,MX,2011-12-17,2020-11-30,,,,,,,,['4bf58dd8d48988d151941735'],['Dining and Drinking > Restaurant > Mexican Restaurant > Taco Restaurant'],b'\x00\x00\x00\x00\x01\xc0YL\x02\xb88\xa4t@3\xaf\x08\xdes\x14/',"{'xmin': -101.1876659920834, 'ymin': 19.68372907933752, 'xmax': -101.1876659920834, 'ymax': 19.68372907933752}",dining and drinking > restaurant > mexican restaurant > taco restaurant,1
4cca42f35829b7139173d2db,Tacos Al Vapor Don Moy,20.686603,-103.365711,Miguel Blanco,Guadalajara,Jalisco,44350,,,,MX,2010-10-29,2021-08-14,,,,,,,sergioperezv,['4bf58dd8d48988d151941735'],['Dining and Drinking > Restaurant > Mexican Restaurant > Taco Restaurant'],b'\x00\x00\x00\x00\x01\xc0Y\xd7g\xcf\x1c2f@4\xaf\xc56\xd6U\xe3',"{'xmin': -103.365711, 'ymin': 20.686603, 'xmax': -103.365711, 'ymax': 20.686603}",dining and drinking > restaurant > mexican restaurant > taco restaurant,1
57490fadcd106968164a29f5,Bonanza,22.174452,-100.99336,,,,,,,,MX,2016-05-28,2021-08-16,,,,,,,,['4bf58dd8d48988d151941735'],['Dining and Drinking > Restaurant > Mexican Restaurant > Taco Restaurant'],"b'\x00\x00\x00\x00\x01\xc0Y?\x935\xd2I\xe4@6,\xa8\xe2\xe2\xb8\xc7'","{'xmin': -100.99336, 'ymin': 22.174452, 'xmax': -100.99336, 'ymax': 22.174452}",dining and drinking > restaurant > mexican restaurant > taco restaurant,1
4f5eca5ee4b0949d412916be,Tacos de Angel,20.423279188631966,-100.75760806873902,Benito Juárez 214,Rincón De Tamayo,Guanajuato,,,,,MX,2012-03-13,2020-11-22,,,,,,,,['4bf58dd8d48988d151941735'],['Dining and Drinking > Restaurant > Mexican Restaurant > Taco Restaurant'],b'\x00\x00\x00\x00\x01\xc0Y0|\xa6\x8d\x9a\xde@4l\\\x06`@p',"{'xmin': -100.75760806873902, 'ymin': 20.423279188631966, 'xmax': -100.75760806873902, 'ymax': 20.423279188631966}",dining and drinking > restaurant > mexican restaurant > taco restaurant,1
4db61edacda1c57c827da897,Taco Break,20.689397900123044,-105.28586090862336,,,NAY,,,,,MX,2011-04-26,2020-11-24,,,,,,,,['4bf58dd8d48988d151941735'],['Dining and Drinking > Restaurant > Mexican Restaurant > Taco Restaurant'],b'\x00\x00\x00\x00\x01\xc0ZRK\x8b\x8do\x80@4\xb0|az\xf5\xa5',"{'xmin': -105.28586090862336, 'ymin': 20.689397900123044, 'xmax': -105.28586090862336, 'ymax': 20.689397900123044}",dining and drinking > restaurant > mexican restaurant > taco restaurant,1
504b4e1ee4b0c450c2492757,Tortas Toño,21.87400763927711,-102.29273425115355,,,,,,,,MX,2012-09-08,2021-08-12,,,,,,,,['4bf58dd8d48988d151941735'],['Dining and Drinking > Restaurant > Mexican Restaurant > Taco Restaurant'],b'\x00\x00\x00\x00\x01\xc0Y\x92\xbc(p\xc7\xe8@5\xdf\xbe\xf6\xf3&<',"{'xmin': -102.29273425115355, 'ymin': 21.87400763927711, 'xmax': -102.29273425115355, 'ymax': 21.87400763927711}",dining and drinking > restaurant > mexican restaurant > taco restaurant,1
55903ec3498efcd212fc6a97,"Tacos de Barbacoa ""Don Roy""",20.629269,-103.289185,,,,,,,,MX,2015-06-28,2021-08-11,,,,,,,,['4bf58dd8d48988d151941735'],['Dining and Drinking > Restaurant > Mexican Restaurant > Taco Restaurant'],b'\x00\x00\x00\x00\x01\xc0Y\xd2\x82\x01\xcd_\x9a@4\xa1\x17\xc5\xefb\xfa',"{'xmin': -103.289185, 'ymin': 20.629269, 'xmax': -103.289185, 'ymax': 20.629269}",dining and drinking > restaurant > mexican restaurant > taco restaurant,1
51173224e4b03bddafafc5b1,Tacos Quique,21.874813079833984,-105.28160095214844,,,,,,,,MX,2013-02-10,2020-11-21,,,,,,,,['4bf58dd8d48988d151941735'],['Dining and Drinking > Restaurant > Mexican Restaurant > Taco Restaurant'],b'\x00\x00\x00\x00\x01\xc0ZR\x05\xc0\x00\x00\x00@5\xdf\xf3\xc0\x00\x00\x00',"{'xmin': -105.28160095214844, 'ymin': 21.874813079833984, 'xmax': -105.28160095214844, 'ymax': 21.874813079833984}",dining and drinking > restaurant > mexican restaurant > taco restaurant,1
4f45b414e4b080c039cc2b42,Tacos La Iguana Loca,20.65210615407554,-105.21781528632202,,,,,,,,MX,2012-02-23,2021-08-10,,,,,,,,['4bf58dd8d48988d151941735'],['Dining and Drinking > Restaurant > Mexican Restaurant > Taco Restaurant'],b'\x00\x00\x00\x00\x01\xc0ZM\xf0\xaf\x86\xd4\x9b@4\xa6\xf0m\xcdFX',"{'xmin': -105.21781528632202, 'ymin': 20.65210615407554, 'xmax': -105.21781528632202, 'ymax': 20.65210615407554}",dining and drinking > restaurant > mexican restaurant > taco restaurant,1
583b827d084be53fadbd6c01,El Amigazo Cano,21.857946,-102.30641,,Aguascalientes,Aguascalientes,,,,,MX,2016-11-28,2020-11-23,,,,,,,,['4bf58dd8d48988d151941735'],['Dining and Drinking > Restaurant > Mexican Restaurant > Taco Restaurant'],b'\x00\x00\x00\x00\x01\xc0Y\x93\x9c8\xb0J\xb6@5\xdb\xa2Y[\xbb\xe8',"{'xmin': -102.30641, 'ymin': 21.857946, 'xmax': -102.30641, 'ymax': 21.857946}",dining and drinking > restaurant > mexican restaurant > taco restaurant,1
5972cd459deb7d61edf9812b,Tacos Morales,20.60464,-103.39697,,San Pedro Tlaquepaque,Jalisco,45606,,,,MX,2017-07-22,2020-11-30,,,,,,,,['4bf58dd8d48988d151941735'],['Dining and Drinking > Restaurant > Mexican Restaurant > Taco Restaurant'],b'\x00\x00\x00\x00\x01\xc0Y\xd9g\xf4\xdb\xdf\x8f@4\x9a\xc9\xaf\xe1\xda{',"{'xmin': -103.39697, 'ymin': 20.60464, 'xmax': -103.39697, 'ymax': 20.60464}",dining and drinking > restaurant > mexican restaurant > taco restaurant,1
4f3c8eb2e4b00d955e847ca6,Tacos Basilio,20.632918401260554,-105.22570587466505,,,,,,,,MX,2012-02-16,2021-08-16,,,,,,,,['4bf58dd8d48988d151941735'],['Dining and Drinking > Restaurant > Mexican Restaurant > Taco Restaurant'],b'\x00\x00\x00\x00\x01\xc0ZNq\xf7\r\x8c\xe5@4\xa2\x06\xf0\xbas`',"{'xmin': -105.22570587466505, 'ymin': 20.632918401260554, 'xmax': -105.22570587466505, 'ymax': 20.632918401260554}",dining and drinking > restaurant > mexican restaurant > taco restaurant,1
5132c35ee4b099a3a1e0b3e2,twittacos,20.626107888157875,-103.46533714701913,Guardia Nacional,,Jalisco,,,,,MX,2013-03-03,2021-08-13,,,,,,,,['4bf58dd8d48988d151941735'],['Dining and Drinking > Restaurant > Mexican Restaurant > Taco Restaurant'],b'\x00\x00\x00\x00\x01\xc0Y\xdd\xc8\x15u\x03\xe9@4\xa0H\x9bGg\xdc',"{'xmin': -103.46533714701913, 'ymin': 20.626107888157875, 'xmax': -103.46533714701913, 'ymax': 20.626107888157875}",dining and drinking > restaurant > mexican restaurant > taco restaurant,1
64a2e5cd03169f71607f144d,Tacos Con La Receta De Don Saul,20.671177,-103.28826,Demóstenes,Guadalajara,Jalisco,44770,,,,MX,2023-07-03,2023-07-03,,,,,,,,['4bf58dd8d48988d151941735'],['Dining and Drinking > Restaurant > Mexican Restaurant > Taco Restaurant'],b'\x00\x00\x00\x00\x01\xc0Y\xd2r\xda\x12/\xad@4\xab\xd2A\x80\xd3\xd0',"{'xmin': -103.28826, 'ymin': 20.671177, 'xmax': -103.28826, 'ymax': 20.671177}",dining and drinking > restaurant > mexican restaurant > taco restaurant,1
4cfa6b582d80a1435a8644d8,Tacos ricos de Zacoalco,20.223587713625175,-103.5798957133924,Libramiento de Zacoalco,Zacoalco de Torres,Jalisco,,,,,MX,2010-12-04,2020-11-22,,,,,,,,['4bf58dd8d48988d151941735'],['Dining and Drinking > Restaurant > Mexican Restaurant > Taco Restaurant'],b'\x00\x00\x00\x00\x01\xc0Y\xe5\x1d\x02\xe9\x07\x1a@49=\x0b]\xce\xbb',"{'xmin': -103.5798957133924, 'ymin': 20.223587713625175, 'xmax': -103.5798957133924, 'ymax': 20.223587713625175}",dining and drinking > restaurant > mexican restaurant > taco restaurant,1
4f5eaf50e4b0a91e30b52779,Tacos El Papi 3,21.168492,-101.652457,,,,,,,,MX,2012-03-13,2021-08-16,2013-09-13,,,,,,,['4bf58dd8d48988d151941735'],['Dining and Drinking > Restaurant > Mexican Restaurant > Taco Restaurant'],"b'\x00\x00\x00\x00\x01\xc0Yi\xc1\xdb\x01B\xf6@5+""J\xad\xa3<'","{'xmin': -101.652457, 'ymin': 21.168492, 'xmax': -101.652457, 'ymax': 21.168492}",dining and drinking > restaurant > mexican restaurant > taco restaurant,1
526bdbae11d283b7d5b15ecd,La Parrilla Carnes Asadas,21.159247,-100.928146,,,,,,,,MX,2013-10-26,2021-08-14,,,,,,,,['4bf58dd8d48988d151941735'],['Dining and Drinking > Restaurant > Mexican Restaurant > Taco Restaurant'],b'\x00\x00\x00\x00\x01\xc0Y;f\xbez\xfar@5(\xc4iP\xfcr',"{'xmin': -100.928146, 'ymin': 21.159247, 'xmax': -100.928146, 'ymax': 21.159247}",dining and drinking > restaurant > mexican restaurant > taco restaurant,1
53365007498e2f12b77649ff,Sopes y Quesadillas Irmita,19.689434051513672,-101.1963882446289,Uriel Avilés,Morelia,,,,,,MX,2014-03-29,2020-11-25,,,,,,,,['4bf58dd8d48988d151941735'],['Dining and Drinking > Restaurant > Mexican Restaurant > Taco Restaurant'],b'\x00\x00\x00\x00\x01\xc0YL\x91\xa0\x00\x00\x00@3\xb0~\xc0\x00\x00\x00',"{'xmin': -101.1963882446289, 'ymin': 19.689434051513672, 'xmax': -101.1963882446289, 'ymax': 19.689434051513672}",dining and drinking > restaurant > mexican restaurant > taco restaurant,1
534ea2d5498e0a925cffc1fb,"tacos y gorditas ""La Victoria""",20.638485,-103.315704,Juárez 278,Tlaquepaque,Jalisco,,,,,MX,2014-04-16,2020-11-30,,,,,,,,['4bf58dd8d48988d151941735'],['Dining and Drinking > Restaurant > Mexican Restaurant > Taco Restaurant'],b'\x00\x00\x00\x00\x01\xc0Y\xd44~\x8c\xcd\xd9@4\xa3s\xc0\xc1\xfc\x8f',"{'xmin': -103.315704, 'ymin': 20.638485, 'xmax': -103.315704, 'ymax': 20.638485}",dining and drinking > restaurant > mexican restaurant > taco restaurant,1
513e019be4b0f9298fcab847,"Tacos Tuxpeños ""La Diosa Del Agua""",19.272735147792236,-103.73923750713115,,,,,,,,MX,2013-03-11,2021-08-14,,,,,,,,['4bf58dd8d48988d151941735'],['Dining and Drinking > Restaurant > Mexican Restaurant > Taco Restaurant'],b'\x00\x00\x00\x00\x01\xc0Y\xefO\xaa\xd5F\xb6@3E\xd1\xf8|<\xc5',"{'xmin': -103.73923750713115, 'ymin': 19.272735147792236, 'xmax': -103.73923750713115, 'ymax': 19.272735147792236}",dining and drinking > restaurant > mexican restaurant > taco restaurant,1
d4d17339e7bc4c0554d64065,Restaurante el Pizza,21.029148,-102.395886,Iturbide 52,San Miguel el Alto,Jalisco,47140,,,,MX,2013-04-12,2024-09-10,,347 788 3880,,,,,,"['4bf58dd8d48988d1d0941735' '4bf58dd8d48988d1ca941735'
 '4bf58dd8d48988d151941735']","['Dining and Drinking > Dessert Shop'
 'Dining and Drinking > Restaurant > Pizzeria'
 'Dining and Drinking > Restaurant > Mexican Restaurant > Taco Restaurant']",b'\x00\x00\x00\x00\x01\xc0Y\x99V2;\xbco@5\x07v>J\xbej',"{'xmin': -102.395886, 'ymin': 21.029148, 'xmax': -102.395886, 'ymax': 21.029148}","dining and drinking > dessert shop, dining and drinking > restaurant > pizzeria, dining and drinking > restaurant > mexican restaurant > taco restaurant",1
4d695831c16554814eb7ea81,La Gorda,20.673815724832547,-103.34633596588054,Ramon Corona 181,Guadalajara,JAL,,,,,MX,2011-02-26,2023-12-20,,33 3613 7185,http://lagorda.com.mx,,,,,['4bf58dd8d48988d1c1941735' '4bf58dd8d48988d151941735'],"['Dining and Drinking > Restaurant > Mexican Restaurant'
 'Dining and Drinking > Restaurant > Mexican Restaurant > Taco Restaurant']",b'\x00\x00\x00\x00\x01\xc0Y\xd6*^S\xb8\xac@4\xac\x7f/\xf5\xaf\xb3',"{'xmin': -103.34633596588054, 'ymin': 20.673815724832547, 'xmax': -103.34633596588054, 'ymax': 20.673815724832547}","dining and drinking > restaurant > mexican restaurant, dining and drinking > restaurant > mexican restaurant > taco restaurant",1
50db243bebca75b0fbef609e,Tacos Fonseca,20.641449099883097,-103.38998436927795,Lapizlazuli,Guadalajara,Jalisco,,,,,MX,2012-12-26,2021-08-10,,,,,,,,['4bf58dd8d48988d151941735'],['Dining and Drinking > Restaurant > Mexican Restaurant > Taco Restaurant'],b'\x00\x00\x00\x00\x01\xc0Y\xd8\xf5\x81\x00\x00\x00@4\xa46\x02\x1a\x0b\xea',"{'xmin': -103.38998436927795, 'ymin': 20.641449099883097, 'xmax': -103.38998436927795, 'ymax': 20.641449099883097}",dining and drinking > restaurant > mexican restaurant > taco restaurant,1
51f32b8f498e2469f489e43f,Tacos De Asada,21.16127436205823,-101.6467145998488,,,,,,,,MX,2013-07-27,2021-08-16,,,,,,,,['4bf58dd8d48988d151941735'],['Dining and Drinking > Restaurant > Mexican Restaurant > Taco Restaurant'],b'\x00\x00\x00\x00\x01\xc0Yic\xc5\xa2\x0c\x91@5)IF\xce\xb9.',"{'xmin': -101.6467145998488, 'ymin': 21.16127436205823, 'xmax': -101.6467145998488, 'ymax': 21.16127436205823}",dining and drinking > restaurant > mexican restaurant > taco restaurant,1
5bdbba272d2fd9002c54d57e,Tacos De Gloria,21.510576,-103.409195,,Santa María de la Paz,Zacatecas,,,,,MX,2018-11-02,2020-11-25,,,,,,,,['4bf58dd8d48988d151941735'],['Dining and Drinking > Restaurant > Mexican Restaurant > Taco Restaurant'],b'\x00\x00\x00\x00\x01\xc0Y\xda0@9\xab\xf3@5\x82\xb5\x1b\xd6\x1f\\',"{'xmin': -103.409195, 'ymin': 21.510576, 'xmax': -103.409195, 'ymax': 21.510576}",dining and drinking > restaurant > mexican restaurant > taco restaurant,1
4ca8362aa6e08cfa492e8d94,La Herradura,20.576018895889653,-101.19545822769031,Ignacio Zaragoza 305,Salamanca,GTO,36700,,,,MX,2010-10-03,2020-11-23,,,http://laherradura.com.mx,,,,,['4bf58dd8d48988d151941735' '4bf58dd8d48988d1c1941735'],"['Dining and Drinking > Restaurant > Mexican Restaurant > Taco Restaurant'
 'Dining and Drinking > Restaurant > Mexican Restaurant']",b'\x00\x00\x00\x00\x01\xc0YL\x82c9\xea\x7f@4\x93u\xf9o\xb9^',"{'xmin': -101.19545822769031, 'ymin': 20.576018895889653, 'xmax': -101.19545822769031, 'ymax': 20.576018895889653}","dining and drinking > restaurant > mexican restaurant > taco restaurant, dining and drinking > restaurant > mexican restaurant",1
58949db51e1de501d9047809,Doña Pera,19.686537,-101.176653,,,,,,,,MX,2017-02-03,2021-08-15,,,,,,,,['4bf58dd8d48988d151941735'],['Dining and Drinking > Restaurant > Mexican Restaurant > Taco Restaurant'],b'\x00\x00\x00\x00\x01\xc0YKNHboa@3\xaf\xc0\xe3\x8a~t',"{'xmin': -101.176653, 'ymin': 19.686537, 'xmax': -101.176653, 'ymax': 19.686537}",dining and drinking > restaurant > mexican restaurant > taco restaurant,1
4bb407a3f187a59362d213f8,Tacos Providencia,20.67682083394908,-103.39321021230901,Justo Sierra 3084,Guadalajara,Jalisco,,,,,MX,2010-04-01,2021-08-16,,,,,,,,['4bf58dd8d48988d151941735'],['Dining and Drinking > Restaurant > Mexican Restaurant > Taco Restaurant'],b'\x00\x00\x00\x00\x01\xc0Y\xd9*[*\x94\x82@4\xadD!S\x10\x10',"{'xmin': -103.39321021230901, 'ymin': 20.67682083394908, 'xmax': -103.39321021230901, 'ymax': 20.67682083394908}",dining and drinking > restaurant > mexican restaurant > taco restaurant,1
4f0101a730f89923335ecc71,Gringas de la Central,21.86634592353887,-102.29964374783687,Av. De la Convencion 501,Aguascalientes,AGS,,,,,MX,2012-01-02,2020-11-25,,,,,,,,['4bf58dd8d48988d151941735'],['Dining and Drinking > Restaurant > Mexican Restaurant > Taco Restaurant'],b'\x00\x00\x00\x00\x01\xc0Y\x93-\\\xf8ZA@5\xdd\xc8\xd8\xb0\x9fS',"{'xmin': -102.29964374783687, 'ymin': 21.86634592353887, 'xmax': -102.29964374783687, 'ymax': 21.86634592353887}",dining and drinking > restaurant > mexican restaurant > taco restaurant,1
52446b4711d2d1ff3501f47b,El Probete,20.665657,-103.406877,,,,,,,,MX,2013-09-26,2021-08-12,,,,,,,,['4bf58dd8d48988d151941735'],['Dining and Drinking > Restaurant > Mexican Restaurant > Taco Restaurant'],b'\x00\x00\x00\x00\x01\xc0Y\xda\nE\xd4\x1f\xa7@4\xaah\x7fEZ}',"{'xmin': -103.406877, 'ymin': 20.665657, 'xmax': -103.406877, 'ymax': 20.665657}",dining and drinking > restaurant > mexican restaurant > taco restaurant,1
510577d6e4b0cc5c7ffd93a1,Quesadillas Las Comadres,21.116398,-101.60305,,,,,,,,MX,2013-01-27,2021-08-11,,,,,,,,['4bf58dd8d48988d151941735'],['Dining and Drinking > Restaurant > Mexican Restaurant > Taco Restaurant'],b'\x00\x00\x00\x00\x01\xc0Yf\x98_\x06\xf6\x94@5\x1d\xccBcQ\xdf',"{'xmin': -101.60305, 'ymin': 21.116398, 'xmax': -101.60305, 'ymax': 21.116398}",dining and drinking > restaurant > mexican restaurant > taco restaurant,1
54d79814498ef8e30a13f316,Carnitas Clara,20.496628,-100.811642,,,,,,,,MX,2015-02-08,2021-08-11,,,,,,,,['4bf58dd8d48988d151941735'],['Dining and Drinking > Restaurant > Mexican Restaurant > Taco Restaurant'],b'\x00\x00\x00\x00\x01\xc0Y3\xf1\xf1I\x83\xd8@4\x7f#\x03:G$',"{'xmin': -100.811642, 'ymin': 20.496628, 'xmax': -100.811642, 'ymax': 20.496628}",dining and drinking > restaurant > mexican restaurant > taco restaurant,1
27dc93d482df444ff3e83d28,Birrieria Macias,21.139914,-101.689049,Miguel de Cervantes Saavedra 710,León,Guanajuato,37410,,,,MX,2013-10-22,2023-12-06,,477 777 8359,,,,,,['4bf58dd8d48988d151941735'],['Dining and Drinking > Restaurant > Mexican Restaurant > Taco Restaurant'],b'\x00\x00\x00\x00\x01\xc0Yl\x19`\xfa\x15\xdb@5#\xd1gf@\xa7',"{'xmin': -101.689049, 'ymin': 21.139914, 'xmax': -101.689049, 'ymax': 21.139914}",dining and drinking > restaurant > mexican restaurant > taco restaurant,1
5105e3b6e4b06b57d3885f76,Tacos Doña Tere,20.733591,-103.403203,,,,,,,,MX,2013-01-28,2021-08-12,,,,,,,,['4bf58dd8d48988d151941735'],['Dining and Drinking > Restaurant > Mexican Restaurant > Taco Restaurant'],b'\x00\x00\x00\x00\x01\xc0Y\xd9\xce\x13\xf4\xa9\x8b@4\xbb\xcc\x9e\xa9\xa3\xd3',"{'xmin': -103.403203, 'ymin': 20.733591, 'xmax': -103.403203, 'ymax': 20.733591}",dining and drinking > restaurant > mexican restaurant > taco restaurant,1
5206fa7a498ea99bf665e0d0,Tacos Camarena,20.612057,-103.285246,,,,,,,,MX,2013-08-11,2021-08-14,,,,,,,,['4bf58dd8d48988d151941735'],['Dining and Drinking > Restaurant > Mexican Restaurant > Taco Restaurant'],b'\x00\x00\x00\x00\x01\xc0Y\xd2AxpT&@4\x9c\xaf\xc4~I\xb2',"{'xmin': -103.285246, 'ymin': 20.612057, 'xmax': -103.285246, 'ymax': 20.612057}",dining and drinking > restaurant > mexican restaurant > taco restaurant,1
60635b5819963e0586475fb5,Tacos Elvita,20.52976,-100.803665,,Celaya,Guanajuato,38050,,,,MX,2021-03-30,2021-03-30,,,,,,,,['4bf58dd8d48988d151941735'],['Dining and Drinking > Restaurant > Mexican Restaurant > Taco Restaurant'],b'\x00\x00\x00\x00\x01\xc0Y3o?R\xfc&@4\x87\x9eY\xf2\xba\x9d',"{'xmin': -100.803665, 'ymin': 20.52976, 'xmax': -100.803665, 'ymax': 20.52976}",dining and drinking > restaurant > mexican restaurant > taco restaurant,1
550072a4498e8f6a0bdb25dc,Tortas Don Ro,20.580379334533877,-103.4493959849045,Calle San José,Tlajomulco,,,,,,MX,2015-03-11,2021-12-20,,,,,,,,['4bf58dd8d48988d151941735'],['Dining and Drinking > Restaurant > Mexican Restaurant > Taco Restaurant'],b'\x00\x00\x00\x00\x01\xc0Y\xdc\xc2\xe7`\x87\x96@4\x94\x93\xbdu\x18\xe5',"{'xmin': -103.4493959849045, 'ymin': 20.580379334533877, 'xmax': -103.4493959849045, 'ymax': 20.580379334533877}",dining and drinking > restaurant > mexican restaurant > taco restaurant,1
555f485a498e14df60d1fd8a,Tacos Los Güeros,20.470596160993416,-100.80891655612001,,,,,,,,MX,2015-05-22,2020-11-25,,,,,,,,['4bf58dd8d48988d151941735'],['Dining and Drinking > Restaurant > Mexican Restaurant > Taco Restaurant'],b'\x00\x00\x00\x00\x01\xc0Y3\xc5I\xf2n\x9e@4xx\xfdq\x17\x02',"{'xmin': -100.80891655612001, 'ymin': 20.470596160993416, 'xmax': -100.80891655612001, 'ymax': 20.470596160993416}",dining and drinking > restaurant > mexican restaurant > taco restaurant,1
4deaced052b11677f046a366,El Camelluco,22.15250407982968,-100.99353039930115,Agustín Vera 295A,San Luis,San Luis Potosí,,,,,MX,2011-06-05,2023-12-20,,444 813 8120,,,,,,['4bf58dd8d48988d151941735'],['Dining and Drinking > Restaurant > Mexican Restaurant > Taco Restaurant'],"b""\x00\x00\x00\x00\x01\xc0Y?\x96\x00\x87%#@6'\n\x81\xe3`\x03""","{'xmin': -100.99353039930115, 'ymin': 22.15250407982968, 'xmax': -100.99353039930115, 'ymax': 22.15250407982968}",dining and drinking > restaurant > mexican restaurant > taco restaurant,1
4f7d04a6e4b0211820f2ee65,Tacos Furcio.com.mx,21.89078067194066,-102.27263943036039,,,,,,,,MX,2012-04-05,2021-08-14,,,,,,,,['4bf58dd8d48988d151941735'],['Dining and Drinking > Restaurant > Mexican Restaurant > Taco Restaurant'],b'\x00\x00\x00\x00\x01\xc0Y\x91r\xec\xa7?\xde@5\xe4\n3\xbd\xe4\xe0',"{'xmin': -102.27263943036039, 'ymin': 21.89078067194066, 'xmax': -102.27263943036039, 'ymax': 21.89078067194066}",dining and drinking > restaurant > mexican restaurant > taco restaurant,1
4bca89ad0687ef3be85bdccc,Grillos Taqueria,20.52837059193228,-100.82929589695917,Los Aztecas 825,Celaya,GTO,,,,,MX,2010-04-18,2023-12-21,,461 614 4246,,,,,,"['4bf58dd8d48988d151941735' '4bf58dd8d48988d1f9941735'
 '4bf58dd8d48988d16e941735']","['Dining and Drinking > Restaurant > Mexican Restaurant > Taco Restaurant'
 'Retail > Food and Beverage Retail'
 'Dining and Drinking > Restaurant > Fast Food Restaurant']",b'\x00\x00\x00\x00\x01\xc0Y5\x13/\x19\tb@4\x87CK\x8c\x84n',"{'xmin': -100.82929589695917, 'ymin': 20.52837059193228, 'xmax': -100.82929589695917, 'ymax': 20.52837059193228}","dining and drinking > restaurant > mexican restaurant > taco restaurant, retail > food and beverage retail, dining and drinking > restaurant > fast food restaurant",1
5ac6da3bf4b5250c90d94e0d,Tacos El Pata,20.897311495881127,-100.75415733094621,Carretera San Miguel-Celaya,San Miguel de Allende,GTO,,,,,MX,2018-04-06,2023-12-20,,415 120 0058,,,,,,['4bf58dd8d48988d151941735'],['Dining and Drinking > Restaurant > Mexican Restaurant > Taco Restaurant'],"b'\x00\x00\x00\x00\x01\xc0Y0D\x1d\x1c\x1c\xf8@4\xe5\xb64\xc9""`'","{'xmin': -100.75415733094621, 'ymin': 20.897311495881127, 'xmax': -100.75415733094621, 'ymax': 20.897311495881127}",dining and drinking > restaurant > mexican restaurant > taco restaurant,1
4e134383fa769d21e9fd1d2b,El Tio Tacos Y Gorditas,20.77818,-103.691213,,,,,,,,MX,2011-07-05,2021-08-14,,,,,,,,['4bf58dd8d48988d151941735'],['Dining and Drinking > Restaurant > Mexican Restaurant > Taco Restaurant'],b'\x00\x00\x00\x00\x01\xc0Y\xec<\xd5sd|@4\xc76\xcd\xf2f\xba',"{'xmin': -103.691213, 'ymin': 20.77818, 'xmax': -103.691213, 'ymax': 20.77818}",dining and drinking > restaurant > mexican restaurant > taco restaurant,1
54cd9cb1498eeb9f41642e48,Tacos el Rosal,20.660381010175627,-103.70126169355244,Adoquinada,,,,,,,MX,2015-02-01,2021-08-14,,,,,,,,['4bf58dd8d48988d151941735'],['Dining and Drinking > Restaurant > Mexican Restaurant > Taco Restaurant'],b'\x00\x00\x00\x00\x01\xc0Y\xec\xe1x\xb9\xef\xb3@4\xa9\x0e\xba\xd9\x9a\x90',"{'xmin': -103.70126169355244, 'ymin': 20.660381010175627, 'xmax': -103.70126169355244, 'ymax': 20.660381010175627}",dining and drinking > restaurant > mexican restaurant > taco restaurant,1
4e74e3e61495be5170dfc386,Tacos ISORDIA,20.626189140061594,-105.22945417741768,Av. Las americas,Puerto Vallarta,México,,,,,MX,2011-09-17,2020-11-24,,,,,,,,['4bf58dd8d48988d151941735' '4bf58dd8d48988d1c1941735'],"['Dining and Drinking > Restaurant > Mexican Restaurant > Taco Restaurant'
 'Dining and Drinking > Restaurant > Mexican Restaurant']",b'\x00\x00\x00\x00\x01\xc0ZN\xaf`\x92\xfc!@4\xa0M\xeeu\xac\xc7',"{'xmin': -105.22945417741768, 'ymin': 20.626189140061594, 'xmax': -105.22945417741768, 'ymax': 20.626189140061594}","dining and drinking > restaurant > mexican restaurant > taco restaurant, dining and drinking > restaurant > mexican restaurant",1
527ae96911d28b0a702532e2,El Nalgon,21.147396171603894,-101.68318342780955,Blvd. Campestre,"Leon, GTO",Guanajuato,,,,,MX,2013-11-07,2020-11-25,,,,,,,,['4bf58dd8d48988d151941735'],['Dining and Drinking > Restaurant > Mexican Restaurant > Taco Restaurant'],b'\x00\x00\x00\x00\x01\xc0Yk\xb9F\xfb\xe7\x1e@5%\xbb\xc1h\x98&',"{'xmin': -101.68318342780955, 'ymin': 21.147396171603894, 'xmax': -101.68318342780955, 'ymax': 21.147396171603894}",dining and drinking > restaurant > mexican restaurant > taco restaurant,1
50f9926ae4b0ecd21e6d0465,tacos de la gas,20.606490798851123,-103.43344550879877,,,,,,,,MX,2013-01-18,2021-08-13,,,,,,,,['4bf58dd8d48988d151941735'],['Dining and Drinking > Restaurant > Mexican Restaurant > Taco Restaurant'],"b'\x00\x00\x00\x00\x01\xc0Y\xdb\xbd\x92;8\xe2@4\x9bB\xfb""c\xf7'","{'xmin': -103.43344550879877, 'ymin': 20.606490798851123, 'xmax': -103.43344550879877, 'ymax': 20.606490798851123}",dining and drinking > restaurant > mexican restaurant > taco restaurant,1
5262b4c7498ea0888539714a,Barbacoa El Riñón,20.923968,-100.741494,Colonia Aurora #3,,,,,,,MX,2013-10-19,2021-08-11,,,,,,,,['4bf58dd8d48988d151941735'],['Dining and Drinking > Restaurant > Mexican Restaurant > Taco Restaurant'],b'\x00\x00\x00\x00\x01\xc0Y/t\xa3@\x0b\x89@4\xec\x89*\xb6\x8c\xef',"{'xmin': -100.741494, 'ymin': 20.923968, 'xmax': -100.741494, 'ymax': 20.923968}",dining and drinking > restaurant > mexican restaurant > taco restaurant,1
4ca6c12ca6e08cfa073b7e94,Tacos El Rin,20.757538,-105.341607,,,,,,,,MX,2010-10-02,2021-08-13,,,,,,,,['4bf58dd8d48988d151941735' '4bf58dd8d48988d1c1941735'],"['Dining and Drinking > Restaurant > Mexican Restaurant > Taco Restaurant'
 'Dining and Drinking > Restaurant > Mexican Restaurant']",b'\x00\x00\x00\x00\x01\xc0ZU\xdc\xe3\x9bEk@4\xc1\xee\x02\xa7z-',"{'xmin': -105.341607, 'ymin': 20.757538, 'xmax': -105.341607, 'ymax': 20.757538}","dining and drinking > restaurant > mexican restaurant > taco restaurant, dining and drinking > restaurant > mexican restaurant",1
4d65eac969cf60fc18ee809a,"Taquería ""El Cuñado""",20.55476837538575,-101.20340466499329,Valle de santiago,Salamanca,Guanajauto,36780,,,,MX,2011-02-24,2020-11-17,,,,,,,,['4bf58dd8d48988d151941735'],['Dining and Drinking > Restaurant > Mexican Restaurant > Taco Restaurant'],b'\x00\x00\x00\x00\x01\xc0YM\x04\x95\x00\x00\x00@4\x8e\x05L\xdd#\x08',"{'xmin': -101.20340466499329, 'ymin': 20.55476837538575, 'xmax': -101.20340466499329, 'ymax': 20.55476837538575}",dining and drinking > restaurant > mexican restaurant > taco restaurant,1
52dde49c498e3237bcaf46b9,Tacos Don Manuel,20.70859,-103.327697,Sierra Leona,Guadalajara,Jalisco,,,,,MX,2014-01-21,2021-08-11,,,,,,,,['4bf58dd8d48988d151941735'],['Dining and Drinking > Restaurant > Mexican Restaurant > Taco Restaurant'],"b""\x00\x00\x00\x00\x01\xc0Y\xd4\xf8\xfc\xd6\x7f\xd4@4\xb5f'|E\xcc""","{'xmin': -103.327697, 'ymin': 20.70859, 'xmax': -103.327697, 'ymax': 20.70859}",dining and drinking > restaurant > mexican restaurant > taco restaurant,1
517ff5a3e4b013061d01d348,Tacos Tuxpeños Don Rafa,19.233139,-103.727282,Av. 20 De Nov,Colima,,,,,,MX,2013-04-30,2020-11-24,,,,,,,,['4bf58dd8d48988d151941735'],['Dining and Drinking > Restaurant > Mexican Restaurant > Taco Restaurant'],b'\x00\x00\x00\x00\x01\xc0Y\xee\x8b\xc9\xcd>\x0c@3;\xae\xff\\l\x12',"{'xmin': -103.727282, 'ymin': 19.233139, 'xmax': -103.727282, 'ymax': 19.233139}",dining and drinking > restaurant > mexican restaurant > taco restaurant,1
4fe4f94ee4b032d652e43540,"Taqueria Ramirez, Ameca",20.538001788211325,-104.04171821455262,,,,,,,,MX,2012-06-22,2021-08-17,,,,,,,,['4bf58dd8d48988d151941735'],['Dining and Drinking > Restaurant > Mexican Restaurant > Taco Restaurant'],b'\x00\x00\x00\x00\x01\xc0Z\x02\xab\x82\xdf\xc9\xaa@4\x89\xba|5\x8e\xa2',"{'xmin': -104.04171821455262, 'ymin': 20.538001788211325, 'xmax': -104.04171821455262, 'ymax': 20.538001788211325}",dining and drinking > restaurant > mexican restaurant > taco restaurant,1
51172a2fe4b03e9922878aa6,Tacos Doña Irma,19.259479131561452,-103.72773162988106,,,,,,,,MX,2013-02-10,2021-08-16,,,,,,,,['4bf58dd8d48988d151941735'],['Dining and Drinking > Restaurant > Mexican Restaurant > Taco Restaurant'],"b""\x00\x00\x00\x00\x01\xc0Y\xee\x93'\xaf\xa6\xa7@3Bm9p\r\t""","{'xmin': -103.72773162988106, 'ymin': 19.259479131561452, 'xmax': -103.72773162988106, 'ymax': 19.259479131561452}",dining and drinking > restaurant > mexican restaurant > taco restaurant,1
50646cf5e4b0add9c151761d,Gorditas Amakihi,20.64426070890826,-103.29878118512327,,,,,,,,MX,2012-09-27,2021-08-15,,,,,,,,['4bf58dd8d48988d151941735'],['Dining and Drinking > Restaurant > Mexican Restaurant > Taco Restaurant'],b'\x00\x00\x00\x00\x01\xc0Y\xd3\x1f;\x1e\xb0\xef@4\xa4\xeeE\x12\xdb\xd7',"{'xmin': -103.29878118512327, 'ymin': 20.64426070890826, 'xmax': -103.29878118512327, 'ymax': 20.64426070890826}",dining and drinking > restaurant > mexican restaurant > taco restaurant,1
54dc10f5498e03fa2979e40c,Los de Asada,20.680733429512816,-101.37029484743661,Héroe De Nacozari,,,,,,,MX,2015-02-12,2021-08-15,,,,,,,,['4bf58dd8d48988d151941735'],['Dining and Drinking > Restaurant > Mexican Restaurant > Taco Restaurant'],b'\x00\x00\x00\x00\x01\xc0YW\xb2\xe9(\xe7\x86@4\xaeD\x8b\xc9\r-',"{'xmin': -101.37029484743661, 'ymin': 20.680733429512816, 'xmax': -101.37029484743661, 'ymax': 20.680733429512816}",dining and drinking > restaurant > mexican restaurant > taco restaurant,1
583b1097a6118c60b50a94a5,El Ranchero,20.603934902965506,-103.41225866215227,Av Padre Xavier Scheifler de Amezaga,San Pedro Tlaquepaque,Jalisco,45609,,,,MX,2016-11-27,2020-11-30,,,http://elranchero.mx,,,,,['4bf58dd8d48988d151941735'],['Dining and Drinking > Restaurant > Mexican Restaurant > Taco Restaurant'],"b""\x00\x00\x00\x00\x01\xc0Y\xdabr'\xdb\xf3@4\x9a\x9bzQ&X""","{'xmin': -103.41225866215227, 'ymin': 20.603934902965506, 'xmax': -103.41225866215227, 'ymax': 20.603934902965506}",dining and drinking > restaurant > mexican restaurant > taco restaurant,1
5025cb9fe4b040ed525c2c24,Tacos Las Torres,20.48917,-100.967991,Blvd. Paseo De La Juventud #605,Cortazar,Gto,,,,,MX,2012-08-11,2020-11-23,,,,,,,,['4bf58dd8d48988d151941735'],['Dining and Drinking > Restaurant > Mexican Restaurant > Taco Restaurant'],b'\x00\x00\x00\x00\x01\xc0Y=\xf3\x90\x85\xf4\xa1@4}:>\xc0/0',"{'xmin': -100.967991, 'ymin': 20.48917, 'xmax': -100.967991, 'ymax': 20.48917}",dining and drinking > restaurant > mexican restaurant > taco restaurant,1
53d3107f498e2367967481de,Tacos Fer,20.736351,-103.419824,Marina-Mazatlán 663,Zapopan,Jalisco,,,,,MX,2014-07-26,2020-11-30,,,,,,,,['4bf58dd8d48988d151941735'],['Dining and Drinking > Restaurant > Mexican Restaurant > Taco Restaurant'],b'\x00\x00\x00\x00\x01\xc0Y\xda\xdee{\x84\xdc@4\xbc\x81\x7f\xc7`|',"{'xmin': -103.419824, 'ymin': 20.736351, 'xmax': -103.419824, 'ymax': 20.736351}",dining and drinking > restaurant > mexican restaurant > taco restaurant,1
527ee63d498ee38be54d87b8,Tacos Don Abraham,22.188144009184274,-101.01135275132651,,,,,,,,MX,2013-11-10,2021-08-15,,,,,,,,['4bf58dd8d48988d151941735'],['Dining and Drinking > Restaurant > Mexican Restaurant > Taco Restaurant'],b'\x00\x00\x00\x00\x01\xc0Y@\xba\x00\xe3\xea\xb0@60*4\xaeb\x81',"{'xmin': -101.01135275132651, 'ymin': 22.188144009184274, 'xmax': -101.01135275132651, 'ymax': 22.188144009184274}",dining and drinking > restaurant > mexican restaurant > taco restaurant,1
61e724fb55794a3f397a5025,Taqueria,21.120265,-101.693712,Calzada Coahuila 549,Aldama,Guanajuato,37360,,,,MX,2010-11-04,2023-12-08,,,,,,,,['4bf58dd8d48988d151941735'],['Dining and Drinking > Restaurant > Mexican Restaurant > Taco Restaurant'],b'\x00\x00\x00\x00\x01\xc0Yle\xc7\x045\xf0@5\x1e\xc9\xaf\xe1\xda{',"{'xmin': -101.693712, 'ymin': 21.120265, 'xmax': -101.693712, 'ymax': 21.120265}",dining and drinking > restaurant > mexican restaurant > taco restaurant,1
4f527b98e4b02cf6bde21947,Tacoland,20.649018133249132,-103.42029039601182,Plaza Ciudadela,,Jal,,,,,MX,2012-03-03,2024-01-04,,,http://www.tacoland.mx,,,,,['4bf58dd8d48988d151941735'],['Dining and Drinking > Restaurant > Mexican Restaurant > Taco Restaurant'],b'\x00\x00\x00\x00\x01\xc0Y\xda\xe6\t\xb0le@4\xa6&\rh\xd0\xe5',"{'xmin': -103.42029039601182, 'ymin': 20.649018133249132, 'xmax': -103.42029039601182, 'ymax': 20.649018133249132}",dining and drinking > restaurant > mexican restaurant > taco restaurant,1
50e0b0e3e4b0f3400cc3bf58,Tacos el Pony,21.142199129611743,-101.68620240261505,,,,,,,,MX,2012-12-30,2021-08-15,,,,,,,,['4bf58dd8d48988d151941735'],['Dining and Drinking > Restaurant > Mexican Restaurant > Taco Restaurant'],b'\x00\x00\x00\x00\x01\xc0Yk\xea\xbd{j\xc5@5$g)\x833\xbd',"{'xmin': -101.68620240261505, 'ymin': 21.142199129611743, 'xmax': -101.68620240261505, 'ymax': 21.142199129611743}",dining and drinking > restaurant > mexican restaurant > taco restaurant,1
52db56d611d20eaae4249491,Taqueria ARANDAS (de las 4 canchas),20.646676262238348,-103.30325209716258,Bernal Diaz del Castillo,Guadalajara,Jalisco,,,,,MX,2014-01-19,2021-08-17,,,,,,,,['4bf58dd8d48988d151941735'],['Dining and Drinking > Restaurant > Mexican Restaurant > Taco Restaurant'],b'\x00\x00\x00\x00\x01\xc0Y\xd3h{{\xf0n@4\xa5\x8c\x93Ui\xc9',"{'xmin': -103.30325209716258, 'ymin': 20.646676262238348, 'xmax': -103.30325209716258, 'ymax': 20.646676262238348}",dining and drinking > restaurant > mexican restaurant > taco restaurant,1
541070cf498e751683bb441d,Quekas los Pepes,20.6873,-101.348182,,,,,,,,MX,2014-09-10,2021-08-11,,,,,,,,['4bf58dd8d48988d151941735'],['Dining and Drinking > Restaurant > Mexican Restaurant > Taco Restaurant'],"b""\x00\x00\x00\x00\x01\xc0YVH\x9d'\xc3\x93@4\xaf\xf2\xe4\x8e\x8ar""","{'xmin': -101.348182, 'ymin': 20.6873, 'xmax': -101.348182, 'ymax': 20.6873}",dining and drinking > restaurant > mexican restaurant > taco restaurant,1
54530977498e92ceba790711,Quekas Madero,21.124315,-101.677909,,,,,,,,MX,2014-10-31,2021-08-13,,,,,,,,['4bf58dd8d48988d151941735'],['Dining and Drinking > Restaurant > Mexican Restaurant > Taco Restaurant'],b'\x00\x00\x00\x00\x01\xc0Ykb\xdcn*\x80@5\x1f\xd3\x1b\x9bf\xf9',"{'xmin': -101.677909, 'ymin': 21.124315, 'xmax': -101.677909, 'ymax': 21.124315}",dining and drinking > restaurant > mexican restaurant > taco restaurant,1
5afae12b628c83002c10a91c,Don Diego Barbacoa,20.67577,-103.45563,Periférico Poniente,Zapopan,Jalisco,,,,,MX,2018-05-15,2020-11-25,,,,,,,,['4bf58dd8d48988d151941735'],['Dining and Drinking > Restaurant > Mexican Restaurant > Taco Restaurant'],b'\x00\x00\x00\x00\x01\xc0Y\xdd)\n\xbbD\xe5@4\xac\xffCA\x9e0',"{'xmin': -103.45563, 'ymin': 20.67577, 'xmax': -103.45563, 'ymax': 20.67577}",dining and drinking > restaurant > mexican restaurant > taco restaurant,1
4f9f3802e4b086998c4d90a2,tacos providencia,20.5401532,-105.2940732,Col providencia,Guadalajara,Jalisco,,,,,MX,2012-05-01,2021-08-13,,,,,,,,['4bf58dd8d48988d151941735'],['Dining and Drinking > Restaurant > Mexican Restaurant > Taco Restaurant'],b'\x00\x00\x00\x00\x01\xc0ZR\xd2\x18f(S@4\x8aGz\xe8\xd4j',"{'xmin': -105.2940732, 'ymin': 20.5401532, 'xmax': -105.2940732, 'ymax': 20.5401532}",dining and drinking > restaurant > mexican restaurant > taco restaurant,1
4dc8248545dd264552b166a1,Tacos de barbacoa El Chino,20.667381857153106,-103.36050819779751,Bélgica,Guadalajara,Jalisco,,,,,MX,2011-05-09,2021-08-17,,,,,,,,['4bf58dd8d48988d151941735'],['Dining and Drinking > Restaurant > Mexican Restaurant > Taco Restaurant'],b'\x00\x00\x00\x00\x01\xc0Y\xd7\x12\x90\xf9\xde\xbc@4\xaa\xd9\x89\x92j\x95',"{'xmin': -103.36050819779751, 'ymin': 20.667381857153106, 'xmax': -103.36050819779751, 'ymax': 20.667381857153106}",dining and drinking > restaurant > mexican restaurant > taco restaurant,1
f62297487de34becaf56b553,Menuderia Joaquin,20.681931,-103.359239,Joaquin Angulo 1055,Guadalajara,Jalisco,44200,,,,MX,2014-02-07,2024-05-26,,33 3336 7311,,,,,,['4bf58dd8d48988d151941735'],['Dining and Drinking > Restaurant > Mexican Restaurant > Taco Restaurant'],b'\x00\x00\x00\x00\x01\xc0Y\xd6\xfd\xc5\x93\x1c\xa8@4\xae\x93\x07\xaf \xea',"{'xmin': -103.359239, 'ymin': 20.681931, 'xmax': -103.359239, 'ymax': 20.681931}",dining and drinking > restaurant > mexican restaurant > taco restaurant,1
6480c9963e6b810c108dba38,Guanacoa,21.011219,-101.277958,Carr Marfil - Gto,Guanajuato,Guanajuato,36253,,,,MX,2023-06-07,2023-06-07,,,,,,,,['4bf58dd8d48988d151941735'],['Dining and Drinking > Restaurant > Mexican Restaurant > Taco Restaurant'],b'\x00\x00\x00\x00\x01\xc0YQ\xca\x10Y\xeaW@5\x02\xdf?\x96\x18\x05',"{'xmin': -101.277958, 'ymin': 21.011219, 'xmax': -101.277958, 'ymax': 21.011219}",dining and drinking > restaurant > mexican restaurant > taco restaurant,1
4fb9303ae4b0c861523545f6,"Birria ""El mejor""",19.68657824211845,-101.2334984144912,,,,,,,,MX,2012-05-20,2021-08-10,,,,,,,,['4bf58dd8d48988d151941735'],['Dining and Drinking > Restaurant > Mexican Restaurant > Taco Restaurant'],b'\x00\x00\x00\x00\x01\xc0YN\xf1\xa3Uz\x15@3\xaf\xc3\x97x\x0b>',"{'xmin': -101.2334984144912, 'ymin': 19.68657824211845, 'xmax': -101.2334984144912, 'ymax': 19.68657824211845}",dining and drinking > restaurant > mexican restaurant > taco restaurant,1
4e0a7b7e152077e721d39911,Marisma Fish Taco,20.647563395349863,-105.2255916595459,Carlos J. Barrios,Puerto Vallarta,Jalisco,48380,,,,MX,2011-06-29,2024-10-21,,322 223 1369,,,,,marismafishtaco,"['4bf58dd8d48988d1ce941735' '4bf58dd8d48988d151941735'
 '4bf58dd8d48988d1c1941735']","['Dining and Drinking > Restaurant > Seafood Restaurant'
 'Dining and Drinking > Restaurant > Mexican Restaurant > Taco Restaurant'
 'Dining and Drinking > Restaurant > Mexican Restaurant']",b'\x00\x00\x00\x00\x01\xc0ZNp\x18\x00\x00\x00@4\xa5\xc6\xb6\xf5\x1dH',"{'xmin': -105.2255916595459, 'ymin': 20.647563395349863, 'xmax': -105.2255916595459, 'ymax': 20.647563395349863}","dining and drinking > restaurant > seafood restaurant, dining and drinking > restaurant > mexican restaurant > taco restaurant, dining and drinking > restaurant > mexican restaurant",1
50455f19e4b02d097fadc0fa,Tacos Edu,20.68058900086472,-103.31902681685769,Pedro Celestino Negrete # 598,,,,,,,MX,2012-09-04,2021-08-11,,,,,,,,['4bf58dd8d48988d151941735'],['Dining and Drinking > Restaurant > Mexican Restaurant > Taco Restaurant'],b'\x00\x00\x00\x00\x01\xc0Y\xd4j\xeft<\xd9@4\xae;\x14\xac\xbb6',"{'xmin': -103.31902681685769, 'ymin': 20.68058900086472, 'xmax': -103.31902681685769, 'ymax': 20.68058900086472}",dining and drinking > restaurant > mexican restaurant > taco restaurant,1
51c11f27498e559d4e3c1e9a,La Taquerita,20.694375,-101.360559,,,,,,,,MX,2013-06-19,2021-08-14,,,,,,,,['4bf58dd8d48988d151941735'],['Dining and Drinking > Restaurant > Mexican Restaurant > Taco Restaurant'],b'\x00\x00\x00\x00\x01\xc0YW\x13f\x0eQ\xd2@4\xb1\xc2\x8f\\(\xf6',"{'xmin': -101.360559, 'ymin': 20.694375, 'xmax': -101.360559, 'ymax': 20.694375}",dining and drinking > restaurant > mexican restaurant > taco restaurant,1
4ed1b88d4690a03b5f0647f8,Tacos el millón,21.166562690745263,-101.66180186798641,Blvd ibarrilla,Leon,GTO,,,,,MX,2011-11-27,2020-11-23,,,,,,,,['4bf58dd8d48988d151941735'],['Dining and Drinking > Restaurant > Mexican Restaurant > Taco Restaurant'],b'\x00\x00\x00\x00\x01\xc0YjZ\xf68\xdb\xbc@5*\xa3\xda=|\x13',"{'xmin': -101.66180186798641, 'ymin': 21.166562690745263, 'xmax': -101.66180186798641, 'ymax': 21.166562690745263}",dining and drinking > restaurant > mexican restaurant > taco restaurant,1
b8d3e4b7ca764ebaa68b8200,Taqueria,21.142609,-101.639501,Boulevard Mariano Escobedo 6525,,Guanajuato,37235,,,,MX,2010-11-04,2024-08-20,,,,,,,,['4bf58dd8d48988d151941735'],['Dining and Drinking > Restaurant > Mexican Restaurant > Taco Restaurant'],b'\x00\x00\x00\x00\x01\xc0Yh\xed\x95\x9a0\x98@5$\x82\x05\xff\x1d\x82',"{'xmin': -101.639501, 'ymin': 21.142609, 'xmax': -101.639501, 'ymax': 21.142609}",dining and drinking > restaurant > mexican restaurant > taco restaurant,1
660b246a483bb80971ce3261,Los Fabulosos Cachanilla,20.639263,-103.31726,Independencia 373A,Tlaquepaque,Jalisco,45560,,,,MX,2024-04-01,2024-10-18,,,,,,,,['4bf58dd8d48988d151941735'],['Dining and Drinking > Restaurant > Mexican Restaurant > Taco Restaurant'],b'\x00\x00\x00\x00\x01\xc0Y\xd4M\xfc\xe3\x15\x0e@4\xa3\xa6\xbdn\x8a\xf8',"{'xmin': -103.31726, 'ymin': 20.639263, 'xmax': -103.31726, 'ymax': 20.639263}",dining and drinking > restaurant > mexican restaurant > taco restaurant,1
56bf50d4cd104c422896a538,Gorditas de Luis Moya,21.878735,-102.31788,,,,,,,,MX,2016-02-13,2021-08-10,,,,,,,,['4bf58dd8d48988d151941735'],['Dining and Drinking > Restaurant > Mexican Restaurant > Taco Restaurant'],b'\x00\x00\x00\x00\x01\xc0Y\x94X%[\x03\\@5\xe0\xf4\xc6\xe6\xd9\xbe',"{'xmin': -102.31788, 'ymin': 21.878735, 'xmax': -102.31788, 'ymax': 21.878735}",dining and drinking > restaurant > mexican restaurant > taco restaurant,1
53ce7b15498e559f4935ec57,Quesadillas Yummy,17.546309,-99.498878,,,,,,,,MX,2014-07-22,2021-08-16,,,,,,,,['4bf58dd8d48988d151941735'],['Dining and Drinking > Restaurant > Mexican Restaurant > Taco Restaurant'],b'\x00\x00\x00\x00\x01\xc0X\xdf\xed\x9d\xfd\xaci@1\x8b\xda\xe8\x18\x82\xae',"{'xmin': -99.498878, 'ymin': 17.546309, 'xmax': -99.498878, 'ymax': 17.546309}",dining and drinking > restaurant > mexican restaurant > taco restaurant,1
4d8fe865c479a35d78906797,Tacos El Tio Mixe,19.307742316104655,-99.0444921631946,,,,,,,,MX,2011-03-28,2021-08-11,,,,,,,,['4bf58dd8d48988d151941735' '4bf58dd8d48988d1cb941735'],"['Dining and Drinking > Restaurant > Mexican Restaurant > Taco Restaurant'
 'Dining and Drinking > Food Truck']",b'\x00\x00\x00\x00\x01\xc0X\xc2\xd8\xf5\xa8vX@3N\xc83OC\xc9',"{'xmin': -99.0444921631946, 'ymin': 19.307742316104655, 'xmax': -99.0444921631946, 'ymax': 19.307742316104655}","dining and drinking > restaurant > mexican restaurant > taco restaurant, dining and drinking > food truck",1
5ce056fb04d1ae002cdf5eb8,Medio Oriente,15.762189,-96.127935,,Crucecita,OAX,70987,,,,MX,2019-05-18,2020-11-30,,,,,,,,['4bf58dd8d48988d151941735' '4bf58dd8d48988d1c1941735'],"['Dining and Drinking > Restaurant > Mexican Restaurant > Taco Restaurant'
 'Dining and Drinking > Restaurant > Mexican Restaurant']",b'\x00\x00\x00\x00\x01\xc0X\x080\x16H@\xe1@/\x86=\xa2\xf8\xbd\xec',"{'xmin': -96.127935, 'ymin': 15.762189, 'xmax': -96.127935, 'ymax': 15.762189}","dining and drinking > restaurant > mexican restaurant > taco restaurant, dining and drinking > restaurant > mexican restaurant",1
55d524ac498e91c4c6e6059e,"Taqueria ""Los Chulanes""",19.29283714950865,-99.13919708501047,,,,,,,,MX,2015-08-20,2021-08-16,,,,,,,,['4bf58dd8d48988d151941735'],['Dining and Drinking > Restaurant > Mexican Restaurant > Taco Restaurant'],b'\x00\x00\x00\x00\x01\xc0X\xc8\xe8\x9a\xe3\xf4b@3J\xf7`\x1c1\x8a',"{'xmin': -99.13919708501047, 'ymin': 19.29283714950865, 'xmax': -99.13919708501047, 'ymax': 19.29283714950865}",dining and drinking > restaurant > mexican restaurant > taco restaurant,1
5248788611d240adc02b0536,Tortas Ahogadas Jalisco suc. Campestre,19.685161,-101.158491,,,,,,,,MX,2013-09-29,2021-08-14,,,,,,,,['4bf58dd8d48988d151941735'],['Dining and Drinking > Restaurant > Mexican Restaurant > Taco Restaurant'],b'\x00\x00\x00\x00\x01\xc0YJ$\xb7omv@3\xaff\xb6\x17~\xa2',"{'xmin': -101.158491, 'ymin': 19.685161, 'xmax': -101.158491, 'ymax': 19.685161}",dining and drinking > restaurant > mexican restaurant > taco restaurant,1
4df39069e4cda09e6da38076,Tacos Chava,19.97761008552737,-102.29241002219204,Holanda 12,Zamora de Hidalgo,Michoacán de Ocampo,,,,,MX,2011-06-11,2020-11-23,,,,,,,,['4bf58dd8d48988d1cb941735' '4bf58dd8d48988d151941735'],"['Dining and Drinking > Food Truck'
 'Dining and Drinking > Restaurant > Mexican Restaurant > Taco Restaurant']",b'\x00\x00\x00\x00\x01\xc0Y\x92\xb6\xd8\x86\x95\x99@3\xfaD\xa7\x91\x94o',"{'xmin': -102.29241002219204, 'ymin': 19.97761008552737, 'xmax': -102.29241002219204, 'ymax': 19.97761008552737}","dining and drinking > food truck, dining and drinking > restaurant > mexican restaurant > taco restaurant",1
577607d2498eb9d1fbe3e2d3,Taqueria El Rufino,19.317236,-99.256424,,,,,,,,MX,2016-07-01,2021-08-12,,,,,,,,['4bf58dd8d48988d151941735'],['Dining and Drinking > Restaurant > Mexican Restaurant > Taco Restaurant'],b'\x00\x00\x00\x00\x01\xc0X\xd0i@5z5@3Q6`\xe5\x1d&',"{'xmin': -99.256424, 'ymin': 19.317236, 'xmax': -99.256424, 'ymax': 19.317236}",dining and drinking > restaurant > mexican restaurant > taco restaurant,1
4ebf102df5b93923c13394da,"Taqueria ""El Güero""",19.275905176115312,-99.17185157838665,Yaquis 78,Ciudad de México,Distrito Federal,,,,,MX,2011-11-13,2023-12-20,,55 5573 4923,,,,,,['4bf58dd8d48988d151941735'],['Dining and Drinking > Restaurant > Mexican Restaurant > Taco Restaurant'],b'\x00\x00\x00\x00\x01\xc0X\xca\xff\x9d\xc3;\xf2@3F\xa1\xb8\xbc6_',"{'xmin': -99.17185157838665, 'ymin': 19.275905176115312, 'xmax': -99.17185157838665, 'ymax': 19.275905176115312}",dining and drinking > restaurant > mexican restaurant > taco restaurant,1
51107328e4b0398767b351ca,"el taco ""Tradición En El Sabor""",19.692203471582967,-101.24924369685164,,,,,,,,MX,2013-02-05,2021-08-17,,,,,,,,['4bf58dd8d48988d151941735'],['Dining and Drinking > Restaurant > Mexican Restaurant > Taco Restaurant'],b'\x00\x00\x00\x00\x01\xc0YO\xf3\x9b\xd5\xad\x90@3\xb14?(\xa0c',"{'xmin': -101.24924369685164, 'ymin': 19.692203471582967, 'xmax': -101.24924369685164, 'ymax': 19.692203471582967}",dining and drinking > restaurant > mexican restaurant > taco restaurant,1
547bb92b498e0c555aa3527a,el rincon del abuelo,18.965295,-99.588391,,,,,,,,MX,2014-12-01,2023-12-19,,722 362 5307,,,,,,['4bf58dd8d48988d151941735'],['Dining and Drinking > Restaurant > Mexican Restaurant > Taco Restaurant'],b'\x00\x00\x00\x00\x01\xc0X\xe5\xa82\xb9\x90\xb0@2\xf7\x1d\x92\xb7\xfe\t',"{'xmin': -99.588391, 'ymin': 18.965295, 'xmax': -99.588391, 'ymax': 18.965295}",dining and drinking > restaurant > mexican restaurant > taco restaurant,1
4f0f02f4e4b023b37a6413b5,Quesadillas,19.286080825003022,-99.6641081604027,,,,,,,,MX,2012-01-12,2021-08-14,,,,,,,,['4bf58dd8d48988d151941735'],['Dining and Drinking > Restaurant > Mexican Restaurant > Taco Restaurant'],b'\x00\x00\x00\x00\x01\xc0X\xea\x80\xbf\x83{\xed@3I<\x97\xcbf\x93',"{'xmin': -99.6641081604027, 'ymin': 19.286080825003022, 'xmax': -99.6641081604027, 'ymax': 19.286080825003022}",dining and drinking > restaurant > mexican restaurant > taco restaurant,1
50d34687e4b0d7d35d748401,Los insuperables,19.322327948555817,-99.10571203130492,,,,,,,,MX,2012-12-20,2021-08-12,,,,,,,,['4bf58dd8d48988d151941735'],['Dining and Drinking > Restaurant > Mexican Restaurant > Taco Restaurant'],b'\x00\x00\x00\x00\x01\xc0X\xc6\xc3\xfceO\xe5@3R\x84\x15\x9d\xa2N',"{'xmin': -99.10571203130492, 'ymin': 19.322327948555817, 'xmax': -99.10571203130492, 'ymax': 19.322327948555817}",dining and drinking > restaurant > mexican restaurant > taco restaurant,1
51604ad3e4b0756d6003671a,"Carnitas ""La luz""",17.079262998510085,-96.71122252269363,,"Oaxaca de Juárez, OAX",,,,,,MX,2013-04-06,2020-11-22,,,,,,,,['4bf58dd8d48988d151941735'],['Dining and Drinking > Restaurant > Mexican Restaurant > Taco Restaurant'],b'\x00\x00\x00\x00\x01\xc0X-\x84\xabx\xc9u@1\x14J\x94rb;',"{'xmin': -96.71122252269363, 'ymin': 17.079262998510085, 'xmax': -96.71122252269363, 'ymax': 17.079262998510085}",dining and drinking > restaurant > mexican restaurant > taco restaurant,1
524f6cd111d2757220b4c3f1,Tacos La Curva,18.919199705450453,-99.21175371547739,,,,,,,,MX,2013-10-05,2021-08-15,,,,,,,,['4bf58dd8d48988d151941735'],['Dining and Drinking > Restaurant > Mexican Restaurant > Taco Restaurant'],b'\x00\x00\x00\x00\x01\xc0X\xcd\x8d_t\xb2\n@2\xebP\xac\x01g\x0c',"{'xmin': -99.21175371547739, 'ymin': 18.919199705450453, 'xmax': -99.21175371547739, 'ymax': 18.919199705450453}",dining and drinking > restaurant > mexican restaurant > taco restaurant,1
6590f3f6dbc0bf71b457d583,El Faisan,19.271777,-99.173957,Lacandones,Tlalpan,CDMX,14439,,,,MX,2023-12-31,2023-12-31,,,,,,,,['4bf58dd8d48988d151941735' '4bf58dd8d48988d1c1941735'],"['Dining and Drinking > Restaurant > Mexican Restaurant > Taco Restaurant'
 'Dining and Drinking > Restaurant > Mexican Restaurant']","b'\x00\x00\x00\x00\x01\xc0X\xcb""\x1c\x8azB@3E\x93-n\xce\x14'","{'xmin': -99.173957, 'ymin': 19.271777, 'xmax': -99.173957, 'ymax': 19.271777}","dining and drinking > restaurant > mexican restaurant > taco restaurant, dining and drinking > restaurant > mexican restaurant",1
5892a9d932b0723568e29c67,"Taqueria ""Los Jefes""",19.277452,-99.126076,,,,,,,,MX,2017-02-02,2021-08-12,,,,,,,,['4bf58dd8d48988d151941735'],['Dining and Drinking > Restaurant > Mexican Restaurant > Taco Restaurant'],"b'\x00\x00\x00\x00\x01\xc0X\xc8\x11\xa1\x123\xdf@3G\x07\x18""5\xb5'","{'xmin': -99.126076, 'ymin': 19.277452, 'xmax': -99.126076, 'ymax': 19.277452}",dining and drinking > restaurant > mexican restaurant > taco restaurant,1
5800699ad67c48b4c11bfe4f,"Tacos Alvaro, Santa Rosa.",17.089688,-96.746548,,,,,,,,MX,2016-10-14,2021-08-15,,,,,,,,['4bf58dd8d48988d151941735'],['Dining and Drinking > Restaurant > Mexican Restaurant > Taco Restaurant'],b'\x00\x00\x00\x00\x01\xc0X/\xc7qC9;@1\x16\xf5\xca\xf2\xd7\xf9',"{'xmin': -96.746548, 'ymin': 17.089688, 'xmax': -96.746548, 'ymax': 17.089688}",dining and drinking > restaurant > mexican restaurant > taco restaurant,1
509823d4e4b03f1e92f0941e,Taqueria El gallito 1,19.299717515075784,-99.10463157928635,Calzada Del Hueso,,,,,,,MX,2012-11-05,2021-08-14,,,,,,,,['4bf58dd8d48988d151941735'],['Dining and Drinking > Restaurant > Mexican Restaurant > Taco Restaurant'],b'\x00\x00\x00\x00\x01\xc0X\xc6\xb2H\xa6\xcaz@3L\xbaI}I\xf4',"{'xmin': -99.10463157928635, 'ymin': 19.299717515075784, 'xmax': -99.10463157928635, 'ymax': 19.299717515075784}",dining and drinking > restaurant > mexican restaurant > taco restaurant,1
54e8070e498e6e265efd4d77,Tacos El Morro,19.335553982781004,-99.13229035323985,,,,,,,,MX,2015-02-21,2021-08-13,,,,,,,,['4bf58dd8d48988d151941735'],['Dining and Drinking > Restaurant > Mexican Restaurant > Taco Restaurant'],b'\x00\x00\x00\x00\x01\xc0X\xc8wq\xf5/t@3U\xe6\xdd\xa6\x16C',"{'xmin': -99.13229035323985, 'ymin': 19.335553982781004, 'xmax': -99.13229035323985, 'ymax': 19.335553982781004}",dining and drinking > restaurant > mexican restaurant > taco restaurant,1
55469a52498ea16d169bbb51,Ahogaricas,19.814553,-101.786445,,,,,,,,MX,2015-05-03,2021-08-16,,,,,,,,['4bf58dd8d48988d151941735'],['Dining and Drinking > Restaurant > Mexican Restaurant > Taco Restaurant'],b'\x00\x00\x00\x00\x01\xc0YrU\x1dh\xc6\x93@3\xd0\x86\x8b\x9f\xdb\xd3',"{'xmin': -101.786445, 'ymin': 19.814553, 'xmax': -101.786445, 'ymax': 19.814553}",dining and drinking > restaurant > mexican restaurant > taco restaurant,1
50ad70d7e4b0892bb7040892,Tacos De Barbacoa De Res El Ruco,18.354052,-99.537109,,,,,,,,MX,2012-11-22,2021-08-16,,,,,,,,['4bf58dd8d48988d151941735'],['Dining and Drinking > Restaurant > Mexican Restaurant > Taco Restaurant'],b'\x00\x00\x00\x00\x01\xc0X\xe2_\xfemX\xc9@2Z\xa3&\xe1\x15Y',"{'xmin': -99.537109, 'ymin': 18.354052, 'xmax': -99.537109, 'ymax': 18.354052}",dining and drinking > restaurant > mexican restaurant > taco restaurant,1
597ca2cfe57ca647e14916fe,Tacos Parados,16.790768,-99.80132,,Acapulco,Guerrero,39890,,,,MX,2017-07-29,2020-11-25,,,,,,,,['4bf58dd8d48988d151941735'],['Dining and Drinking > Restaurant > Mexican Restaurant > Taco Restaurant'],"b'\x00\x00\x00\x00\x01\xc0X\xf3H\xd3\xaeh^@0\xcao\xc5\x8a\xb9,'","{'xmin': -99.80132, 'ymin': 16.790768, 'xmax': -99.80132, 'ymax': 16.790768}",dining and drinking > restaurant > mexican restaurant > taco restaurant,1
4fc19c20e4b0b469dee304a4,"Tacos ""El Portón""",19.296529095867694,-99.63505122110243,,,,,,,,MX,2012-05-27,2021-08-15,,,,,,,,['4bf58dd8d48988d151941735'],['Dining and Drinking > Restaurant > Mexican Restaurant > Taco Restaurant'],b'\x00\x00\x00\x00\x01\xc0X\xe8\xa4\xad\xe0z\xde@3K\xe9T\xb1\x10o',"{'xmin': -99.63505122110243, 'ymin': 19.296529095867694, 'xmax': -99.63505122110243, 'ymax': 19.296529095867694}",dining and drinking > restaurant > mexican restaurant > taco restaurant,1
580e06cc38fa2dda5489eff2,tacos al vapor de las gruas,20.334662,-102.774858,,Ocotlán,JAL,47870,,,,MX,2016-10-24,2020-11-30,,,,,,,,['4bf58dd8d48988d151941735'],['Dining and Drinking > Restaurant > Mexican Restaurant > Taco Restaurant'],b'\x00\x00\x00\x00\x01\xc0Y\xb1\x97F\x02B\xd0@4U\xach\xa96\xc6',"{'xmin': -102.774858, 'ymin': 20.334662, 'xmax': -102.774858, 'ymax': 20.334662}",dining and drinking > restaurant > mexican restaurant > taco restaurant,1
4f3ff891e4b028ca597ba358,Manuela Medina Esquina Laura Mendez,19.320969,-99.105501,,,,,,,,MX,2012-02-18,2021-08-13,,,,,,,,['4bf58dd8d48988d151941735'],['Dining and Drinking > Restaurant > Mexican Restaurant > Taco Restaurant'],"b'\x00\x00\x00\x00\x01\xc0X\xc6\xc0\x87D,\x80@3R+\x06>\x07\xa3'","{'xmin': -99.105501, 'ymin': 19.320969, 'xmax': -99.105501, 'ymax': 19.320969}",dining and drinking > restaurant > mexican restaurant > taco restaurant,1
52e2ec24498e70e4b96e9f7e,Tacos Don Agus,19.292906434506843,-99.66558723355392,,,,,,,,MX,2014-01-24,2021-08-18,,,,,,,,['4bf58dd8d48988d151941735'],['Dining and Drinking > Restaurant > Mexican Restaurant > Taco Restaurant'],b'\x00\x00\x00\x00\x01\xc0X\xea\x98\xfb2/\xf3@3J\xfb\xea\x84\xfe\xaf',"{'xmin': -99.66558723355392, 'ymin': 19.292906434506843, 'xmax': -99.66558723355392, 'ymax': 19.292906434506843}",dining and drinking > restaurant > mexican restaurant > taco restaurant,1
50f76dc4e4b0b6ec0847ae36,Taqueria Los 3 Hermanos,16.830570232396006,-99.7990714379425,,,,,,,,MX,2013-01-17,2020-11-30,,,,,,,,['4bf58dd8d48988d151941735'],['Dining and Drinking > Restaurant > Mexican Restaurant > Taco Restaurant'],"b'\x00\x00\x00\x00\x01\xc0X\xf3#\xfc\x87H^@0\xd4\xa0@1,\x06'","{'xmin': -99.7990714379425, 'ymin': 16.830570232396006, 'xmax': -99.7990714379425, 'ymax': 16.830570232396006}",dining and drinking > restaurant > mexican restaurant > taco restaurant,1
4e2b71101f6ebe544254415d,Tacos El Hueso,19.304227122776076,-99.12492491097987,Calzada Del Hueso,Villa Coapa,Ciudad De México,,,,,MX,2011-07-24,2020-11-26,,,,,,,,['4bf58dd8d48988d151941735' '4bf58dd8d48988d16c941735'],"['Dining and Drinking > Restaurant > Mexican Restaurant > Taco Restaurant'
 'Dining and Drinking > Restaurant > Burger Joint']","b'\x00\x00\x00\x00\x01\xc0X\xc7\xfe\xc5\r\xc7P@3M\xe1\xd4&\xe1""'","{'xmin': -99.12492491097987, 'ymin': 19.304227122776076, 'xmax': -99.12492491097987, 'ymax': 19.304227122776076}","dining and drinking > restaurant > mexican restaurant > taco restaurant, dining and drinking > restaurant > burger joint",1
58a3d949964d781c713635ab,Tacos Guerrero,17.54623,-98.580986,Guerrero,Tlapa de Comonfort,Guerrero,41300,,,,MX,2017-02-15,2020-11-22,,,,,,,,['4bf58dd8d48988d151941735'],['Dining and Drinking > Restaurant > Mexican Restaurant > Taco Restaurant'],b'\x00\x00\x00\x00\x01\xc0X\xa5.\xdf\xe7[\xc4@1\x8b\xd5\xba\xb2\x18\x16',"{'xmin': -98.580986, 'ymin': 17.54623, 'xmax': -98.580986, 'ymax': 17.54623}",dining and drinking > restaurant > mexican restaurant > taco restaurant,1
4f775e36e4b0a84b13df6afb,Taqueria El Poblanito,19.193369,-96.13704,,,,,,,,MX,2012-03-31,2021-08-14,,,,,,,,['4bf58dd8d48988d151941735'],['Dining and Drinking > Restaurant > Mexican Restaurant > Taco Restaurant'],b'\x00\x00\x00\x00\x01\xc0X\x08\xc5Ck\x8f\x9b@31\x80\xa1{\x0fk',"{'xmin': -96.13704, 'ymin': 19.193369, 'xmax': -96.13704, 'ymax': 19.193369}",dining and drinking > restaurant > mexican restaurant > taco restaurant,1
5176ce72e4b0565a0eb23289,Taquitos De Alambre,19.300573,-99.147639,,,,,,,,MX,2013-04-23,2021-08-11,,,,,,,,['4bf58dd8d48988d151941735'],['Dining and Drinking > Restaurant > Mexican Restaurant > Taco Restaurant'],"b""\x00\x00\x00\x00\x01\xc0X\xc9r\xea\xd9'N@3L\xf2Z%\x0f\x84""","{'xmin': -99.147639, 'ymin': 19.300573, 'xmax': -99.147639, 'ymax': 19.300573}",dining and drinking > restaurant > mexican restaurant > taco restaurant,1
4f18306be4b01bd0978caedc,Los De Asada,19.703572579290583,-101.22882235491045,,,,,,,,MX,2012-01-19,2021-08-11,,,,,,,,['4bf58dd8d48988d1df931735' '4bf58dd8d48988d151941735'],"['Dining and Drinking > Restaurant > BBQ Joint'
 'Dining and Drinking > Restaurant > Mexican Restaurant > Taco Restaurant']","b'\x00\x00\x00\x00\x01\xc0YN\xa5\x06\x84\xbb\xc8@3\xb4\x1dU""jY'","{'xmin': -101.22882235491045, 'ymin': 19.703572579290583, 'xmax': -101.22882235491045, 'ymax': 19.703572579290583}","dining and drinking > restaurant > bbq joint, dining and drinking > restaurant > mexican restaurant > taco restaurant",1
5436e3b8498e121615f2a466,La Farandula Plaza Las Flores,16.217267,-92.114407,,Comitán,Chiapas,,,,,MX,2014-10-09,2020-11-23,,,,,,,,['4bf58dd8d48988d151941735'],['Dining and Drinking > Restaurant > Mexican Restaurant > Taco Restaurant'],b'\x00\x00\x00\x00\x01\xc0W\x07Rq\xbc\xdb\xbe@07\x9e\xcfc\x80\x02',"{'xmin': -92.114407, 'ymin': 16.217267, 'xmax': -92.114407, 'ymax': 16.217267}",dining and drinking > restaurant > mexican restaurant > taco restaurant,1
54723097498ea81c5ef2809a,"Tacos & Abarrotes ""El Pasito""",18.884745433771972,-99.22853557209136,,,,,,,,MX,2014-11-23,2021-08-15,,,,,,,,['4bf58dd8d48988d151941735'],['Dining and Drinking > Restaurant > Mexican Restaurant > Taco Restaurant'],b'\x00\x00\x00\x00\x01\xc0X\xce\xa0S\xaa\x06\xb9@2\xe2~\xad?V\x01',"{'xmin': -99.22853557209136, 'ymin': 18.884745433771972, 'xmax': -99.22853557209136, 'ymax': 18.884745433771972}",dining and drinking > restaurant > mexican restaurant > taco restaurant,1
60e0b1ae3b49271c41324a8c,Los Planchados,19.70046,-103.463367,,Ciudad Guzmán,JAL,,,,,MX,2021-07-03,2021-07-03,,,,,,,,['4bf58dd8d48988d151941735'],['Dining and Drinking > Restaurant > Mexican Restaurant > Taco Restaurant'],"b""\x00\x00\x00\x00\x01\xc0Y\xdd\xa7\xce\x0f\xc2\xec@3\xb3QX\xb8'\xfa""","{'xmin': -103.463367, 'ymin': 19.70046, 'xmax': -103.463367, 'ymax': 19.70046}",dining and drinking > restaurant > mexican restaurant > taco restaurant,1
574135e6498e6e81ae4568d1,Tacos El Panda,19.311867,-99.151726,San Gonzalo,Santa Ursula Coapa,,,,,,MX,2016-05-22,2020-11-24,,,,,,,,['4bf58dd8d48988d151941735'],['Dining and Drinking > Restaurant > Mexican Restaurant > Taco Restaurant'],b'\x00\x00\x00\x00\x01\xc0X\xc9\xb5\xe0\xf7\xfc\xfc@3O\xd6\x84\x05\xb3\x9e',"{'xmin': -99.151726, 'ymin': 19.311867, 'xmax': -99.151726, 'ymax': 19.311867}",dining and drinking > restaurant > mexican restaurant > taco restaurant,1
50e397f5498e2bcb388f814e,Taquería Juquilita,15.76397433218292,-96.1387039947513,,,,,,,,MX,2013-01-02,2021-08-13,,,,,,,,['4bf58dd8d48988d151941735'],['Dining and Drinking > Restaurant > Mexican Restaurant > Taco Restaurant'],"b""\x00\x00\x00\x00\x01\xc0X\x08\xe0\x86\xb8R\x02@/\x87'\xa4\xc7k\r""","{'xmin': -96.1387039947513, 'ymin': 15.76397433218292, 'xmax': -96.1387039947513, 'ymax': 15.76397433218292}",dining and drinking > restaurant > mexican restaurant > taco restaurant,1
