fsq_place_id,name,latitude,longitude,address,locality,region,postcode,admin_region,post_town,po_box,country,date_created,date_refreshed,date_closed,tel,website,email,facebook_id,instagram,twitter,fsq_category_ids,fsq_category_labels,placemaker_url,geom,bbox,labels_str,taco_restaurant
5f00eac605bf420ae0233630,La Casita De Bertita,32.527499,-117.059392,Av. Parma,Tijuana,BC,22614,,,,MX,2020-07-04,2024-06-28,,,,,,,,['4bf58dd8d48988d1c1941735' '4bf58dd8d48988d151941735'],"['Dining and Drinking > Restaurant > Mexican Restaurant'
 'Dining and Drinking > Restaurant > Mexican Restaurant > Taco Restaurant']",https://foursquare.com/placemakers/review-place/5f00eac605bf420ae0233630,b'\x00\x00\x00\x00\x01\xc0]C\xcd\x14\x1ai8@@C\x85\x16T\xd6\x1b',"{'xmin': -117.059392, 'ymin': 32.527499, 'xmax': -117.059392, 'ymax': 32.527499}","dining and drinking > restaurant > mexican restaurant, dining and drinking > restaurant > mexican restaurant > taco restaurant",1
4fe353bfe4b0179c631d6c55,tacos y tortas Nataly,32.628341460103734,-115.42385297885276,,,,,,,,MX,2012-06-21,2016-07-01,,,,,,,,['4bf58dd8d48988d151941735'],['Dining and Drinking > Restaurant > Mexican Restaurant > Taco Restaurant'],https://foursquare.com/placemakers/review-place/4fe353bfe4b0179c631d6c55,b'\x00\x00\x00\x00\x01\xc0\\\xdb h>\x9f\x07@@Pm~2\xee\xe7',"{'xmin': -115.42385297885276, 'ymin': 32.628341460103734, 'xmax': -115.42385297885276, 'ymax': 32.628341460103734}",dining and drinking > restaurant > mexican restaurant > taco restaurant,1
56c54101cd10e1f7f81e0cdd,Teto's taqueria,32.363644,-117.053561,,,,,,,,MX,2016-02-18,2016-07-10,,,,,,,,['4bf58dd8d48988d151941735'],['Dining and Drinking > Restaurant > Mexican Restaurant > Taco Restaurant'],https://foursquare.com/placemakers/review-place/56c54101cd10e1f7f81e0cdd,b'\x00\x00\x00\x00\x01\xc0]Cm\x8b\x1d\xd5\xd4@@.\x8b\xe2\xf7\xb1}',"{'xmin': -117.053561, 'ymin': 32.363644, 'xmax': -117.053561, 'ymax': 32.363644}",dining and drinking > restaurant > mexican restaurant > taco restaurant,1
4dfce2b9227185f38b965dba,Tacos Andrea,32.6361719523852,-115.47482173445205,,Mexicali,BC,,,,,MX,2011-06-18,2022-06-22,,,,,,,,['4bf58dd8d48988d151941735'],['Dining and Drinking > Restaurant > Mexican Restaurant > Taco Restaurant'],https://foursquare.com/placemakers/review-place/4dfce2b9227185f38b965dba,b'\x00\x00\x00\x00\x01\xc0\\\xdecz\xb39\xb3@@Qn\x15!\x10>',"{'xmin': -115.47482173445205, 'ymin': 32.6361719523852, 'xmax': -115.47482173445205, 'ymax': 32.6361719523852}",dining and drinking > restaurant > mexican restaurant > taco restaurant,1
4d8bdc7696b9b60c0a190f78,Tacos El Gerente (perrones),32.33945683814617,-117.05448858203292,,,,,,,,MX,2011-03-25,2019-11-27,,661 116 9334,,,,,,['4bf58dd8d48988d151941735'],['Dining and Drinking > Restaurant > Mexican Restaurant > Taco Restaurant'],https://foursquare.com/placemakers/review-place/4d8bdc7696b9b60c0a190f78,b'\x00\x00\x00\x00\x01\xc0]C|\xbd\xadu\x8e@@+sRY\x1e\xe5',"{'xmin': -117.05448858203292, 'ymin': 32.33945683814617, 'xmax': -117.05448858203292, 'ymax': 32.33945683814617}",dining and drinking > restaurant > mexican restaurant > taco restaurant,1
50a3583ee4b023198a77e445,La Carreta Del Tio Koko,32.52479553222656,-117.11981964111328,,,,,,,,MX,2012-11-14,2013-10-18,,,,,,,,['4bf58dd8d48988d151941735'],['Dining and Drinking > Restaurant > Mexican Restaurant > Taco Restaurant'],https://foursquare.com/placemakers/review-place/50a3583ee4b023198a77e445,"b'\x00\x00\x00\x00\x01\xc0]G\xab \x00\x00\x00@@C,\x80\x00\x00\x00'","{'xmin': -117.11981964111328, 'ymin': 32.52479553222656, 'xmax': -117.11981964111328, 'ymax': 32.52479553222656}",dining and drinking > restaurant > mexican restaurant > taco restaurant,1
4f639869e4b08383b0cc8ec3,Mas Taco,32.663092012728384,-115.43361003082327,Calzada Las Americas,"Mexicali, B.C.",BCN,,,,,MX,2012-03-16,2020-03-13,,686 125 0018,,,,,,['4bf58dd8d48988d151941735' '4bf58dd8d48988d1ce941735'],"['Dining and Drinking > Restaurant > Mexican Restaurant > Taco Restaurant'
 'Dining and Drinking > Restaurant > Seafood Restaurant']",https://foursquare.com/placemakers/review-place/4f639869e4b08383b0cc8ec3,b'\x00\x00\x00\x00\x01\xc0\\\xdb\xc0DIf\xa0@@T\xe02\xf6t ',"{'xmin': -115.43361003082327, 'ymin': 32.663092012728384, 'xmax': -115.43361003082327, 'ymax': 32.663092012728384}","dining and drinking > restaurant > mexican restaurant > taco restaurant, dining and drinking > restaurant > seafood restaurant",1
4de981dc18386283a3ccbcd5,Tacos Güarros frente al Veranda,32.531972019001174,-116.94689184293394,,Tijuana,BC,,,,,MX,2011-06-04,2016-08-28,,,,,,,,['4bf58dd8d48988d151941735'],['Dining and Drinking > Restaurant > Mexican Restaurant > Taco Restaurant'],https://foursquare.com/placemakers/review-place/4de981dc18386283a3ccbcd5,b'\x00\x00\x00\x00\x01\xc0]<\x99\xe0>\x90\x07@@D\x17\xa8\xbb\xff\xa2',"{'xmin': -116.94689184293394, 'ymin': 32.531972019001174, 'xmax': -116.94689184293394, 'ymax': 32.531972019001174}",dining and drinking > restaurant > mexican restaurant > taco restaurant,1
51fc6f6d498e560e01bea428,Tacos Walter,32.50926325645823,-116.99088886670518,,Tijuana,,,,,,MX,2013-08-03,2023-11-27,,,,,,,,['4bf58dd8d48988d151941735'],['Dining and Drinking > Restaurant > Mexican Restaurant > Taco Restaurant'],https://foursquare.com/placemakers/review-place/51fc6f6d498e560e01bea428,b'\x00\x00\x00\x00\x01\xc0]?j\xb9#\x1e\x08@@A/\x89\xd3\xc5s',"{'xmin': -116.99088886670518, 'ymin': 32.50926325645823, 'xmax': -116.99088886670518, 'ymax': 32.50926325645823}",dining and drinking > restaurant > mexican restaurant > taco restaurant,1
4eb84f6830f8d0f18d8f7a9f,Tacos Luis,32.61378442792876,-115.4054613516839,,,,,,,,MX,2011-11-07,2024-11-16,,686 561 0374,,,,,,['4bf58dd8d48988d151941735'],['Dining and Drinking > Restaurant > Mexican Restaurant > Taco Restaurant'],https://foursquare.com/placemakers/review-place/4eb84f6830f8d0f18d8f7a9f,b'\x00\x00\x00\x00\x01\xc0\\\xd9\xf3\x14+Q\x8e@@N\x90|\xf6_\xc2',"{'xmin': -115.4054613516839, 'ymin': 32.61378442792876, 'xmax': -115.4054613516839, 'ymax': 32.61378442792876}",dining and drinking > restaurant > mexican restaurant > taco restaurant,1
5bd506918afbe0002da80404,La Santisima World Famous,32.510261,-116.986637,,Tijuana,BC,22440,,,,MX,2018-10-28,2019-01-02,,664 104 1017,,,138816686285119.0,,,['4bf58dd8d48988d151941735'],['Dining and Drinking > Restaurant > Mexican Restaurant > Taco Restaurant'],https://foursquare.com/placemakers/review-place/5bd506918afbe0002da80404,b'\x00\x00\x00\x00\x01\xc0]?%\x0f\x84\x01\x82@@AP;\x81\xb6N',"{'xmin': -116.986637, 'ymin': 32.510261, 'xmax': -116.986637, 'ymax': 32.510261}",dining and drinking > restaurant > mexican restaurant > taco restaurant,1
531b7052498eb76c54461216,Tacos Kokopelli,32.523415,-117.021275,Cuauhtémoc Sur Poniente 2133,Tijuana,Baja California,22200,,,,MX,2014-03-08,2017-01-31,2017-01-31,664 674 4906,http://www.kokopelli.mx,,,,,['4bf58dd8d48988d151941735'],['Dining and Drinking > Restaurant > Mexican Restaurant > Taco Restaurant'],https://foursquare.com/placemakers/review-place/531b7052498eb76c54461216,b'\x00\x00\x00\x00\x01\xc0]A\\\x91\xd1N<@@B\xffCA\x9e0',"{'xmin': -117.021275, 'ymin': 32.523415, 'xmax': -117.021275, 'ymax': 32.523415}",dining and drinking > restaurant > mexican restaurant > taco restaurant,1
4dbb8a4f4b222080d37ba59e,Tacos El Primo,32.45900833362771,-116.82535171508789,,Tijuana,BC,,,,,MX,2011-04-30,2014-05-23,,,,,,,,['4bf58dd8d48988d151941735'],['Dining and Drinking > Restaurant > Mexican Restaurant > Taco Restaurant'],https://foursquare.com/placemakers/review-place/4dbb8a4f4b222080d37ba59e,b'\x00\x00\x00\x00\x01\xc0]4\xd2\x90\x00\x00\x00@@:\xc0\xc8\xfa\xc2\xe0',"{'xmin': -116.82535171508789, 'ymin': 32.45900833362771, 'xmax': -116.82535171508789, 'ymax': 32.45900833362771}",dining and drinking > restaurant > mexican restaurant > taco restaurant,1
4e9659547ee65b16748c3c5a,Tacos El Secco,31.856607200126476,-116.60627359051458,,,,,,,,MX,2011-10-13,2019-01-05,,646 120 5123,,,,,,['4bf58dd8d48988d151941735' '4bf58dd8d48988d1c1941735'],"['Dining and Drinking > Restaurant > Mexican Restaurant > Taco Restaurant'
 'Dining and Drinking > Restaurant > Mexican Restaurant']",https://foursquare.com/placemakers/review-place/4e9659547ee65b16748c3c5a,b'\x00\x00\x00\x00\x01\xc0]&\xcd/\xbe\xec\x12@?\xdbJ\x9c\x06\x0f\xb4',"{'xmin': -116.60627359051458, 'ymin': 31.856607200126476, 'xmax': -116.60627359051458, 'ymax': 31.856607200126476}","dining and drinking > restaurant > mexican restaurant > taco restaurant, dining and drinking > restaurant > mexican restaurant",1
4c39925818e72d7fec751af5,Taqueria Las Quince Letras,32.515293,-117.02041,Av. Guillermo Prieto 2650,Tijuana,Baja California,22044,,,,MX,2010-07-11,2024-11-04,,664 686 5081,,,,,,['4bf58dd8d48988d151941735'],['Dining and Drinking > Restaurant > Mexican Restaurant > Taco Restaurant'],https://foursquare.com/placemakers/review-place/4c39925818e72d7fec751af5,b'\x00\x00\x00\x00\x01\xc0]ANe\xbe\xa0\xba@@A\xf5\x1e\xfbm\xca',"{'xmin': -117.02041, 'ymin': 32.515293, 'xmax': -117.02041, 'ymax': 32.515293}",dining and drinking > restaurant > mexican restaurant > taco restaurant,1
4bc0ed074cdfc9b638c99321,Fruteria La Unica,32.498159288879975,-116.98827977393829,Av. Las Ferias,Tijuana,BC,22030,,,,MX,2010-04-10,2024-05-18,,664 681 9950,,,,,,"['4bf58dd8d48988d112941735' '4bf58dd8d48988d16e941735'
 '4bf58dd8d48988d151941735']","['Dining and Drinking > Juice Bar'
 'Dining and Drinking > Restaurant > Fast Food Restaurant'
 'Dining and Drinking > Restaurant > Mexican Restaurant > Taco Restaurant']",https://foursquare.com/placemakers/review-place/4bc0ed074cdfc9b638c99321,b'\x00\x00\x00\x00\x01\xc0]??\xf9\xcf\x17?@@?\xc3\xae\xfe\xf8\x14',"{'xmin': -116.98827977393829, 'ymin': 32.498159288879975, 'xmax': -116.98827977393829, 'ymax': 32.498159288879975}","dining and drinking > juice bar, dining and drinking > restaurant > fast food restaurant, dining and drinking > restaurant > mexican restaurant > taco restaurant",1
51fc27e4498e68f42ecb9ba2,Tacos La Catedral,32.506162,-116.975005,,,,,,,,MX,2013-08-02,2013-08-19,,,,,,,,['4bf58dd8d48988d151941735'],['Dining and Drinking > Restaurant > Mexican Restaurant > Taco Restaurant'],https://foursquare.com/placemakers/review-place/51fc27e4498e68f42ecb9ba2,b'\x00\x00\x00\x00\x01\xc0]>f{_\x1b\xef@@@\xc9\xea\x9a=.',"{'xmin': -116.975005, 'ymin': 32.506162, 'xmax': -116.975005, 'ymax': 32.506162}",dining and drinking > restaurant > mexican restaurant > taco restaurant,1
512194ffe4b06dc367c02fb9,Tacos El Poblano,32.5353268096681,-117.03551743075805,Av. Francisco I. Madero,Tijuana,,,,,,MX,2013-02-18,2023-11-18,,,,,,,,['4bf58dd8d48988d151941735'],['Dining and Drinking > Restaurant > Mexican Restaurant > Taco Restaurant'],https://foursquare.com/placemakers/review-place/512194ffe4b06dc367c02fb9,"b""\x00\x00\x00\x00\x01\xc0]BE\xea\xe6\xe2\xcd@@D\x85\x96\xc2\x19'""","{'xmin': -117.03551743075805, 'ymin': 32.5353268096681, 'xmax': -117.03551743075805, 'ymax': 32.5353268096681}",dining and drinking > restaurant > mexican restaurant > taco restaurant,1
520fd4f411d2fbdd420f98ec,Birrieria El Guaymitas,31.884283271340145,-116.60496636615534,,,,,,,,MX,2013-08-17,2024-12-15,,,,,,,,['4bf58dd8d48988d151941735'],['Dining and Drinking > Restaurant > Mexican Restaurant > Taco Restaurant'],https://foursquare.com/placemakers/review-place/520fd4f411d2fbdd420f98ec,b'\x00\x00\x00\x00\x01\xc0]&\xb7\xc4\xd9tL@?\xe2`cr\xceJ',"{'xmin': -116.60496636615534, 'ymin': 31.884283271340145, 'xmax': -116.60496636615534, 'ymax': 31.884283271340145}",dining and drinking > restaurant > mexican restaurant > taco restaurant,1
5577497d498ea8f0cadb6321,Los Tacos,20.650487,-103.426974,,,,,,,,MX,2015-06-09,2017-08-05,,,,,,,,['4bf58dd8d48988d151941735'],['Dining and Drinking > Restaurant > Mexican Restaurant > Taco Restaurant'],https://foursquare.com/placemakers/review-place/5577497d498ea8f0cadb6321,b'\x00\x00\x00\x00\x01\xc0Y\xdbS\x8a\xc1\x8f\x82@4\xa6\x86P\xe7y ',"{'xmin': -103.426974, 'ymin': 20.650487, 'xmax': -103.426974, 'ymax': 20.650487}",dining and drinking > restaurant > mexican restaurant > taco restaurant,1
4dfae3f481dce493062457f0,El Tacazo,20.675136370676547,-103.34636747067873,Av. Juarez,Guadalajara,Jalisco,,,,,MX,2011-06-17,2024-05-02,,,,,,,,['4bf58dd8d48988d151941735'],['Dining and Drinking > Restaurant > Mexican Restaurant > Taco Restaurant'],https://foursquare.com/placemakers/review-place/4dfae3f481dce493062457f0,b'\x00\x00\x00\x00\x01\xc0Y\xd6*\xe2w\xbd\xa8@4\xac\xd5\xbc\xb8eZ',"{'xmin': -103.34636747067873, 'ymin': 20.675136370676547, 'xmax': -103.34636747067873, 'ymax': 20.675136370676547}",dining and drinking > restaurant > mexican restaurant > taco restaurant,1
5264156011d233a4e1c031c1,El Chino,20.691931,-103.327948,Monte Albán,Guadalajara,,,,,,MX,2013-10-20,2019-01-16,,,,,,,,['4bf58dd8d48988d151941735'],['Dining and Drinking > Restaurant > Mexican Restaurant > Taco Restaurant'],https://foursquare.com/placemakers/review-place/5264156011d233a4e1c031c1,"b'\x00\x00\x00\x00\x01\xc0Y\xd4\xfd\x19\x9b\xb2y@4\xb1""c\xd8\x16\xad'","{'xmin': -103.327948, 'ymin': 20.691931, 'xmax': -103.327948, 'ymax': 20.691931}",dining and drinking > restaurant > mexican restaurant > taco restaurant,1
568bfcfc498e310575fc6489,Tacos de Guisado el Remolque,20.661687,-103.429039,Gudalupe,Zapopan,Jalisco,,,,,MX,2016-01-05,2019-06-05,,33 1736 5036,,,,,,['4bf58dd8d48988d151941735'],['Dining and Drinking > Restaurant > Mexican Restaurant > Taco Restaurant'],https://foursquare.com/placemakers/review-place/568bfcfc498e310575fc6489,b'\x00\x00\x00\x00\x01\xc0Y\xdbu_\xfemY@4\xa9dQ\xb908',"{'xmin': -103.429039, 'ymin': 20.661687, 'xmax': -103.429039, 'ymax': 20.661687}",dining and drinking > restaurant > mexican restaurant > taco restaurant,1
56a11c2c498e8525b6fcef9f,Tortas La Michoacana,20.657248749802175,-103.32872183428596,,,,,,,,MX,2016-01-21,2016-11-08,,,,,,,,['4bf58dd8d48988d151941735'],['Dining and Drinking > Restaurant > Mexican Restaurant > Taco Restaurant'],https://foursquare.com/placemakers/review-place/56a11c2c498e8525b6fcef9f,b'\x00\x00\x00\x00\x01\xc0Y\xd5\t\xc7M\xefQ@4\xa8At=\xbc\xbb',"{'xmin': -103.32872183428596, 'ymin': 20.657248749802175, 'xmax': -103.32872183428596, 'ymax': 20.657248749802175}",dining and drinking > restaurant > mexican restaurant > taco restaurant,1
591d07caa87921623bec3847,"Tacos ""El Paisa""",20.624316,-103.304013,,Guadalajara,JAL,45589,,,,MX,2017-05-18,2019-02-10,,,,,,,,['4bf58dd8d48988d151941735'],['Dining and Drinking > Restaurant > Mexican Restaurant > Taco Restaurant'],https://foursquare.com/placemakers/review-place/591d07caa87921623bec3847,"b'\x00\x00\x00\x00\x01\xc0Y\xd3t\xf2\xf1#\xc4@4\x9f\xd3,b^\x9a'","{'xmin': -103.304013, 'ymin': 20.624316, 'xmax': -103.304013, 'ymax': 20.624316}",dining and drinking > restaurant > mexican restaurant > taco restaurant,1
512115c5e4b0f2db6e9cf80a,Tacos Sonora,20.644091148015587,-103.42102966517005,,,,,,,,MX,2013-02-17,2016-10-15,,,,,,,,['4bf58dd8d48988d151941735'],['Dining and Drinking > Restaurant > Mexican Restaurant > Taco Restaurant'],https://foursquare.com/placemakers/review-place/512115c5e4b0f2db6e9cf80a,b'\x00\x00\x00\x00\x01\xc0Y\xda\xf2&h\xa3G@4\xa4\xe3(P^\xbb',"{'xmin': -103.42102966517005, 'ymin': 20.644091148015587, 'xmax': -103.42102966517005, 'ymax': 20.644091148015587}",dining and drinking > restaurant > mexican restaurant > taco restaurant,1
4fb7a52de4b0397fc0833c7e,Tacos Don Manuel Suadero,20.654359,-103.384264,,,,,,,,MX,2012-05-19,2025-01-04,,,,,,,,['4bf58dd8d48988d151941735'],['Dining and Drinking > Restaurant > Mexican Restaurant > Taco Restaurant'],https://foursquare.com/placemakers/review-place/4fb7a52de4b0397fc0833c7e,b'\x00\x00\x00\x00\x01\xc0Y\xd8\x97\xc8\x08A\xee@4\xa7\x84\x12H\xd7\xe0',"{'xmin': -103.384264, 'ymin': 20.654359, 'xmax': -103.384264, 'ymax': 20.654359}",dining and drinking > restaurant > mexican restaurant > taco restaurant,1
50482c3ae4b0f1b4ccf98a6b,Taqueria Pepe's,21.963931,-102.341758,,,,,,,,MX,2012-09-06,2017-08-22,,,,,,,,['4bf58dd8d48988d151941735'],['Dining and Drinking > Restaurant > Mexican Restaurant > Taco Restaurant'],https://foursquare.com/placemakers/review-place/50482c3ae4b0f1b4ccf98a6b,b'\x00\x00\x00\x00\x01\xc0Y\x95\xdf\\\xf2I^@5\xf6\xc4.\x98\x99\xbf',"{'xmin': -102.341758, 'ymin': 21.963931, 'xmax': -102.341758, 'ymax': 21.963931}",dining and drinking > restaurant > mexican restaurant > taco restaurant,1
515a972de4b0a96425a71924,Taquería angeles,20.627577676555067,-105.22288898900803,,,,,,,,MX,2013-04-02,2017-08-01,,,,,,,,['4bf58dd8d48988d151941735'],['Dining and Drinking > Restaurant > Mexican Restaurant > Taco Restaurant'],https://foursquare.com/placemakers/review-place/515a972de4b0a96425a71924,b'\x00\x00\x00\x00\x01\xc0ZNC\xd0-\x9bd@4\xa0\xa8\xee<\x80\xf1',"{'xmin': -105.22288898900803, 'ymin': 20.627577676555067, 'xmax': -105.22288898900803, 'ymax': 20.627577676555067}",dining and drinking > restaurant > mexican restaurant > taco restaurant,1
65e38d8d6eecea12494b165d,Tacos De Cabeza Doan,19.133068,-104.34262,Avenida de las Rosas,Manzanillo,Colima,28864,,,,MX,2024-03-02,2024-03-02,,,,,,,,['4bf58dd8d48988d151941735'],['Dining and Drinking > Restaurant > Mexican Restaurant > Taco Restaurant'],https://foursquare.com/placemakers/review-place/65e38d8d6eecea12494b165d,"b'\x00\x00\x00\x00\x01\xc0Z\x15\xed|o\xbd\'@3""\x10\xbe\x94$\xe6'","{'xmin': -104.34262, 'ymin': 19.133068, 'xmax': -104.34262, 'ymax': 19.133068}",dining and drinking > restaurant > mexican restaurant > taco restaurant,1
50bec20ae4b04b6b16009557,Tacos Secos,20.638159613866602,-103.37551896132058,,,,,,,,MX,2012-12-05,2016-01-28,,,,,,,,['4bf58dd8d48988d151941735'],['Dining and Drinking > Restaurant > Mexican Restaurant > Taco Restaurant'],https://foursquare.com/placemakers/review-place/50bec20ae4b04b6b16009557,b'\x00\x00\x00\x00\x01\xc0Y\xd8\x08\x80\xaey\x96@4\xa3^m\xaf/_',"{'xmin': -103.37551896132058, 'ymin': 20.638159613866602, 'xmax': -103.37551896132058, 'ymax': 20.638159613866602}",dining and drinking > restaurant > mexican restaurant > taco restaurant,1
51969a37498ecb04a9e63338,Tacos El Super,20.679345,-103.35035,,,,,,,,MX,2013-05-17,2018-04-23,,,,,,,,['4bf58dd8d48988d151941735'],['Dining and Drinking > Restaurant > Mexican Restaurant > Taco Restaurant'],https://foursquare.com/placemakers/review-place/51969a37498ecb04a9e63338,"b'\x00\x00\x00\x00\x01\xc0Y\xd6l""h\t\xd5@4\xad\xe9\x8d\xcd\xb3}'","{'xmin': -103.35035, 'ymin': 20.679345, 'xmax': -103.35035, 'ymax': 20.679345}",dining and drinking > restaurant > mexican restaurant > taco restaurant,1
4e3e119452b1a04aff21a377,Los Arandenses B. Anaya,22.141582205048874,-100.93315732795914,,San Luis Potosí,San Luis Potosí,,,,,MX,2011-08-07,2024-12-19,,,,,,,,['4bf58dd8d48988d151941735' '4bf58dd8d48988d1c1941735'],"['Dining and Drinking > Restaurant > Mexican Restaurant > Taco Restaurant'
 'Dining and Drinking > Restaurant > Mexican Restaurant']",https://foursquare.com/placemakers/review-place/4e3e119452b1a04aff21a377,b'\x00\x00\x00\x00\x01\xc0Y;\xb8\xd9\x83f\xdd@6$>\xbb<ag',"{'xmin': -100.93315732795914, 'ymin': 22.141582205048874, 'xmax': -100.93315732795914, 'ymax': 22.141582205048874}","dining and drinking > restaurant > mexican restaurant > taco restaurant, dining and drinking > restaurant > mexican restaurant",1
55e28e42498ef4c73155cf9b,Asadas San Francisco,20.632285054543765,-103.42895558456607,Av Mariano otero,"Zapopan, JAL",Jalisco,45070,,,,MX,2015-08-30,2024-12-26,,,,,,,,"['4bf58dd8d48988d151941735' '4bf58dd8d48988d1df931735'
 '4bf58dd8d48988d1c1941735']","['Dining and Drinking > Restaurant > Mexican Restaurant > Taco Restaurant'
 'Dining and Drinking > Restaurant > BBQ Joint'
 'Dining and Drinking > Restaurant > Mexican Restaurant']",https://foursquare.com/placemakers/review-place/55e28e42498ef4c73155cf9b,b'\x00\x00\x00\x00\x01\xc0Y\xdbt\x02\x1f\xc9v@4\xa1\xddn\xef\x03\xda',"{'xmin': -103.42895558456607, 'ymin': 20.632285054543765, 'xmax': -103.42895558456607, 'ymax': 20.632285054543765}","dining and drinking > restaurant > mexican restaurant > taco restaurant, dining and drinking > restaurant > bbq joint, dining and drinking > restaurant > mexican restaurant",1
526a84ed11d21783b5b58dbe,Tacos Don Santy,20.70781404922304,-103.41356167815006,,,,,,,,MX,2013-10-25,2017-12-20,,,,,,,,['4bf58dd8d48988d151941735'],['Dining and Drinking > Restaurant > Mexican Restaurant > Taco Restaurant'],https://foursquare.com/placemakers/review-place/526a84ed11d21783b5b58dbe,b'\x00\x00\x00\x00\x01\xc0Y\xdaw\xcbf\xa2#@4\xb53M1\x0f\xf2',"{'xmin': -103.41356167815006, 'ymin': 20.70781404922304, 'xmax': -103.41356167815006, 'ymax': 20.70781404922304}",dining and drinking > restaurant > mexican restaurant > taco restaurant,1
5941fdb9d69ed0622b85f556,El Norteño,21.031296,-101.258641,Plaza San Javier,,,,,,,MX,2017-06-15,2017-06-15,,,,,,,,['4bf58dd8d48988d151941735'],['Dining and Drinking > Restaurant > Mexican Restaurant > Taco Restaurant'],https://foursquare.com/placemakers/review-place/5941fdb9d69ed0622b85f556,b'\x00\x00\x00\x00\x01\xc0YP\x8d\x92\xfb\x19\xe7@5\x08\x03\x03\xc0~\xe1',"{'xmin': -101.258641, 'ymin': 21.031296, 'xmax': -101.258641, 'ymax': 21.031296}",dining and drinking > restaurant > mexican restaurant > taco restaurant,1
604e5106a1947a64f4bed1eb,Tacos De Barbacoa Convención,21.8851,-102.31222,Av Convención 1914,Aguascalientes,Aguascalientes,20060,,,,MX,2021-03-14,2022-10-03,,,,,,,,['4bf58dd8d48988d151941735'],['Dining and Drinking > Restaurant > Mexican Restaurant > Taco Restaurant'],https://foursquare.com/placemakers/review-place/604e5106a1947a64f4bed1eb,b'\x00\x00\x00\x00\x01\xc0Y\x93\xfbi\x98J\x0e@5\xe2\x95\xe9\xe1\xb0\x8a',"{'xmin': -102.31222, 'ymin': 21.8851, 'xmax': -102.31222, 'ymax': 21.8851}",dining and drinking > restaurant > mexican restaurant > taco restaurant,1
639d3031a86fe30da458c02d,Taquería Los Culichis,20.649261,-103.38701,Av Paseo De La Arboleda 2474,Guadalajara,JAL,44538,,,,MX,2022-12-17,2024-12-12,,,,,,,,['4bf58dd8d48988d151941735'],['Dining and Drinking > Restaurant > Mexican Restaurant > Taco Restaurant'],https://foursquare.com/placemakers/review-place/639d3031a86fe30da458c02d,b'\x00\x00\x00\x00\x01\xc0Y\xd8\xc4\xc5\x97Nf@4\xa65\xf8\t\x91y',"{'xmin': -103.38701, 'ymin': 20.649261, 'xmax': -103.38701, 'ymax': 20.649261}",dining and drinking > restaurant > mexican restaurant > taco restaurant,1
4ec94dfb775bf65c059c1c86,Tacos Munoz,21.902244484173206,-102.29621561711575,,Aguascalientes,Aguascalientes,,,,,MX,2011-11-20,2017-06-18,,,,,,,,['4bf58dd8d48988d151941735'],['Dining and Drinking > Restaurant > Mexican Restaurant > Taco Restaurant'],https://foursquare.com/placemakers/review-place/4ec94dfb775bf65c059c1c86,b'\x00\x00\x00\x00\x01\xc0Y\x92\xf52Y\x04\xe7@5\xe6\xf9~\x98\x853',"{'xmin': -102.29621561711575, 'ymin': 21.902244484173206, 'xmax': -102.29621561711575, 'ymax': 21.902244484173206}",dining and drinking > restaurant > mexican restaurant > taco restaurant,1
4cbba9da4c60a09378754dca,Taquería Arandas,20.63908598628822,-103.43021272331683,"Av. Copernico #2215, Paseos del Sol",Zapopan,JAL,,,,,MX,2010-10-18,2024-10-28,,,http://taqueriasarandas.com,,,,,['4bf58dd8d48988d151941735'],['Dining and Drinking > Restaurant > Mexican Restaurant > Taco Restaurant'],https://foursquare.com/placemakers/review-place/4cbba9da4c60a09378754dca,b'\x00\x00\x00\x00\x01\xc0Y\xdb\x88\x9a\xf2>\x02@4\xa3\x9b#\xa2p\x97',"{'xmin': -103.43021272331683, 'ymin': 20.63908598628822, 'xmax': -103.43021272331683, 'ymax': 20.63908598628822}",dining and drinking > restaurant > mexican restaurant > taco restaurant,1
4fc98279e4b0f9aeca61f406,Tacos El Güero,20.695283889770508,-103.31619262695312,,,,,,,,MX,2012-06-02,2020-03-15,,,,,,,,['4bf58dd8d48988d151941735'],['Dining and Drinking > Restaurant > Mexican Restaurant > Taco Restaurant'],https://foursquare.com/placemakers/review-place/4fc98279e4b0f9aeca61f406,b'\x00\x00\x00\x00\x01\xc0Y\xd4<\x80\x00\x00\x00@4\xb1\xfe \x00\x00\x00',"{'xmin': -103.31619262695312, 'ymin': 20.695283889770508, 'xmax': -103.31619262695312, 'ymax': 20.695283889770508}",dining and drinking > restaurant > mexican restaurant > taco restaurant,1
59bf200486bc49168ba718a3,Aca Las Karnes Tacos Y Cortes,20.725866,-103.458458,Av Paseo Solares,Zapopan,JAL,45019,,,,MX,2017-09-18,2024-02-02,,,,,,,,['4bf58dd8d48988d151941735'],['Dining and Drinking > Restaurant > Mexican Restaurant > Taco Restaurant'],https://foursquare.com/placemakers/review-place/59bf200486bc49168ba718a3,b'\x00\x00\x00\x00\x01\xc0Y\xddW`9%\xbb@4\xb9\xd2Z\xabGA',"{'xmin': -103.458458, 'ymin': 20.725866, 'xmax': -103.458458, 'ymax': 20.725866}",dining and drinking > restaurant > mexican restaurant > taco restaurant,1
59eb5aa91fa7632d4cc0fa3e,Birriería Oscar,19.115283,-104.327523,,Manzanillo,COL,28869,,,,MX,2017-10-21,2017-10-21,,,,,,,,['4bf58dd8d48988d1c1941735' '4bf58dd8d48988d151941735'],"['Dining and Drinking > Restaurant > Mexican Restaurant'
 'Dining and Drinking > Restaurant > Mexican Restaurant > Taco Restaurant']",https://foursquare.com/placemakers/review-place/59eb5aa91fa7632d4cc0fa3e,b'\x00\x00\x00\x00\x01\xc0Z\x14\xf6#\x07l\x05@3\x1d\x83/\xca\xc8\xe7',"{'xmin': -104.327523, 'ymin': 19.115283, 'xmax': -104.327523, 'ymax': 19.115283}","dining and drinking > restaurant > mexican restaurant, dining and drinking > restaurant > mexican restaurant > taco restaurant",1
4dce9cddc65bdac7136525bc,Tacos El Inge,22.152553316666665,-100.9937785,Agustín Vera 304,San Luis,San Luis Potosí,,,,,MX,2011-05-14,2023-06-29,,,,,,,,['4bf58dd8d48988d151941735'],['Dining and Drinking > Restaurant > Mexican Restaurant > Taco Restaurant'],https://foursquare.com/placemakers/review-place/4dce9cddc65bdac7136525bc,"b""\x00\x00\x00\x00\x01\xc0Y?\x9a\x11#=\xf3@6'\r\xbb\xf1\xfa\xcb""","{'xmin': -100.9937785, 'ymin': 22.152553316666665, 'xmax': -100.9937785, 'ymax': 22.152553316666665}",dining and drinking > restaurant > mexican restaurant > taco restaurant,1
52215f7b11d277a64718d0cd,Tacos Puerta Real,22.240062218480404,-100.93626955860572,,Soledad De Graciano Sanchez,San Luis Potosí,,,,,MX,2013-08-31,2015-07-22,,,,,,,,['4bf58dd8d48988d151941735'],['Dining and Drinking > Restaurant > Mexican Restaurant > Taco Restaurant'],https://foursquare.com/placemakers/review-place/52215f7b11d277a64718d0cd,"b""\x00\x00\x00\x00\x01\xc0Y;\xeb\xd7'\x9c\xec@6=t\xb7\xb1`\xe8""","{'xmin': -100.93626955860572, 'ymin': 22.240062218480404, 'xmax': -100.93626955860572, 'ymax': 22.240062218480404}",dining and drinking > restaurant > mexican restaurant > taco restaurant,1
59d7a7941cf2e14bac093d6d,Tacos Dany,20.693664,-103.383673,,Guadalajara,JAL,44657,,,,MX,2017-10-06,2018-01-13,,,,,,,,"['4bf58dd8d48988d1c1941735' '4bf58dd8d48988d151941735'
 '4bf58dd8d48988d1cb941735']","['Dining and Drinking > Restaurant > Mexican Restaurant'
 'Dining and Drinking > Restaurant > Mexican Restaurant > Taco Restaurant'
 'Dining and Drinking > Food Truck']",https://foursquare.com/placemakers/review-place/59d7a7941cf2e14bac093d6d,b'\x00\x00\x00\x00\x01\xc0Y\xd8\x8e\x192\xd6\xed@4\xb1\x93\xf6\xc2i\x9c',"{'xmin': -103.383673, 'ymin': 20.693664, 'xmax': -103.383673, 'ymax': 20.693664}","dining and drinking > restaurant > mexican restaurant, dining and drinking > restaurant > mexican restaurant > taco restaurant, dining and drinking > food truck",1
4c9ad30c9c66370410555cfd,Tacos La Casona,20.673849,-103.364459,López cotilla,Guadalajara,JAL,,,,,MX,2010-09-23,2016-04-25,,,,,,,,['4bf58dd8d48988d151941735'],['Dining and Drinking > Restaurant > Mexican Restaurant > Taco Restaurant'],https://foursquare.com/placemakers/review-place/4c9ad30c9c66370410555cfd,b'\x00\x00\x00\x00\x01\xc0Y\xd7SK\xd7n\xe7@4\xac\x81^9q;',"{'xmin': -103.364459, 'ymin': 20.673849, 'xmax': -103.364459, 'ymax': 20.673849}",dining and drinking > restaurant > mexican restaurant > taco restaurant,1
55c9669e498e4c53315674ae,Tacos De $3,19.25867249309419,-103.72760718627651,,,,,,,,MX,2015-08-11,2017-12-23,,,,,,,,['4bf58dd8d48988d151941735'],['Dining and Drinking > Restaurant > Mexican Restaurant > Taco Restaurant'],https://foursquare.com/placemakers/review-place/55c9669e498e4c53315674ae,b'\x00\x00\x00\x00\x01\xc0Y\xee\x91\x1d\xbbY\x1a@3B8\\J6\xde',"{'xmin': -103.72760718627651, 'ymin': 19.25867249309419, 'xmax': -103.72760718627651, 'ymax': 19.25867249309419}",dining and drinking > restaurant > mexican restaurant > taco restaurant,1
4e8a59128b810d889257c318,Tacos Jiménez,21.869957,-102.25644,,,,,,,,MX,2011-10-04,2024-12-21,,,,,,,,['4bf58dd8d48988d151941735'],['Dining and Drinking > Restaurant > Mexican Restaurant > Taco Restaurant'],https://foursquare.com/placemakers/review-place/4e8a59128b810d889257c318,b'\x00\x00\x00\x00\x01\xc0Y\x90i\x83QX\xb8@5\xde\xb5\x80\x7f\xed ',"{'xmin': -102.25644, 'ymin': 21.869957, 'xmax': -102.25644, 'ymax': 21.869957}",dining and drinking > restaurant > mexican restaurant > taco restaurant,1
540689c6498e57e1e8a5877b,Tacos al Carbón El Negro,20.62677574157715,-103.4024429321289,,,,,,,,MX,2014-09-03,2014-09-03,,,,,,,,['4bf58dd8d48988d151941735'],['Dining and Drinking > Restaurant > Mexican Restaurant > Taco Restaurant'],https://foursquare.com/placemakers/review-place/540689c6498e57e1e8a5877b,b'\x00\x00\x00\x00\x01\xc0Y\xd9\xc1\xa0\x00\x00\x00@4\xa0t`\x00\x00\x00',"{'xmin': -103.4024429321289, 'ymin': 20.62677574157715, 'xmax': -103.4024429321289, 'ymax': 20.62677574157715}",dining and drinking > restaurant > mexican restaurant > taco restaurant,1
52c2138111d2daeca4b6429d,Tacos Luis,20.680097213948628,-103.41266639964597,,,,,,,,MX,2013-12-31,2024-12-19,,,,,,,,['4bf58dd8d48988d151941735'],['Dining and Drinking > Restaurant > Mexican Restaurant > Taco Restaurant'],https://foursquare.com/placemakers/review-place/52c2138111d2daeca4b6429d,b'\x00\x00\x00\x00\x01\xc0Y\xdai T\xa8\xcd@4\xae\x1a\xd9\xdc\x02\x94',"{'xmin': -103.41266639964597, 'ymin': 20.680097213948628, 'xmax': -103.41266639964597, 'ymax': 20.680097213948628}",dining and drinking > restaurant > mexican restaurant > taco restaurant,1
50a1d885e4b09db6ad794dfb,Tacos Sahuayo,20.655355,-105.223491,Av. Prisciliano Sánchez,Puerto VALLARTA,Jalisco,,,,,MX,2012-11-13,2014-12-24,,,,,,,,['4bf58dd8d48988d151941735'],['Dining and Drinking > Restaurant > Mexican Restaurant > Taco Restaurant'],https://foursquare.com/placemakers/review-place/50a1d885e4b09db6ad794dfb,b'\x00\x00\x00\x00\x01\xc0ZNM\xad1\xfc\xd2@4\xa7\xc5XdE$',"{'xmin': -105.223491, 'ymin': 20.655355, 'xmax': -105.223491, 'ymax': 20.655355}",dining and drinking > restaurant > mexican restaurant > taco restaurant,1
ae5402e8f8c24bde2d315cd3,Zapes,20.62833,-103.424043,Avenida Carnero N°5520,Zapopan,Jalisco,45070,,,,MX,2010-11-04,2010-11-04,,,,,,,,['4bf58dd8d48988d151941735'],['Dining and Drinking > Restaurant > Mexican Restaurant > Taco Restaurant'],https://foursquare.com/placemakers/review-place/ae5402e8f8c24bde2d315cd3,b'\x00\x00\x00\x00\x01\xc0Y\xdb#\x85@FA@4\xa0\xda<!\x18~',"{'xmin': -103.424043, 'ymin': 20.62833, 'xmax': -103.424043, 'ymax': 20.62833}",dining and drinking > restaurant > mexican restaurant > taco restaurant,1
50f76e5fe4b02f33eae4df31,tacos san juan,21.507462172617313,-104.90665934025769,,,,,,,,MX,2013-01-17,2017-06-10,,,,,,,,['4bf58dd8d48988d151941735'],['Dining and Drinking > Restaurant > Mexican Restaurant > Taco Restaurant'],https://foursquare.com/placemakers/review-place/50f76e5fe4b02f33eae4df31,b'\x00\x00\x00\x00\x01\xc0Z:\x06\xb4\xe5\xc1C@5\x81\xe9\n{Y5',"{'xmin': -104.90665934025769, 'ymin': 21.507462172617313, 'xmax': -104.90665934025769, 'ymax': 21.507462172617313}",dining and drinking > restaurant > mexican restaurant > taco restaurant,1
4ef7592f469012b8c0eefe08,Gorditas de San Ilfonso,20.677446811326142,-103.28168267700825,,,,,,,,MX,2011-12-25,2019-12-20,,,,,,,,['4bf58dd8d48988d151941735'],['Dining and Drinking > Restaurant > Mexican Restaurant > Taco Restaurant'],https://foursquare.com/placemakers/review-place/4ef7592f469012b8c0eefe08,"b""\x00\x00\x00\x00\x01\xc0Y\xd2\x07\x16\xc7fi@4\xadm'{l\xde""","{'xmin': -103.28168267700825, 'ymin': 20.677446811326142, 'xmax': -103.28168267700825, 'ymax': 20.677446811326142}",dining and drinking > restaurant > mexican restaurant > taco restaurant,1
50f62250e4b0137aeac57c47,el jovenazo,20.65668487548828,-103.43907928466797,,,,,,,,MX,2013-01-16,2016-12-16,,,,,,,,['4bf58dd8d48988d151941735'],['Dining and Drinking > Restaurant > Mexican Restaurant > Taco Restaurant'],https://foursquare.com/placemakers/review-place/50f62250e4b0137aeac57c47,b'\x00\x00\x00\x00\x01\xc0Y\xdc\x19\xe0\x00\x00\x00@4\xa8\x1c\x80\x00\x00\x00',"{'xmin': -103.43907928466797, 'ymin': 20.65668487548828, 'xmax': -103.43907928466797, 'ymax': 20.65668487548828}",dining and drinking > restaurant > mexican restaurant > taco restaurant,1
4c5d8f582815c928aa1ab567,"Tacos al Vapor ""Oscar""",20.647903333689325,-103.40283041555978,Aguamarina,Zapopan,Jalisco,,,,,MX,2010-08-07,2024-11-03,,33 1742 1511,,,,,,['4bf58dd8d48988d151941735'],['Dining and Drinking > Restaurant > Mexican Restaurant > Taco Restaurant'],https://foursquare.com/placemakers/review-place/4c5d8f582815c928aa1ab567,b'\x00\x00\x00\x00\x01\xc0Y\xd9\xc7\xf99*t@4\xa5\xdc\xfe-*?',"{'xmin': -103.40283041555978, 'ymin': 20.647903333689325, 'xmax': -103.40283041555978, 'ymax': 20.647903333689325}",dining and drinking > restaurant > mexican restaurant > taco restaurant,1
677b1c695c53485621993d6a,Lummbre Tacos,20.684005,-103.393199,Av. Juan Palomar Y Arias 512,Guadalajara,Jal.,44680,,,,MX,2025-01-05,2025-01-06,,,,,,lummbretacos,,['4bf58dd8d48988d151941735' '4bf58dd8d48988d1c1941735'],"['Dining and Drinking > Restaurant > Mexican Restaurant > Taco Restaurant'
 'Dining and Drinking > Restaurant > Mexican Restaurant']",https://foursquare.com/placemakers/review-place/677b1c695c53485621993d6a,"b'\x00\x00\x00\x00\x01\xc0Y\xd9*,#ty@4\xaf\x1a\xf3\xa1L\xec'","{'xmin': -103.393199, 'ymin': 20.684005, 'xmax': -103.393199, 'ymax': 20.684005}","dining and drinking > restaurant > mexican restaurant > taco restaurant, dining and drinking > restaurant > mexican restaurant",1
53c9f6aa498edc8c0e3f9f35,Los Mejoresolcajetes,20.868529,-105.436949,Calle Revolución,Sayulita,Nayarit,,,,,MX,2014-07-19,2018-12-02,,,,,,,,['4bf58dd8d48988d151941735'],['Dining and Drinking > Restaurant > Mexican Restaurant > Taco Restaurant'],https://foursquare.com/placemakers/review-place/53c9f6aa498edc8c0e3f9f35,b'\x00\x00\x00\x00\x01\xc0Z[\xf6\xf8\xf0AF@4\xdeW\xea\xa2\xa0\xa9',"{'xmin': -105.436949, 'ymin': 20.868529, 'xmax': -105.436949, 'ymax': 20.868529}",dining and drinking > restaurant > mexican restaurant > taco restaurant,1
4d60dc0cef378cfa119683a6,Tacos La 6a,20.680851,-103.290282,,,,,,,,MX,2011-02-20,2019-12-22,,,,,,,,['4bf58dd8d48988d151941735'],['Dining and Drinking > Restaurant > Mexican Restaurant > Taco Restaurant'],https://foursquare.com/placemakers/review-place/4d60dc0cef378cfa119683a6,"b""\x00\x00\x00\x00\x01\xc0Y\xd2\x93\xfa\xf4'\x85@4\xaeL@Jr\xeb""","{'xmin': -103.290282, 'ymin': 20.680851, 'xmax': -103.290282, 'ymax': 20.680851}",dining and drinking > restaurant > mexican restaurant > taco restaurant,1
4e5ef3d3d22d7239c1aa4ae1,Chiles N' Verdes Patria,20.642385,-103.422913,,Zapopan,Jalisco,,,,,MX,2011-09-01,2016-01-25,,,,,,,,['4bf58dd8d48988d151941735'],['Dining and Drinking > Restaurant > Mexican Restaurant > Taco Restaurant'],https://foursquare.com/placemakers/review-place/4e5ef3d3d22d7239c1aa4ae1,b'\x00\x00\x00\x00\x01\xc0Y\xdb\x11\x01\xb0\x03h@4\xa4sW\xe6p\xe3',"{'xmin': -103.422913, 'ymin': 20.642385, 'xmax': -103.422913, 'ymax': 20.642385}",dining and drinking > restaurant > mexican restaurant > taco restaurant,1
4c89824f557776b0863c3591,"Tacos ""El Gallo""",20.705837874540393,-103.3249021136921,Avenida Uxmal,guadalajara,jalisco,,,,,MX,2010-09-10,2023-11-12,,,,,,,,['4bf58dd8d48988d151941735'],['Dining and Drinking > Restaurant > Mexican Restaurant > Taco Restaurant'],https://foursquare.com/placemakers/review-place/4c89824f557776b0863c3591,b'\x00\x00\x00\x00\x01\xc0Y\xd4\xcb2<-^@4\xb4\xb1\xca{m\xdc',"{'xmin': -103.3249021136921, 'ymin': 20.705837874540393, 'xmax': -103.3249021136921, 'ymax': 20.705837874540393}",dining and drinking > restaurant > mexican restaurant > taco restaurant,1
564e8873498edada2f3b5a34,gordolele,22.133831544581565,-101.018271255072,,,,,,,,MX,2015-11-20,2016-06-16,,,,,,,,['4bf58dd8d48988d151941735'],['Dining and Drinking > Restaurant > Mexican Restaurant > Taco Restaurant'],https://foursquare.com/placemakers/review-place/564e8873498edada2f3b5a34,"b'\x00\x00\x00\x00\x01\xc0YA+[2\xbfn@6""B\xc8\xbb&\xa7'","{'xmin': -101.018271255072, 'ymin': 22.133831544581565, 'xmax': -101.018271255072, 'ymax': 22.133831544581565}",dining and drinking > restaurant > mexican restaurant > taco restaurant,1
531802b5498efe394a4f1fdf,Tacos De Carne De PERRO los Chamulas,20.636662,-103.37163,,Guadalajara,Jalisco,,,,,MX,2014-03-06,2019-04-29,,,,,,,,['4bf58dd8d48988d151941735'],['Dining and Drinking > Restaurant > Mexican Restaurant > Taco Restaurant'],https://foursquare.com/placemakers/review-place/531802b5498efe394a4f1fdf,b'\x00\x00\x00\x00\x01\xc0Y\xd7\xc8\xc92\r\x99@4\xa2\xfcG\xe4\x9b ',"{'xmin': -103.37163, 'ymin': 20.636662, 'xmax': -103.37163, 'ymax': 20.636662}",dining and drinking > restaurant > mexican restaurant > taco restaurant,1
51930a5f498ea46fc14283e1,Tacos Los López,20.737517107267973,-103.35267944982533,,,,,,,,MX,2013-05-15,2014-03-18,,,,,,,,['4bf58dd8d48988d151941735'],['Dining and Drinking > Restaurant > Mexican Restaurant > Taco Restaurant'],https://foursquare.com/placemakers/review-place/51930a5f498ea46fc14283e1,b'\x00\x00\x00\x00\x01\xc0Y\xd6\x92L\xd3\xbe&@4\xbc\xcd\xeb\xcf\xf4\xdb',"{'xmin': -103.35267944982533, 'ymin': 20.737517107267973, 'xmax': -103.35267944982533, 'ymax': 20.737517107267973}",dining and drinking > restaurant > mexican restaurant > taco restaurant,1
5b8ead61c0cacb002c286885,Tacos Lopez,20.685057,-103.24724,,Tonalá,Jalisco,45408,,,,MX,2018-09-04,2018-09-04,,,,,,,,['4bf58dd8d48988d151941735'],['Dining and Drinking > Restaurant > Mexican Restaurant > Taco Restaurant'],https://foursquare.com/placemakers/review-place/5b8ead61c0cacb002c286885,b'\x00\x00\x00\x00\x01\xc0Y\xcf\xd2\xc7\xb8\x90\xd6@4\xaf_\xe5B\xe5X',"{'xmin': -103.24724, 'ymin': 20.685057, 'xmax': -103.24724, 'ymax': 20.685057}",dining and drinking > restaurant > mexican restaurant > taco restaurant,1
5233425911d203c2c3fa96d4,Tacos Doña Martha,19.329894485573973,-103.60233463061418,,,,,,,,MX,2013-09-13,2017-05-09,,,,,,,,['4bf58dd8d48988d151941735'],['Dining and Drinking > Restaurant > Mexican Restaurant > Taco Restaurant'],https://foursquare.com/placemakers/review-place/5233425911d203c2c3fa96d4,b'\x00\x00\x00\x00\x01\xc0Y\xe6\x8c\xa6\x8c\xef\x1d@3Ts\xf7\n\xab\xc4',"{'xmin': -103.60233463061418, 'ymin': 19.329894485573973, 'xmax': -103.60233463061418, 'ymax': 19.329894485573973}",dining and drinking > restaurant > mexican restaurant > taco restaurant,1
4cec786f4cd4236a30daa263,Taquitaco,20.731173339423968,-103.41332709199423,,Zapopan,Jalisco,,,,,MX,2010-11-24,2024-10-24,,,,,,,,['4bf58dd8d48988d151941735'],['Dining and Drinking > Restaurant > Mexican Restaurant > Taco Restaurant'],https://foursquare.com/placemakers/review-place/4cec786f4cd4236a30daa263,b'\x00\x00\x00\x00\x01\xc0Y\xdas\xf3y\xaa\xa0@4\xbb.-\x0c\x88v',"{'xmin': -103.41332709199423, 'ymin': 20.731173339423968, 'xmax': -103.41332709199423, 'ymax': 20.731173339423968}",dining and drinking > restaurant > mexican restaurant > taco restaurant,1
51c51b74498ea3991e598560,Tacos Silvia,20.652626,-103.318561,Justo Corro,,,,,,,MX,2013-06-22,2021-07-26,,,,,,,,['4bf58dd8d48988d151941735'],['Dining and Drinking > Restaurant > Mexican Restaurant > Taco Restaurant'],https://foursquare.com/placemakers/review-place/51c51b74498ea3991e598560,b'\x00\x00\x00\x00\x01\xc0Y\xd4cM\xad1\xfd@4\xa7\x12\x7f^\x84\xf1',"{'xmin': -103.318561, 'ymin': 20.652626, 'xmax': -103.318561, 'ymax': 20.652626}",dining and drinking > restaurant > mexican restaurant > taco restaurant,1
5091e17ae4b01239a07cef45,Los Cuñados,21.85882676604472,-102.34239335856238,Blvd. Juan Pablo II,Aguascalientes,AGS,,,,,MX,2012-11-01,2021-10-06,,,,,,,,['4bf58dd8d48988d151941735'],['Dining and Drinking > Restaurant > Mexican Restaurant > Taco Restaurant'],https://foursquare.com/placemakers/review-place/5091e17ae4b01239a07cef45,"b""\x00\x00\x00\x00\x01\xc0Y\x95\xe9\xc5\xd5Y'@5\xdb\xdc\x12)\x17n""","{'xmin': -102.34239335856238, 'ymin': 21.85882676604472, 'xmax': -102.34239335856238, 'ymax': 21.85882676604472}",dining and drinking > restaurant > mexican restaurant > taco restaurant,1
59d83e6435811b3a0fe33fff,Tacos Gourmet,20.721178,-103.36362,Av Atemajac 1375,Zapopan,Jalisco,45190,,,,MX,2017-10-07,2019-06-21,,,,,,,,['4bf58dd8d48988d151941735' '4bf58dd8d48988d1cb941735'],"['Dining and Drinking > Restaurant > Mexican Restaurant > Taco Restaurant'
 'Dining and Drinking > Food Truck']",https://foursquare.com/placemakers/review-place/59d83e6435811b3a0fe33fff,b'\x00\x00\x00\x00\x01\xc0Y\xd7E\x8c\xd2\n\xfa@4\xb8\x9f\x1f\x14\x98=',"{'xmin': -103.36362, 'ymin': 20.721178, 'xmax': -103.36362, 'ymax': 20.721178}","dining and drinking > restaurant > mexican restaurant > taco restaurant, dining and drinking > food truck",1
5003198ce4b086066f7487b1,Birrieria De Pancho,19.119611,-104.354573,Lic Miguel De La Madrid,santiago colima,,,,,,MX,2012-07-15,2019-02-03,,,,,,,,['4bf58dd8d48988d151941735'],['Dining and Drinking > Restaurant > Mexican Restaurant > Taco Restaurant'],https://foursquare.com/placemakers/review-place/5003198ce4b086066f7487b1,b'\x00\x00\x00\x00\x01\xc0Z\x16\xb1R\xf3\xc2\xdb@3\x1e\x9e\xd3\x95=\xea',"{'xmin': -104.354573, 'ymin': 19.119611, 'xmax': -104.354573, 'ymax': 19.119611}",dining and drinking > restaurant > mexican restaurant > taco restaurant,1
506f1416e4b0dd0f47d2ce21,"Tacos De Canasta ""El Portal""",20.676235982842122,-103.34706186299101,,Guadalajara,,,,,,MX,2012-10-05,2021-09-29,,,,,,,,['4bf58dd8d48988d151941735'],['Dining and Drinking > Restaurant > Mexican Restaurant > Taco Restaurant'],https://foursquare.com/placemakers/review-place/506f1416e4b0dd0f47d2ce21,b'\x00\x00\x00\x00\x01\xc0Y\xd66B\xf5\xcf\x0e@4\xad\x1d\xcd&\xafr',"{'xmin': -103.34706186299101, 'ymin': 20.676235982842122, 'xmax': -103.34706186299101, 'ymax': 20.676235982842122}",dining and drinking > restaurant > mexican restaurant > taco restaurant,1
541e4b07498e7ac7041c604f,Tacos Jaripeo,31.33404892693223,-113.52060758330103,,,,,,,,MX,2014-09-21,2018-05-29,,,,,,,,['4bf58dd8d48988d151941735'],['Dining and Drinking > Restaurant > Mexican Restaurant > Taco Restaurant'],https://foursquare.com/placemakers/review-place/541e4b07498e7ac7041c604f,b'\x00\x00\x00\x00\x01\xc0\\aQ\xa2x\x14\xf6@?U\x84;\x00p\x15',"{'xmin': -113.52060758330103, 'ymin': 31.33404892693223, 'xmax': -113.52060758330103, 'ymax': 31.33404892693223}",dining and drinking > restaurant > mexican restaurant > taco restaurant,1
5ad0d95024962312272a5d97,Los 7 Filos,21.494254,-104.8945,,Tepic,NAY,63155,,,,MX,2018-04-13,2018-04-13,,,,,,,,['4bf58dd8d48988d151941735'],['Dining and Drinking > Restaurant > Mexican Restaurant > Taco Restaurant'],https://foursquare.com/placemakers/review-place/5ad0d95024962312272a5d97,b'\x00\x00\x00\x00\x01\xc0Z9?|\xed\x91h@5~\x87n\x1d\xea\xcd',"{'xmin': -104.8945, 'ymin': 21.494254, 'xmax': -104.8945, 'ymax': 21.494254}",dining and drinking > restaurant > mexican restaurant > taco restaurant,1
4d6d2fb3cb0eb1f7cbc6a8a0,Erni Tortas Ahogadas,21.916515396133356,-102.31035158543094,Av Aguascalientes Nte. #226,Aguascalientes,AGS,,,,,MX,2010-09-16,2024-08-18,,449 118 3075,http://wacx-portal.blogspot.mx/2013/01/el-delicioso-reto-desde-1986-tortas.html,,,,,['4bf58dd8d48988d1c1941735' '4bf58dd8d48988d151941735'],"['Dining and Drinking > Restaurant > Mexican Restaurant'
 'Dining and Drinking > Restaurant > Mexican Restaurant > Taco Restaurant']",https://foursquare.com/placemakers/review-place/4d6d2fb3cb0eb1f7cbc6a8a0,b'\x00\x00\x00\x00\x01\xc0Y\x93\xdc\xcc\xe5l\x02@5\xea\xa0\xc0\xc4\xacZ',"{'xmin': -102.31035158543094, 'ymin': 21.916515396133356, 'xmax': -102.31035158543094, 'ymax': 21.916515396133356}","dining and drinking > restaurant > mexican restaurant, dining and drinking > restaurant > mexican restaurant > taco restaurant",1
4bd309b6046076b09cfd7471,Tacos y Gorditas Badillo,21.904235597269917,-102.28894418536336,Av. Héroe de Nacozari 1501,Aguascalientes,Ags,,,,,MX,2010-04-24,2022-10-29,,,,,,,,"['4bf58dd8d48988d1cb941735' '4bf58dd8d48988d151941735'
 '4bf58dd8d48988d1f9941735']","['Dining and Drinking > Food Truck'
 'Dining and Drinking > Restaurant > Mexican Restaurant > Taco Restaurant'
 'Retail > Food and Beverage Retail']",https://foursquare.com/placemakers/review-place/4bd309b6046076b09cfd7471,"b""\x00\x00\x00\x00\x01\xc0Y\x92~\x0f\xc0\xa0R@5\xe7{\xfb\xee'@""","{'xmin': -102.28894418536336, 'ymin': 21.904235597269917, 'xmax': -102.28894418536336, 'ymax': 21.904235597269917}","dining and drinking > food truck, dining and drinking > restaurant > mexican restaurant > taco restaurant, retail > food and beverage retail",1
53b21a9e498e13cc8b1d3ca5,tacos el flaco,21.5078,-104.89648,,,,,,,,MX,2014-07-01,2014-07-01,,,,,,,,['4bf58dd8d48988d151941735'],['Dining and Drinking > Restaurant > Mexican Restaurant > Taco Restaurant'],https://foursquare.com/placemakers/review-place/53b21a9e498e13cc8b1d3ca5,b'\x00\x00\x00\x00\x01\xc0Z9_\xed\xa6a(@5\x81\xff.H\xe8\xa7',"{'xmin': -104.89648, 'ymin': 21.5078, 'xmax': -104.89648, 'ymax': 21.5078}",dining and drinking > restaurant > mexican restaurant > taco restaurant,1
6172f29afad05b5866a80d97,Barbaco & Co,20.638823592156843,-103.43016117811203,Calle Enrique Ladrón de Guevara 2898,Zapopan,Jalisco,45070,,,,MX,2021-10-22,2024-09-08,,33 2876 2863,,,,,,['4bf58dd8d48988d151941735'],['Dining and Drinking > Restaurant > Mexican Restaurant > Taco Restaurant'],https://foursquare.com/placemakers/review-place/6172f29afad05b5866a80d97,b'\x00\x00\x00\x00\x01\xc0Y\xdb\x87\xc2\xc0\x00\x00@4\xa3\x89\xf1d:\x15',"{'xmin': -103.43016117811203, 'ymin': 20.638823592156843, 'xmax': -103.43016117811203, 'ymax': 20.638823592156843}",dining and drinking > restaurant > mexican restaurant > taco restaurant,1
4f4ce7dbe4b00b42c3a2a6c1,Tacos Don Timnbon,19.246999,-103.715688,,Colima,,,,,,MX,2012-02-28,2012-03-14,,,,,,,,['4bf58dd8d48988d151941735'],['Dining and Drinking > Restaurant > Mexican Restaurant > Taco Restaurant'],https://foursquare.com/placemakers/review-place/4f4ce7dbe4b00b42c3a2a6c1,b'\x00\x00\x00\x00\x01\xc0Y\xed\xcd\xd5\n\x88\xf0@3?;S\x93%\x0b',"{'xmin': -103.715688, 'ymin': 19.246999, 'xmax': -103.715688, 'ymax': 19.246999}",dining and drinking > restaurant > mexican restaurant > taco restaurant,1
545301c9498ea8054f42251b,el famoso mario,20.60620532116395,-103.44833307607378,,,,,,,,MX,2014-10-31,2024-12-24,,,,,,,,['4bf58dd8d48988d151941735'],['Dining and Drinking > Restaurant > Mexican Restaurant > Taco Restaurant'],https://foursquare.com/placemakers/review-place/545301c9498ea8054f42251b,b'\x00\x00\x00\x00\x01\xc0Y\xdc\xb1}6\xdc\xed@4\x9b0E\x9d\x0fs',"{'xmin': -103.44833307607378, 'ymin': 20.60620532116395, 'xmax': -103.44833307607378, 'ymax': 20.60620532116395}",dining and drinking > restaurant > mexican restaurant > taco restaurant,1
59fdfa6047f8764a66dfbc86,Gorditas Doña Maria,20.618653,-105.230761,Calle Perú 1238,Puerto Vallarta,JAL,48350,,,,MX,2017-11-04,2018-03-29,,,,,,,,['4bf58dd8d48988d151941735'],['Dining and Drinking > Restaurant > Mexican Restaurant > Taco Restaurant'],https://foursquare.com/placemakers/review-place/59fdfa6047f8764a66dfbc86,b'\x00\x00\x00\x00\x01\xc0ZN\xc4\xc9\xc9\x0cN@4\x9e`\x0b\x02\x92\x81',"{'xmin': -105.230761, 'ymin': 20.618653, 'xmax': -105.230761, 'ymax': 20.618653}",dining and drinking > restaurant > mexican restaurant > taco restaurant,1
4ed5a50599112d6efdd5ce26,"Flautas ""El Socio""",20.675034,-103.415946,,Zapopan,Jalisco,,,,,MX,2011-11-30,2015-05-28,2015-05-28,,,,,,,['4bf58dd8d48988d151941735'],['Dining and Drinking > Restaurant > Mexican Restaurant > Taco Restaurant'],https://foursquare.com/placemakers/review-place/4ed5a50599112d6efdd5ce26,b'\x00\x00\x00\x00\x01\xc0Y\xda\x9e\xdb\xf8\xb9\xbb@4\xac\xcf\x079\xb0%',"{'xmin': -103.415946, 'ymin': 20.675034, 'xmax': -103.415946, 'ymax': 20.675034}",dining and drinking > restaurant > mexican restaurant > taco restaurant,1
51cfb631498ea91e6238edca,El Braserio De Pepon,19.774589157076875,-104.35424240521436,,,,,,,,MX,2013-06-30,2014-08-12,,,,,,,,['4bf58dd8d48988d151941735'],['Dining and Drinking > Restaurant > Mexican Restaurant > Taco Restaurant'],https://foursquare.com/placemakers/review-place/51cfb631498ea91e6238edca,"b'\x00\x00\x00\x00\x01\xc0Z\x16\xab\xe8VP""@3\xc6Ky\x99{<'","{'xmin': -104.35424240521436, 'ymin': 19.774589157076875, 'xmax': -104.35424240521436, 'ymax': 19.774589157076875}",dining and drinking > restaurant > mexican restaurant > taco restaurant,1
57754a3b498e51fe63f03094,Moltto Café Taco Grill,20.584756,-103.382316,Periférico Sur 6751,Tlaquepaque,JAL,45640,,,,MX,2016-06-30,2018-07-30,,,,,,,,['4bf58dd8d48988d151941735'],['Dining and Drinking > Restaurant > Mexican Restaurant > Taco Restaurant'],https://foursquare.com/placemakers/review-place/57754a3b498e51fe63f03094,b'\x00\x00\x00\x00\x01\xc0Y\xd8w\xdd\x87/4@4\x95\xb2\x91\xb8#\xc8',"{'xmin': -103.382316, 'ymin': 20.584756, 'xmax': -103.382316, 'ymax': 20.584756}",dining and drinking > restaurant > mexican restaurant > taco restaurant,1
5077668ee4b00eb8601268dc,Tacos Pepe,20.65154,-105.219516,5 De Mayo,Pitillal,Jalisco,,,,,MX,2012-10-12,2020-06-03,,,,,,,,['4bf58dd8d48988d151941735'],['Dining and Drinking > Restaurant > Mexican Restaurant > Taco Restaurant'],https://foursquare.com/placemakers/review-place/5077668ee4b00eb8601268dc,b'\x00\x00\x00\x00\x01\xc0ZN\x0c\x8c\xd6<\xb8@4\xa6\xcbSP\t-',"{'xmin': -105.219516, 'ymin': 20.65154, 'xmax': -105.219516, 'ymax': 20.65154}",dining and drinking > restaurant > mexican restaurant > taco restaurant,1
640e7a149dc90a477fa23748,Mr Alex Tacos De Birria,19.35014,-103.657776,calzada Galván sur,Colima,Colima,28535,,,,MX,2023-03-13,2023-03-13,,,,,,,,['4bf58dd8d48988d151941735'],['Dining and Drinking > Restaurant > Mexican Restaurant > Taco Restaurant'],https://foursquare.com/placemakers/review-place/640e7a149dc90a477fa23748,b'\x00\x00\x00\x00\x01\xc0Y\xea\x19\x00\x82\x05\xff@3Y\xa2\xc6i\x05}',"{'xmin': -103.657776, 'ymin': 19.35014, 'xmax': -103.657776, 'ymax': 19.35014}",dining and drinking > restaurant > mexican restaurant > taco restaurant,1
0955fd89fc4c4efc77b1a3c8,Tostadas Aguila,20.754463,-103.344289,Jacinto Peña 53,Guadalajara,Jalisco,45189,,,,MX,2013-03-24,2013-03-24,,33 3625 3524,,,,,,['4bf58dd8d48988d151941735' '4bf58dd8d48988d1f9941735'],"['Dining and Drinking > Restaurant > Mexican Restaurant > Taco Restaurant'
 'Retail > Food and Beverage Retail']",https://foursquare.com/placemakers/review-place/0955fd89fc4c4efc77b1a3c8,b'\x00\x00\x00\x00\x01\xc0Y\xd6\x08\xd4\xba\xd7\xd8@4\xc1$|\xb7\n\xc4',"{'xmin': -103.344289, 'ymin': 20.754463, 'xmax': -103.344289, 'ymax': 20.754463}","dining and drinking > restaurant > mexican restaurant > taco restaurant, retail > food and beverage retail",1
4f50388ae4b062d9d9ab3511,Tacos el Güero,22.167836837898793,-101.01935904577842,,San Luis Potosi,,,,,,MX,2012-03-02,2020-08-22,,,,,,,,['4bf58dd8d48988d151941735'],['Dining and Drinking > Restaurant > Mexican Restaurant > Taco Restaurant'],https://foursquare.com/placemakers/review-place/4f50388ae4b062d9d9ab3511,b'\x00\x00\x00\x00\x01\xc0YA=-\xb9 \x01@6*\xf7Z\xe1\xd6\xe1',"{'xmin': -101.01935904577842, 'ymin': 22.167836837898793, 'xmax': -101.01935904577842, 'ymax': 22.167836837898793}",dining and drinking > restaurant > mexican restaurant > taco restaurant,1
55680956498ed369767adc45,Los Originales de Don Ray,21.867479826094257,-102.30281936086584,,,,,,,,MX,2015-05-29,2016-05-16,,,,,,,,['4bf58dd8d48988d151941735'],['Dining and Drinking > Restaurant > Mexican Restaurant > Taco Restaurant'],https://foursquare.com/placemakers/review-place/55680956498ed369767adc45,b'\x00\x00\x00\x00\x01\xc0Y\x93adt\xe0\xec@5\xde\x13(k\x03\xbd',"{'xmin': -102.30281936086584, 'ymin': 21.867479826094257, 'xmax': -102.30281936086584, 'ymax': 21.867479826094257}",dining and drinking > restaurant > mexican restaurant > taco restaurant,1
4e5a9058d4c0ba8c11ad1f37,Tortas Don Quique,19.256526,-103.718673,Paul p. Harris no. 20,Colima,Colima,28016,,,,MX,2011-08-28,2012-04-29,,,,,,,,['4bf58dd8d48988d151941735'],['Dining and Drinking > Restaurant > Mexican Restaurant > Taco Restaurant'],https://foursquare.com/placemakers/review-place/4e5a9058d4c0ba8c11ad1f37,b'\x00\x00\x00\x00\x01\xc0Y\xed\xfe\xbd\t\xe1*@3A\xab\xb0\x1c\x92\xde',"{'xmin': -103.718673, 'ymin': 19.256526, 'xmax': -103.718673, 'ymax': 19.256526}",dining and drinking > restaurant > mexican restaurant > taco restaurant,1
52187f60498e70081d1e1f4c,Los Especiales,22.124802287778387,-100.96640285919025,,,,,,,,MX,2013-08-24,2020-01-30,,,,,,,,['4bf58dd8d48988d151941735' '4bf58dd8d48988d1c1941735'],"['Dining and Drinking > Restaurant > Mexican Restaurant > Taco Restaurant'
 'Dining and Drinking > Restaurant > Mexican Restaurant']",https://foursquare.com/placemakers/review-place/52187f60498e70081d1e1f4c,b'\x00\x00\x00\x00\x01\xc0Y=\xd9\x8b`\xbe\xea@6\x1f\xf3\n\xf0yb',"{'xmin': -100.96640285919025, 'ymin': 22.124802287778387, 'xmax': -100.96640285919025, 'ymax': 22.124802287778387}","dining and drinking > restaurant > mexican restaurant > taco restaurant, dining and drinking > restaurant > mexican restaurant",1
505cb6d8e4b0b64eba50d423,Lonches de la prepa,20.6783142,-103.3507439,,,,,,,,MX,2012-09-21,2012-09-26,,,,,,,,['4bf58dd8d48988d151941735'],['Dining and Drinking > Restaurant > Mexican Restaurant > Taco Restaurant'],https://foursquare.com/placemakers/review-place/505cb6d8e4b0b64eba50d423,b'\x00\x00\x00\x00\x01\xc0Y\xd6r\x96\x8a\xf1`@4\xad\xa5\xff\xd9i\x93',"{'xmin': -103.3507439, 'ymin': 20.6783142, 'xmax': -103.3507439, 'ymax': 20.6783142}",dining and drinking > restaurant > mexican restaurant > taco restaurant,1
516978a9498e94b1e45811a3,Carnitas Cacho,21.526223,-104.881389,,,,,,,,MX,2013-04-13,2017-08-05,,,,,,,,['4bf58dd8d48988d151941735'],['Dining and Drinking > Restaurant > Mexican Restaurant > Taco Restaurant'],https://foursquare.com/placemakers/review-place/516978a9498e94b1e45811a3,"b'\x00\x00\x00\x00\x01\xc0Z8h\xadh\x83w@5\x86\xb6\x8c\xefg,'","{'xmin': -104.881389, 'ymin': 21.526223, 'xmax': -104.881389, 'ymax': 21.526223}",dining and drinking > restaurant > mexican restaurant > taco restaurant,1
5ba7fd7ac62b49002cee4636,El Puerquito Feliz,20.607217,-105.236952,Agustin Rodriguez,Puerto Vallarta,JAL,48300,,,,MX,2018-09-23,2019-06-24,,,,,,,,['4bf58dd8d48988d151941735'],['Dining and Drinking > Restaurant > Mexican Restaurant > Taco Restaurant'],https://foursquare.com/placemakers/review-place/5ba7fd7ac62b49002cee4636,b'\x00\x00\x00\x00\x01\xc0ZO*8\xb8\xae2@4\x9br\x92\xc4\x93B',"{'xmin': -105.236952, 'ymin': 20.607217, 'xmax': -105.236952, 'ymax': 20.607217}",dining and drinking > restaurant > mexican restaurant > taco restaurant,1
6637f2cbe6a4951d22f58351,Karbon Ajo Y Habanero,20.672619,-103.39398,Av. Inglaterra 3174,Guadalajara,Jalisco,44110,,,,MX,2024-05-05,2024-10-06,,,,,,,,['4bf58dd8d48988d151941735'],['Dining and Drinking > Restaurant > Mexican Restaurant > Taco Restaurant'],https://foursquare.com/placemakers/review-place/6637f2cbe6a4951d22f58351,b'\x00\x00\x00\x00\x01\xc0Y\xd96\xf7\xe3\xd1\xcc@4\xac0\xc2?\xab\x11',"{'xmin': -103.39398, 'ymin': 20.672619, 'xmax': -103.39398, 'ymax': 20.672619}",dining and drinking > restaurant > mexican restaurant > taco restaurant,1
4eac078a29c2152debfbf8c0,Tacos Los Hermanos,20.67785030120326,-103.38283027514366,,,,,,,,MX,2011-10-29,2014-05-13,,,,,,,,['4bf58dd8d48988d151941735'],['Dining and Drinking > Restaurant > Mexican Restaurant > Taco Restaurant'],https://foursquare.com/placemakers/review-place/4eac078a29c2152debfbf8c0,b'\x00\x00\x00\x00\x01\xc0Y\xd8\x80J\x8d\xeaI@4\xad\x87\x98\xeb@s',"{'xmin': -103.38283027514366, 'ymin': 20.67785030120326, 'xmax': -103.38283027514366, 'ymax': 20.67785030120326}",dining and drinking > restaurant > mexican restaurant > taco restaurant,1
5313fe93498e11e8585fb793,Taqueria la 34,20.680229,-103.322128,,Guadalajara,,,,,,MX,2014-03-03,2019-02-13,,,,,,,,['4bf58dd8d48988d151941735'],['Dining and Drinking > Restaurant > Mexican Restaurant > Taco Restaurant'],https://foursquare.com/placemakers/review-place/5313fe93498e11e8585fb793,b'\x00\x00\x00\x00\x01\xc0Y\xd4\x9d\xbe\xc2H\x0f@4\xae#|\xdc\xcaq',"{'xmin': -103.322128, 'ymin': 20.680229, 'xmax': -103.322128, 'ymax': 20.680229}",dining and drinking > restaurant > mexican restaurant > taco restaurant,1
4fe2111ce4b00017d81bc8f9,La gorditas del callejon,22.1509724089921,-100.9824583189675,callejon del carino s/n,San luis potosi,San luis potosi,,,,,MX,2012-06-20,2021-12-27,,,,,,,,['4bf58dd8d48988d1cb941735' '4bf58dd8d48988d151941735'],"['Dining and Drinking > Food Truck'
 'Dining and Drinking > Restaurant > Mexican Restaurant > Taco Restaurant']",https://foursquare.com/placemakers/review-place/4fe2111ce4b00017d81bc8f9,b'\x00\x00\x00\x00\x01\xc0Y>\xe0\x98\xdbi\x82@6&\xa6 \xb78+',"{'xmin': -100.9824583189675, 'ymin': 22.1509724089921, 'xmax': -100.9824583189675, 'ymax': 22.1509724089921}","dining and drinking > food truck, dining and drinking > restaurant > mexican restaurant > taco restaurant",1
51cdb923498e40d90e289808,Tacos El Muñe,20.931794,-101.44311,,,,,,,,MX,2013-06-28,2014-05-06,,,,,,,,['4bf58dd8d48988d151941735'],['Dining and Drinking > Restaurant > Mexican Restaurant > Taco Restaurant'],https://foursquare.com/placemakers/review-place/51cdb923498e40d90e289808,b'\x00\x00\x00\x00\x01\xc0Y\\[\xea\x0b\xa1\xf5@4\xee\x8a\r4\x9b\xe9',"{'xmin': -101.44311, 'ymin': 20.931794, 'xmax': -101.44311, 'ymax': 20.931794}",dining and drinking > restaurant > mexican restaurant > taco restaurant,1
54034c03498ed90785616caa,tortas ahogadas el crak,20.634313,-103.462641,Calle magnetita,Zapopan,Jalisco,45066,,,,MX,2014-08-31,2014-08-31,,,,,,,,['4bf58dd8d48988d151941735'],['Dining and Drinking > Restaurant > Mexican Restaurant > Taco Restaurant'],https://foursquare.com/placemakers/review-place/54034c03498ed90785616caa,b'\x00\x00\x00\x00\x01\xc0Y\xdd\x9b\xe8\xff2{@4\xa2bV6mz',"{'xmin': -103.462641, 'ymin': 20.634313, 'xmax': -103.462641, 'ymax': 20.634313}",dining and drinking > restaurant > mexican restaurant > taco restaurant,1
4fb46e41e4b0a6875af2773d,Tacos El Primo,20.6123,-103.39652,Paseo de la Serenata,,,,,,,MX,2012-05-17,2024-09-05,,,,,,,,['4bf58dd8d48988d151941735'],['Dining and Drinking > Restaurant > Mexican Restaurant > Taco Restaurant'],https://foursquare.com/placemakers/review-place/4fb46e41e4b0a6875af2773d,b'\x00\x00\x00\x00\x01\xc0Y\xd9`\x95l\ro@4\x9c\xbf\xb1[W?',"{'xmin': -103.39652, 'ymin': 20.6123, 'xmax': -103.39652, 'ymax': 20.6123}",dining and drinking > restaurant > mexican restaurant > taco restaurant,1
5429ef00498e259fb7677cac,Takos Tino,20.656093,-105.223682,,,,,,,,MX,2014-09-29,2022-12-08,,,,,,,,['4bf58dd8d48988d151941735'],['Dining and Drinking > Restaurant > Mexican Restaurant > Taco Restaurant'],https://foursquare.com/placemakers/review-place/5429ef00498e259fb7677cac,"b'\x00\x00\x00\x00\x01\xc0ZNP\xceN\xad\x0c@4\xa7\xf5\xb5\xfa""p'","{'xmin': -105.223682, 'ymin': 20.656093, 'xmax': -105.223682, 'ymax': 20.656093}",dining and drinking > restaurant > mexican restaurant > taco restaurant,1
4ec6b0cb5c5ce271bc99a1a1,Tacos Lamat (Barbacoa),20.637812,-103.42856,,Zapopan,Jalisco,,,,,MX,2011-11-18,2014-07-21,,,,,,,,['4bf58dd8d48988d151941735'],['Dining and Drinking > Restaurant > Mexican Restaurant > Taco Restaurant'],https://foursquare.com/placemakers/review-place/4ec6b0cb5c5ce271bc99a1a1,b'\x00\x00\x00\x00\x01\xc0Y\xdbm\x86\xec\x17\xec@4\xa3G\xa5\xb0\xff\x11',"{'xmin': -103.42856, 'ymin': 20.637812, 'xmax': -103.42856, 'ymax': 20.637812}",dining and drinking > restaurant > mexican restaurant > taco restaurant,1
58f7c0bfee628b45bb2a6a9c,Gorditas Lupita,21.964861,-102.293925,Av Independencia 101-B,Jesús María,AGS,20924,,,,MX,2017-04-19,2018-07-17,,,,,,,,['4bf58dd8d48988d151941735'],['Dining and Drinking > Restaurant > Mexican Restaurant > Taco Restaurant'],https://foursquare.com/placemakers/review-place/58f7c0bfee628b45bb2a6a9c,b'\x00\x00\x00\x00\x01\xc0Y\x92\xcf\xaa\xcd\x9e\x84@5\xf7\x01!h/\x94',"{'xmin': -102.293925, 'ymin': 21.964861, 'xmax': -102.293925, 'ymax': 21.964861}",dining and drinking > restaurant > mexican restaurant > taco restaurant,1
5144b2c4e4b03910330d443f,El Frances - Pueblito,20.676742,-103.436437,,,,,,,,MX,2013-03-16,2018-11-20,,,,,,,,['4bf58dd8d48988d151941735'],['Dining and Drinking > Restaurant > Mexican Restaurant > Taco Restaurant'],https://foursquare.com/placemakers/review-place/5144b2c4e4b03910330d443f,b'\x00\x00\x00\x00\x01\xc0Y\xdb\xee\x95tp\xeb@4\xad>\xf6\xb5\xd4c',"{'xmin': -103.436437, 'ymin': 20.676742, 'xmax': -103.436437, 'ymax': 20.676742}",dining and drinking > restaurant > mexican restaurant > taco restaurant,1
53d7da32498e903b9f2d2638,La SabroZona,20.664813,-103.283023,,,,,,,,MX,2014-07-29,2014-07-29,,,,,,,,['4bf58dd8d48988d151941735'],['Dining and Drinking > Restaurant > Mexican Restaurant > Taco Restaurant'],https://foursquare.com/placemakers/review-place/53d7da32498e903b9f2d2638,b'\x00\x00\x00\x00\x01\xc0Y\xd2\x1d\x0c\x80A\x03@4\xaa1/L\xf4\xa5',"{'xmin': -103.283023, 'ymin': 20.664813, 'xmax': -103.283023, 'ymax': 20.664813}",dining and drinking > restaurant > mexican restaurant > taco restaurant,1
4e4086506284809c9f35f89d,Tacos de $1 c/u,21.850210189819336,-102.29574584960938,,,,,,,,MX,2011-08-09,2011-08-17,,,,,,,,['4bf58dd8d48988d151941735'],['Dining and Drinking > Restaurant > Mexican Restaurant > Taco Restaurant'],https://foursquare.com/placemakers/review-place/4e4086506284809c9f35f89d,b'\x00\x00\x00\x00\x01\xc0Y\x92\xed\x80\x00\x00\x00@5\xd9\xa7`\x00\x00\x00',"{'xmin': -102.29574584960938, 'ymin': 21.850210189819336, 'xmax': -102.29574584960938, 'ymax': 21.850210189819336}",dining and drinking > restaurant > mexican restaurant > taco restaurant,1
50ba44e0e4b0fa375bf4a38d,Tacos de Barbacoa Beny,20.623372596055546,-103.36289357725205,María C. Bancalari,,,,,,,MX,2012-12-01,2024-12-15,,,,,,,,['4bf58dd8d48988d151941735'],['Dining and Drinking > Restaurant > Mexican Restaurant > Taco Restaurant'],https://foursquare.com/placemakers/review-place/50ba44e0e4b0fa375bf4a38d,b'\x00\x00\x00\x00\x01\xc0Y\xd79\xa5\xfb\x8ew@4\x9f\x95X\xb1G\xfc',"{'xmin': -103.36289357725205, 'ymin': 20.623372596055546, 'xmax': -103.36289357725205, 'ymax': 20.623372596055546}",dining and drinking > restaurant > mexican restaurant > taco restaurant,1
57982f7bcd105f35ebddbf52,"Tacos ""Don lino""",20.708557,-102.345964,,Arandas,Jalisco,47180,,,,MX,2016-07-27,2019-02-09,,,,,,,,['4bf58dd8d48988d151941735'],['Dining and Drinking > Restaurant > Mexican Restaurant > Taco Restaurant'],https://foursquare.com/placemakers/review-place/57982f7bcd105f35ebddbf52,b'\x00\x00\x00\x00\x01\xc0Y\x96$F0e\xf9@4\xb5c\xfd\xd6Z\x14',"{'xmin': -102.345964, 'ymin': 20.708557, 'xmax': -102.345964, 'ymax': 20.708557}",dining and drinking > restaurant > mexican restaurant > taco restaurant,1
53b23602498eb1512223a7b1,"Tacos Al Carbón ""Areliz""",21.477222487243004,-104.86200258726475,,Tepic,Nayarit,,,,,MX,2014-03-04,2019-01-03,,,,,,,,['4bf58dd8d48988d151941735'],['Dining and Drinking > Restaurant > Mexican Restaurant > Taco Restaurant'],https://foursquare.com/placemakers/review-place/53b23602498eb1512223a7b1,b'\x00\x00\x00\x00\x01\xc0Z7+\x0c\xe6W\xa6@5z+@\xbf\x9f\xde',"{'xmin': -104.86200258726475, 'ymin': 21.477222487243004, 'xmax': -104.86200258726475, 'ymax': 21.477222487243004}",dining and drinking > restaurant > mexican restaurant > taco restaurant,1
4e5d17101850092869c76380,Pepe's Taco ,20.618936061615212,-105.23077617473449,Honduras 145,Puerto Vallarta,Jalisco,48500,,,,MX,2011-08-30,2024-12-28,,322 223 1703,,,,,,['4bf58dd8d48988d151941735' '4bf58dd8d48988d1c1941735'],"['Dining and Drinking > Restaurant > Mexican Restaurant > Taco Restaurant'
 'Dining and Drinking > Restaurant > Mexican Restaurant']",https://foursquare.com/placemakers/review-place/4e5d17101850092869c76380,b'\x00\x00\x00\x00\x01\xc0ZN\xc5\tn\xcb\x8f@4\x9er\x97\xfe\xf3\xcf',"{'xmin': -105.23077617473449, 'ymin': 20.618936061615212, 'xmax': -105.23077617473449, 'ymax': 20.618936061615212}","dining and drinking > restaurant > mexican restaurant > taco restaurant, dining and drinking > restaurant > mexican restaurant",1
6237686057f90d06742d867b,Taquitos Sofy,20.6889,-103.32058,Monte Bello 1181,Guadalajara,Jalisco,44370,,,,MX,2022-03-20,2022-11-26,,,,,,,,['4bf58dd8d48988d151941735'],['Dining and Drinking > Restaurant > Mexican Restaurant > Taco Restaurant'],https://foursquare.com/placemakers/review-place/6237686057f90d06742d867b,b'\x00\x00\x00\x00\x01\xc0Y\xd4\x84a\xf9\xf0\x1c@4\xb0[\xc0\x1a6\xe3',"{'xmin': -103.32058, 'ymin': 20.6889, 'xmax': -103.32058, 'ymax': 20.6889}",dining and drinking > restaurant > mexican restaurant > taco restaurant,1
4fe68cc1e4b0c112825a7ece,El Norteño,20.67354379250494,-103.43061797700217,Rafael Sanzio,Zapopan,Jalisco,,,,,MX,2012-06-24,2016-02-20,,,,,,,,['4bf58dd8d48988d151941735'],['Dining and Drinking > Restaurant > Mexican Restaurant > Taco Restaurant'],https://foursquare.com/placemakers/review-place/4fe68cc1e4b0c112825a7ece,b'\x00\x00\x00\x00\x01\xc0Y\xdb\x8f>\xb4\x12\xd1@4\xacm]\xb1;\x87',"{'xmin': -103.43061797700217, 'ymin': 20.67354379250494, 'xmax': -103.43061797700217, 'ymax': 20.67354379250494}",dining and drinking > restaurant > mexican restaurant > taco restaurant,1
520ef9d311d2d7de3d230748,Tacos Don Juan,20.723881,-103.398073,Emilio Carranza,Zapopan,,,,,,MX,2013-08-17,2013-08-17,,,,,,,,['4bf58dd8d48988d151941735'],['Dining and Drinking > Restaurant > Mexican Restaurant > Taco Restaurant'],https://foursquare.com/placemakers/review-place/520ef9d311d2d7de3d230748,b'\x00\x00\x00\x00\x01\xc0Y\xd9z\x07-\x1a\xeb@4\xb9PC\xe52\x1e',"{'xmin': -103.398073, 'ymin': 20.723881, 'xmax': -103.398073, 'ymax': 20.723881}",dining and drinking > restaurant > mexican restaurant > taco restaurant,1
5713063f498e1a08eb1acbc4,Tacos Del Jardín,19.294743,-103.736565,,,,,,,,MX,2016-04-17,2017-10-11,,,,,,,,['4bf58dd8d48988d151941735'],['Dining and Drinking > Restaurant > Mexican Restaurant > Taco Restaurant'],https://foursquare.com/placemakers/review-place/5713063f498e1a08eb1acbc4,b'\x00\x00\x00\x00\x01\xc0Y\xef#\xe1\x86\x985@3KtF\xf9\xb9\x95',"{'xmin': -103.736565, 'ymin': 19.294743, 'xmax': -103.736565, 'ymax': 19.294743}",dining and drinking > restaurant > mexican restaurant > taco restaurant,1
4e00205b1f6eda978b59f204,Tacos El Chuy,21.9245451151726,-102.31056375807776,Luis Donaldo Colosio 244,Aguascalientes,AGS,,,,,MX,2011-06-21,2018-09-14,,,,,,,,['4bf58dd8d48988d151941735' '4bf58dd8d48988d1c1941735'],"['Dining and Drinking > Restaurant > Mexican Restaurant > Taco Restaurant'
 'Dining and Drinking > Restaurant > Mexican Restaurant']",https://foursquare.com/placemakers/review-place/4e00205b1f6eda978b59f204,b'\x00\x00\x00\x00\x01\xc0Y\x93\xe0F\xd0\x11\x14@5\xec\xae\xfd\x19W\xc6',"{'xmin': -102.31056375807776, 'ymin': 21.9245451151726, 'xmax': -102.31056375807776, 'ymax': 21.9245451151726}","dining and drinking > restaurant > mexican restaurant > taco restaurant, dining and drinking > restaurant > mexican restaurant",1
4ce5fc88f3bda1438cd8a8e4,Los Compadres,22.135904098925273,-100.96989089490381,,,,,,,,MX,2010-11-19,2024-02-01,,,,,,,,"['4bf58dd8d48988d1c1941735' '4bf58dd8d48988d151941735'
 '4bf58dd8d48988d147941735']","['Dining and Drinking > Restaurant > Mexican Restaurant'
 'Dining and Drinking > Restaurant > Mexican Restaurant > Taco Restaurant'
 'Dining and Drinking > Restaurant > Diner']",https://foursquare.com/placemakers/review-place/4ce5fc88f3bda1438cd8a8e4,"b'\x00\x00\x00\x00\x01\xc0Y>\x12\xb1B\x934@6""\xca\x9clF\xc2'","{'xmin': -100.96989089490381, 'ymin': 22.135904098925273, 'xmax': -100.96989089490381, 'ymax': 22.135904098925273}","dining and drinking > restaurant > mexican restaurant, dining and drinking > restaurant > mexican restaurant > taco restaurant, dining and drinking > restaurant > diner",1
56fc0f25498e0190e56703ff,Birrieria El Fundador,21.8801,-102.29437,,,,,,,,MX,2016-03-30,2019-10-30,,,,,,,,['4bf58dd8d48988d151941735'],['Dining and Drinking > Restaurant > Mexican Restaurant > Taco Restaurant'],https://foursquare.com/placemakers/review-place/56fc0f25498e0190e56703ff,b'\x00\x00\x00\x00\x01\xc0Y\x92\xd6\xf5D\xbb\x1b@5\xe1N;\xcd5\xa8',"{'xmin': -102.29437, 'ymin': 21.8801, 'xmax': -102.29437, 'ymax': 21.8801}",dining and drinking > restaurant > mexican restaurant > taco restaurant,1
4f7518bee4b0a6fdc6042497,Tacos Arandas,20.65031841201177,-103.4326169453966,,,,,,,,MX,2012-03-30,2024-04-19,,,,,,,,['4bf58dd8d48988d151941735'],['Dining and Drinking > Restaurant > Mexican Restaurant > Taco Restaurant'],https://foursquare.com/placemakers/review-place/4f7518bee4b0a6fdc6042497,b'\x00\x00\x00\x00\x01\xc0Y\xdb\xaf\xfe\xfc\x0b @4\xa6{Dw\x93\xc4',"{'xmin': -103.4326169453966, 'ymin': 20.65031841201177, 'xmax': -103.4326169453966, 'ymax': 20.65031841201177}",dining and drinking > restaurant > mexican restaurant > taco restaurant,1
4f2de386e4b0dbffdcc88c82,Asadas Danny,20.67567391127496,-103.35929209839378,Pedro Moreno 992,Guadalajara,Jalisco,,,,,MX,2012-02-05,2023-10-05,,33 3825 8119,,,,,,['4bf58dd8d48988d151941735'],['Dining and Drinking > Restaurant > Mexican Restaurant > Taco Restaurant'],https://foursquare.com/placemakers/review-place/4f2de386e4b0dbffdcc88c82,"b""\x00\x00\x00\x00\x01\xc0Y\xd6\xfe\xa4I\x14\x00@4\xac\xf8\xf7'\xaf\xb5""","{'xmin': -103.35929209839378, 'ymin': 20.67567391127496, 'xmax': -103.35929209839378, 'ymax': 20.67567391127496}",dining and drinking > restaurant > mexican restaurant > taco restaurant,1
509de936e4b035e93e396669,Los Pipes,19.252529667462788,-103.73827016076662,5 de Mayo 683,Colima,COL,,,,,MX,2012-11-10,2013-10-24,,,,,,,,['4bf58dd8d48988d151941735'],['Dining and Drinking > Restaurant > Mexican Restaurant > Taco Restaurant'],https://foursquare.com/placemakers/review-place/509de936e4b035e93e396669,b'\x00\x00\x00\x00\x01\xc0Y\xef?\xd1}\x06\xbd@3@\xa5\xc8\xc7\x05\xbe',"{'xmin': -103.73827016076662, 'ymin': 19.252529667462788, 'xmax': -103.73827016076662, 'ymax': 19.252529667462788}",dining and drinking > restaurant > mexican restaurant > taco restaurant,1
6159e4c10edd3f4d440bbd8b,Birria El Cuñado,20.652226,-103.450541,Tepeyac,Zapopan,JAL,45069,,,,MX,2021-10-03,2022-04-02,,,,,,,,['4bf58dd8d48988d1c1941735' '4bf58dd8d48988d151941735'],"['Dining and Drinking > Restaurant > Mexican Restaurant'
 'Dining and Drinking > Restaurant > Mexican Restaurant > Taco Restaurant']",https://foursquare.com/placemakers/review-place/6159e4c10edd3f4d440bbd8b,b'\x00\x00\x00\x00\x01\xc0Y\xdc\xd5\xa9\xeb u@4\xa6\xf8H{\x99\xd4',"{'xmin': -103.450541, 'ymin': 20.652226, 'xmax': -103.450541, 'ymax': 20.652226}","dining and drinking > restaurant > mexican restaurant, dining and drinking > restaurant > mexican restaurant > taco restaurant",1
5f75e71bc5d82017b0768216,Carnitas San Lorenzo,21.960129,-102.33673,Av. Alejandro de la Cruz,Jesús María,Aguascalientes,20926,,,,MX,2020-10-01,2024-04-17,,,,,,,,['4bf58dd8d48988d151941735'],['Dining and Drinking > Restaurant > Mexican Restaurant > Taco Restaurant'],https://foursquare.com/placemakers/review-place/5f75e71bc5d82017b0768216,b'\x00\x00\x00\x00\x01\xc0Y\x95\x8c\xfb\xfceA@5\xf5\xcb\x03\x9e\xf0\xf1',"{'xmin': -102.33673, 'ymin': 21.960129, 'xmax': -102.33673, 'ymax': 21.960129}",dining and drinking > restaurant > mexican restaurant > taco restaurant,1
592b0dc98a6f177cab003c34,Tortas Ahogadas Y Tacos El Globo,20.664366,-103.21134,,Tonala,Jalisco,,,,,MX,2017-05-28,2019-05-04,,,,,,,,['4bf58dd8d48988d151941735'],['Dining and Drinking > Restaurant > Mexican Restaurant > Taco Restaurant'],https://foursquare.com/placemakers/review-place/592b0dc98a6f177cab003c34,b'\x00\x00\x00\x00\x01\xc0Y\xcd\x86\x985\x15\x8c@4\xaa\x13\xe3\xe2\x93\x08',"{'xmin': -103.21134, 'ymin': 20.664366, 'xmax': -103.21134, 'ymax': 20.664366}",dining and drinking > restaurant > mexican restaurant > taco restaurant,1
59f1569f6fa81f7a9bdfb4c2,Los De Chichi,18.653851,-99.193469,,Zacatepec de Hidalgo,MOR,62780,,,,MX,2017-10-26,2018-03-18,,,,,,,,['4bf58dd8d48988d151941735'],['Dining and Drinking > Restaurant > Mexican Restaurant > Taco Restaurant'],https://foursquare.com/placemakers/review-place/59f1569f6fa81f7a9bdfb4c2,b'\x00\x00\x00\x00\x01\xc0X\xcca\xcb\xcc\xf2\x8c@2\xa7b\xc7ut\xf7',"{'xmin': -99.193469, 'ymin': 18.653851, 'xmax': -99.193469, 'ymax': 18.653851}",dining and drinking > restaurant > mexican restaurant > taco restaurant,1
560081d8498ea821c3376c60,los guaches del sur,19.26729494830643,-99.57660349433999,,,,,,,,MX,2015-09-21,2017-09-23,,,,,,,,['4bf58dd8d48988d151941735'],['Dining and Drinking > Restaurant > Mexican Restaurant > Taco Restaurant'],https://foursquare.com/placemakers/review-place/560081d8498ea821c3376c60,b'\x00\x00\x00\x00\x01\xc0X\xe4\xe7\x12W\xbc\xc6@3Dmq\x15\\\xb4',"{'xmin': -99.57660349433999, 'ymin': 19.26729494830643, 'xmax': -99.57660349433999, 'ymax': 19.26729494830643}",dining and drinking > restaurant > mexican restaurant > taco restaurant,1
640be6c0da76b2732ade4b19,Tacos Árabes “Con Sabor A Puebla”,17.554046,-98.555656,,Tlapa de Comonfort,GRO,41300,,,,MX,2023-03-11,2023-09-14,,,,,,,,['4bf58dd8d48988d151941735'],['Dining and Drinking > Restaurant > Mexican Restaurant > Taco Restaurant'],https://foursquare.com/placemakers/review-place/640be6c0da76b2732ade4b19,b'\x00\x00\x00\x00\x01\xc0X\xa3\x8f\xde.\xf4\xe0@1\x8d\xd5\xf5jz\xc8',"{'xmin': -98.555656, 'ymin': 17.554046, 'xmax': -98.555656, 'ymax': 17.554046}",dining and drinking > restaurant > mexican restaurant > taco restaurant,1
4fc43ebfe4b084616fbf8b55,Los GeliMorchis,19.69433469684173,-101.18291913162957,Av. Gral Lázaro Cárdenas #1209-A,Morelia,Michoacán,58020,,,,MX,2012-05-29,2014-09-19,,,,,,,,['4bf58dd8d48988d151941735'],['Dining and Drinking > Restaurant > Mexican Restaurant > Taco Restaurant'],https://foursquare.com/placemakers/review-place/4fc43ebfe4b084616fbf8b55,b'\x00\x00\x00\x00\x01\xc0YK\xb4\xf2r\nZ@3\xb1\xbf\xeb/i\xce',"{'xmin': -101.18291913162957, 'ymin': 19.69433469684173, 'xmax': -101.18291913162957, 'ymax': 19.69433469684173}",dining and drinking > restaurant > mexican restaurant > taco restaurant,1
54d4f1c8498e8594555e5bb8,Taquería Mi niña,17.706746,-101.626322,Avenida de los Tulipanes,San José Ixtapa,Guerrero,,,,,MX,2015-02-06,2017-05-21,,,,,,,,['4bf58dd8d48988d151941735'],['Dining and Drinking > Restaurant > Mexican Restaurant > Taco Restaurant'],https://foursquare.com/placemakers/review-place/54d4f1c8498e8594555e5bb8,b'\x00\x00\x00\x00\x01\xc0Yh\x15\xa8\xde\xb0\xfb@1\xb4\xedNL\x94-',"{'xmin': -101.626322, 'ymin': 17.706746, 'xmax': -101.626322, 'ymax': 17.706746}",dining and drinking > restaurant > mexican restaurant > taco restaurant,1
5f7d25e6f2fb9551c7f870f7,Tacos Cuemanco,19.290885,-99.113056,Hacienda De Mazatepec 28,Ciudad de México,CDMX,14330,,,,MX,2020-10-07,2020-10-15,,,,,,,,['4bf58dd8d48988d151941735'],['Dining and Drinking > Restaurant > Mexican Restaurant > Taco Restaurant'],https://foursquare.com/placemakers/review-place/5f7d25e6f2fb9551c7f870f7,b'\x00\x00\x00\x00\x01\xc0X\xc7<O;\xa7v@3Jwpy\xe5\x9f',"{'xmin': -99.113056, 'ymin': 19.290885, 'xmax': -99.113056, 'ymax': 19.290885}",dining and drinking > restaurant > mexican restaurant > taco restaurant,1
568b22b5498e79959b5f3fc6,Rincon del Taco,19.293041,-99.666368,,,,,,,,MX,2016-01-05,2017-03-24,,,,,,,,['4bf58dd8d48988d151941735'],['Dining and Drinking > Restaurant > Mexican Restaurant > Taco Restaurant'],https://foursquare.com/placemakers/review-place/568b22b5498e79959b5f3fc6,"b""\x00\x00\x00\x00\x01\xc0X\xea\xa5\xc5\xf7\xc6v@3K\x04\xbc'c\x1b""","{'xmin': -99.666368, 'ymin': 19.293041, 'xmax': -99.666368, 'ymax': 19.293041}",dining and drinking > restaurant > mexican restaurant > taco restaurant,1
4f13957ae4b03856f28d05df,"Tacos ""El Novillón""",18.90064985920756,-96.97162732334004,Fortín,Fortín Veracruz,,,,,,MX,2012-01-16,2015-04-22,,,,,,,,['4bf58dd8d48988d151941735'],['Dining and Drinking > Restaurant > Mexican Restaurant > Taco Restaurant'],https://foursquare.com/placemakers/review-place/4f13957ae4b03856f28d05df,b'\x00\x00\x00\x00\x01\xc0X>/$^iP@2\xe6\x90\xfd:q\x88',"{'xmin': -96.97162732334004, 'ymin': 18.90064985920756, 'xmax': -96.97162732334004, 'ymax': 18.90064985920756}",dining and drinking > restaurant > mexican restaurant > taco restaurant,1
4ec2bdde30f84dc699c222b0,Tacos El Mañanero,14.898821830749512,-92.26122283935547,8a. Av. Ote,Tapachula,CHIS,30700,,,,MX,2011-11-15,2012-11-19,,,,,,,,['4bf58dd8d48988d151941735'],['Dining and Drinking > Restaurant > Mexican Restaurant > Taco Restaurant'],https://foursquare.com/placemakers/review-place/4ec2bdde30f84dc699c222b0,b'\x00\x00\x00\x00\x01\xc0W\x10\xb7\xe0\x00\x00\x00@-\xcc2`\x00\x00\x00',"{'xmin': -92.26122283935547, 'ymin': 14.898821830749512, 'xmax': -92.26122283935547, 'ymax': 14.898821830749512}",dining and drinking > restaurant > mexican restaurant > taco restaurant,1
56e0f32f498e6dffd14b6a26,Taqueria Jorgito,18.089506,-96.11919,Roberto Colorado,Tuxtepec,Oaxaca,,,,,MX,2016-03-10,2016-08-27,,,,,,,,['4bf58dd8d48988d151941735'],['Dining and Drinking > Restaurant > Mexican Restaurant > Taco Restaurant'],https://foursquare.com/placemakers/review-place/56e0f32f498e6dffd14b6a26,b'\x00\x00\x00\x00\x01\xc0X\x07\xa0\xcf\x18\x00\xa8@2\x16\xe9\xdd~\xcb\xb8',"{'xmin': -96.11919, 'ymin': 18.089506, 'xmax': -96.11919, 'ymax': 18.089506}",dining and drinking > restaurant > mexican restaurant > taco restaurant,1
60af00736b3b0202be8ab78d,Los Papilukis,21.139192,-101.648357,,León,GTO,37236,,,,MX,2021-05-27,2021-05-27,,,,,,,,['4bf58dd8d48988d151941735'],['Dining and Drinking > Restaurant > Mexican Restaurant > Taco Restaurant'],https://foursquare.com/placemakers/review-place/60af00736b3b0202be8ab78d,b'\x00\x00\x00\x00\x01\xc0Yi~\xae[\xc8~@5#\xa2\x16?\xddf',"{'xmin': -101.648357, 'ymin': 21.139192, 'xmax': -101.648357, 'ymax': 21.139192}",dining and drinking > restaurant > mexican restaurant > taco restaurant,1
50932415e4b075af17f97ddb,Tacos Samuel,20.427118870754637,-101.71719067234064,,,,,,,,MX,2012-11-02,2017-06-11,,,,,,,,['4bf58dd8d48988d151941735'],['Dining and Drinking > Restaurant > Mexican Restaurant > Taco Restaurant'],https://foursquare.com/placemakers/review-place/50932415e4b075af17f97ddb,b'\x00\x00\x00\x00\x01\xc0Ym\xe6s\xb4\xac\xc1@4mW\xa9\x8deG',"{'xmin': -101.71719067234064, 'ymin': 20.427118870754637, 'xmax': -101.71719067234064, 'ymax': 20.427118870754637}",dining and drinking > restaurant > mexican restaurant > taco restaurant,1
5511ff8e498ecb1f74cce149,Taqueria Cristina,19.26854705810547,-99.53516387939453,,,,,,,,MX,2015-03-25,2015-03-25,,,,,,,,['4bf58dd8d48988d151941735'],['Dining and Drinking > Restaurant > Mexican Restaurant > Taco Restaurant'],https://foursquare.com/placemakers/review-place/5511ff8e498ecb1f74cce149,b'\x00\x00\x00\x00\x01\xc0X\xe2@ \x00\x00\x00@3D\xbf\x80\x00\x00\x00',"{'xmin': -99.53516387939453, 'ymin': 19.26854705810547, 'xmax': -99.53516387939453, 'ymax': 19.26854705810547}",dining and drinking > restaurant > mexican restaurant > taco restaurant,1
537d662b498e3b32299b3b8a,tacos gusy,18.81421076568566,-97.16797516869848,,,,,,,,MX,2014-05-22,2018-09-25,,,,,,,,['4bf58dd8d48988d151941735'],['Dining and Drinking > Restaurant > Mexican Restaurant > Taco Restaurant'],https://foursquare.com/placemakers/review-place/537d662b498e3b32299b3b8a,b'\x00\x00\x00\x00\x01\xc0XJ\xc0\x1a\xec\x06g@2\xd0p\x1d\xe2\xab\xc9',"{'xmin': -97.16797516869848, 'ymin': 18.81421076568566, 'xmax': -97.16797516869848, 'ymax': 18.81421076568566}",dining and drinking > restaurant > mexican restaurant > taco restaurant,1
52b7313311d271efc9c0c4f7,El caritas,20.527959,-100.836931,,,,,,,,MX,2013-12-22,2013-12-22,,,,,,,,['4bf58dd8d48988d151941735'],['Dining and Drinking > Restaurant > Mexican Restaurant > Taco Restaurant'],https://foursquare.com/placemakers/review-place/52b7313311d271efc9c0c4f7,b'\x00\x00\x00\x00\x01\xc0Y5\x90G\n\x80\x8d@4\x87(R.\xa0\xfd',"{'xmin': -100.836931, 'ymin': 20.527959, 'xmax': -100.836931, 'ymax': 20.527959}",dining and drinking > restaurant > mexican restaurant > taco restaurant,1
54c1be6c498ecb20e8663124,Tacos Araucaria,21.094272354137722,-101.64176378798797,Paseo De Jerez Sur,Leon,guanajuato,,,,,MX,2015-01-23,2023-05-21,,,,,,,,['4bf58dd8d48988d151941735'],['Dining and Drinking > Restaurant > Mexican Restaurant > Taco Restaurant'],https://foursquare.com/placemakers/review-place/54c1be6c498ecb20e8663124,"b'\x00\x00\x00\x00\x01\xc0Yi\x12\xa8lJ\x96@5\x18"";\xa5\xf0>'","{'xmin': -101.64176378798797, 'ymin': 21.094272354137722, 'xmax': -101.64176378798797, 'ymax': 21.094272354137722}",dining and drinking > restaurant > mexican restaurant > taco restaurant,1
5f31ea05b8c8015e1a8bdaa6,Tacos Don Taquero,20.51152,-100.8424,Paseo Real de Arboledas,Celaya,Guanajuato,,,,,MX,2020-08-11,2023-07-15,,,,,,,,['4bf58dd8d48988d151941735'],['Dining and Drinking > Restaurant > Mexican Restaurant > Taco Restaurant'],https://foursquare.com/placemakers/review-place/5f31ea05b8c8015e1a8bdaa6,b'\x00\x00\x00\x00\x01\xc0Y5\xe9\xe1\xb0\x89\xa0@4\x82\xf2\xf9\x87?\xfb',"{'xmin': -100.8424, 'ymin': 20.51152, 'xmax': -100.8424, 'ymax': 20.51152}",dining and drinking > restaurant > mexican restaurant > taco restaurant,1
5575cc14498edad3a368b9d1,Las Ahogadictas,19.68639763953258,-101.20631879311381,Av universidad 1685,Morelia,Michoacán de Ocampo,58060,,,,MX,2015-06-08,2018-04-11,,,,,,,,['4bf58dd8d48988d151941735'],['Dining and Drinking > Restaurant > Mexican Restaurant > Taco Restaurant'],https://foursquare.com/placemakers/review-place/5575cc14498edad3a368b9d1,b'\x00\x00\x00\x00\x01\xc0YM4S\xbd>V@3\xaf\xb7\xc1u\xd8\x12',"{'xmin': -101.20631879311381, 'ymin': 19.68639763953258, 'xmax': -101.20631879311381, 'ymax': 19.68639763953258}",dining and drinking > restaurant > mexican restaurant > taco restaurant,1
56c55518cd10c6b7215a0d09,"Taqueria ""Tere""",17.053318,-96.683426,,,,,,,,MX,2016-02-18,2016-05-28,,,,,,,,['4bf58dd8d48988d151941735'],['Dining and Drinking > Restaurant > Mexican Restaurant > Taco Restaurant'],https://foursquare.com/placemakers/review-place/56c55518cd10c6b7215a0d09,b'\x00\x00\x00\x00\x01\xc0X+\xbd@g\xcf\x1c@1\r\xa6?\x9aI\xc3',"{'xmin': -96.683426, 'ymin': 17.053318, 'xmax': -96.683426, 'ymax': 17.053318}",dining and drinking > restaurant > mexican restaurant > taco restaurant,1
50ee2c16e4b0819865125ec5,Tacos El Veloz,21.130636469735606,-101.64564218165629,,,,,,,,MX,2013-01-10,2022-04-10,,,,,,,,['4bf58dd8d48988d151941735'],['Dining and Drinking > Restaurant > Mexican Restaurant > Taco Restaurant'],https://foursquare.com/placemakers/review-place/50ee2c16e4b0819865125ec5,b'\x00\x00\x00\x00\x01\xc0YiR3\x95\xc8p@5!qdE-\xe8',"{'xmin': -101.64564218165629, 'ymin': 21.130636469735606, 'xmax': -101.64564218165629, 'ymax': 21.130636469735606}",dining and drinking > restaurant > mexican restaurant > taco restaurant,1
50a67dc5e4b00084f290ea61,Barbacoa El Chino,20.522776198246625,-100.81854792690164,Int. Mercado 5 De Febrero,Celaya,Gto,,,,,MX,2012-11-16,2019-12-29,,,,,,,,"['4bf58dd8d48988d151941735' '4bf58dd8d48988d10e941735'
 '4bf58dd8d48988d1d3941735']","['Dining and Drinking > Restaurant > Mexican Restaurant > Taco Restaurant'
 'Dining and Drinking > Restaurant > Greek Restaurant'
 'Dining and Drinking > Restaurant > Vegan and Vegetarian Restaurant']",https://foursquare.com/placemakers/review-place/50a67dc5e4b00084f290ea61,b'\x00\x00\x00\x00\x01\xc0Y4c\x16\xd8\x10\x13@4\x85\xd4\xa92\x98\xb2',"{'xmin': -100.81854792690164, 'ymin': 20.522776198246625, 'xmax': -100.81854792690164, 'ymax': 20.522776198246625}","dining and drinking > restaurant > mexican restaurant > taco restaurant, dining and drinking > restaurant > greek restaurant, dining and drinking > restaurant > vegan and vegetarian restaurant",1
50f322b0e4b0dd739631f33c,Tacos De Obispo,19.296579,-99.64668,,,,,,,,MX,2013-01-13,2024-07-19,,,,,,,,['4bf58dd8d48988d151941735'],['Dining and Drinking > Restaurant > Mexican Restaurant > Taco Restaurant'],https://foursquare.com/placemakers/review-place/50f322b0e4b0dd739631f33c,b'\x00\x00\x00\x00\x01\xc0X\xe9c4\x82\xbe\x8c@3K\xec\x99\xf1\xae.',"{'xmin': -99.64668, 'ymin': 19.296579, 'xmax': -99.64668, 'ymax': 19.296579}",dining and drinking > restaurant > mexican restaurant > taco restaurant,1
4fed16b6e4b094d3fff11db5,Tacos El Tripa,19.20185432282317,-100.13379881502141,,,,,,,,MX,2012-06-29,2024-11-23,,,,,,,,['4bf58dd8d48988d151941735'],['Dining and Drinking > Restaurant > Mexican Restaurant > Taco Restaurant'],https://foursquare.com/placemakers/review-place/4fed16b6e4b094d3fff11db5,b'\x00\x00\x00\x00\x01\xc0Y\x08\x90(\xe7\xb0\xac@33\xac\xb9\x93\x14\xed',"{'xmin': -100.13379881502141, 'ymin': 19.20185432282317, 'xmax': -100.13379881502141, 'ymax': 19.20185432282317}",dining and drinking > restaurant > mexican restaurant > taco restaurant,1
574d0acc498ecdcb5dbe8ae9,Los Chiquiyules,16.829169,-96.668112,Carretera Puerto Ángel,San Juan Chilateca,Oaxaca,,,,,MX,2016-05-31,2016-05-31,,,,,,,,['4bf58dd8d48988d151941735'],['Dining and Drinking > Restaurant > Mexican Restaurant > Taco Restaurant'],https://foursquare.com/placemakers/review-place/574d0acc498ecdcb5dbe8ae9,b'\x00\x00\x00\x00\x01\xc0X*\xc2X\xd5\x84+@0\xd4Dki\xdbf',"{'xmin': -96.668112, 'ymin': 16.829169, 'xmax': -96.668112, 'ymax': 16.829169}",dining and drinking > restaurant > mexican restaurant > taco restaurant,1
51bc8785498e82cebf564c97,Tacos Chelis,19.702036,-101.164785,,,,,,,,MX,2013-06-15,2014-11-04,,,,,,,,['4bf58dd8d48988d151941735'],['Dining and Drinking > Restaurant > Mexican Restaurant > Taco Restaurant'],https://foursquare.com/placemakers/review-place/51bc8785498e82cebf564c97,b'\x00\x00\x00\x00\x01\xc0YJ\x8b\xd6bw\xc4@3\xb3\xb8\xa1\x9c\x9dZ',"{'xmin': -101.164785, 'ymin': 19.702036, 'xmax': -101.164785, 'ymax': 19.702036}",dining and drinking > restaurant > mexican restaurant > taco restaurant,1
51c712c0498ec876089abe3a,La Retama,19.293313916815976,-99.66156040838638,,,,,,,,MX,2013-06-23,2020-08-03,,,,,,,,['4bf58dd8d48988d151941735'],['Dining and Drinking > Restaurant > Mexican Restaurant > Taco Restaurant'],https://foursquare.com/placemakers/review-place/51c712c0498ec876089abe3a,b'\x00\x00\x00\x00\x01\xc0X\xeaW\x01w\x96D@3K\x16\x9e\xf0/\xb0',"{'xmin': -99.66156040838638, 'ymin': 19.293313916815976, 'xmax': -99.66156040838638, 'ymax': 19.293313916815976}",dining and drinking > restaurant > mexican restaurant > taco restaurant,1
569fd518498e9983bd15c805,"Carnitas ""el Cuñado""",19.279626,-99.166616,,,,,,,,MX,2016-01-20,2019-08-19,,,,,,,,['4bf58dd8d48988d151941735'],['Dining and Drinking > Restaurant > Mexican Restaurant > Taco Restaurant'],https://foursquare.com/placemakers/review-place/569fd518498e9983bd15c805,"b""\x00\x00\x00\x00\x01\xc0X\xca\xa9\xd6'\xbfb@3G\x95\x91\xcd\x1c~""","{'xmin': -99.166616, 'ymin': 19.279626, 'xmax': -99.166616, 'ymax': 19.279626}",dining and drinking > restaurant > mexican restaurant > taco restaurant,1
50a45056e4b08b4ad075fd3f,Taquitos de los primos,19.30811111040219,-99.13750007060739,Calzada del hueso,México,Distrito Federal,,,,,MX,2012-11-15,2017-04-23,,,,,,,,['4bf58dd8d48988d151941735'],['Dining and Drinking > Restaurant > Mexican Restaurant > Taco Restaurant'],https://foursquare.com/placemakers/review-place/50a45056e4b08b4ad075fd3f,b'\x00\x00\x00\x00\x01\xc0X\xc8\xcc\xcd\x18\x9d6@3N\xe0^\xa6\xb6/',"{'xmin': -99.13750007060739, 'ymin': 19.30811111040219, 'xmax': -99.13750007060739, 'ymax': 19.30811111040219}",dining and drinking > restaurant > mexican restaurant > taco restaurant,1
54eb58bb498e7e2805ab0fe5,Tacos de Cecina Matamoros,19.27328,-99.656301,,,,,,,,MX,2015-02-23,2018-03-08,,,,,,,,['4bf58dd8d48988d151941735'],['Dining and Drinking > Restaurant > Mexican Restaurant > Taco Restaurant'],https://foursquare.com/placemakers/review-place/54eb58bb498e7e2805ab0fe5,b'\x00\x00\x00\x00\x01\xc0X\xea\x00\xd5\xe8\xd5A@3E\xf5\xad\x96\xa6\xa0',"{'xmin': -99.656301, 'ymin': 19.27328, 'xmax': -99.656301, 'ymax': 19.27328}",dining and drinking > restaurant > mexican restaurant > taco restaurant,1
50271f75e4b08ea913fa0f8b,"tacos ""Don German""",19.269338915791053,-99.45378670837385,,,,,,,,MX,2012-08-12,2014-02-28,,,,,,,,['4bf58dd8d48988d151941735'],['Dining and Drinking > Restaurant > Mexican Restaurant > Taco Restaurant'],https://foursquare.com/placemakers/review-place/50271f75e4b08ea913fa0f8b,b'\x00\x00\x00\x00\x01\xc0X\xdd\n\xd7g\xf4\xd0@3D\xf3e*\xdc\xd8',"{'xmin': -99.45378670837385, 'ymin': 19.269338915791053, 'xmax': -99.45378670837385, 'ymax': 19.269338915791053}",dining and drinking > restaurant > mexican restaurant > taco restaurant,1
51243c3ee4b03a94f304d68b,Tacos Arabes Naja,18.458846,-97.393389,,,,,,,,MX,2013-02-20,2014-12-08,,,,,,,,['4bf58dd8d48988d151941735'],['Dining and Drinking > Restaurant > Mexican Restaurant > Taco Restaurant'],https://foursquare.com/placemakers/review-place/51243c3ee4b03a94f304d68b,b'\x00\x00\x00\x00\x01\xc0XY-I\x0ef\xcb@2uv\xees\xe6\x82',"{'xmin': -97.393389, 'ymin': 18.458846, 'xmax': -97.393389, 'ymax': 18.458846}",dining and drinking > restaurant > mexican restaurant > taco restaurant,1
54dfaba9498e8f442ff5930c,"tacos ""Belen""",19.721045,-101.194773,,,,,,,,MX,2015-02-14,2015-02-14,,,,,,,,['4bf58dd8d48988d151941735'],['Dining and Drinking > Restaurant > Mexican Restaurant > Taco Restaurant'],https://foursquare.com/placemakers/review-place/54dfaba9498e8f442ff5930c,"b'\x00\x00\x00\x00\x01\xc0YLw),I4@3\xb8\x96g\xb5\xf1\xbf'","{'xmin': -101.194773, 'ymin': 19.721045, 'xmax': -101.194773, 'ymax': 19.721045}",dining and drinking > restaurant > mexican restaurant > taco restaurant,1
54406ab1498e2b4e8aaa2f3f,Las Gringas,19.285042591479485,-96.44003989461238,,,,,,,,MX,2014-10-17,2018-12-13,,,,,,,,['4bf58dd8d48988d151941735'],['Dining and Drinking > Restaurant > Mexican Restaurant > Taco Restaurant'],https://foursquare.com/placemakers/review-place/54406ab1498e2b4e8aaa2f3f,b'\x00\x00\x00\x00\x01\xc0X\x1c)\x9d\x17\x12\xe9@3H\xf8\x8d _\x19',"{'xmin': -96.44003989461238, 'ymin': 19.285042591479485, 'xmax': -96.44003989461238, 'ymax': 19.285042591479485}",dining and drinking > restaurant > mexican restaurant > taco restaurant,1
54b1f5e3498e67b43d939ac7,Taquería El Infierno,19.704755927409632,-101.19634255294817,Santiago Tapia #519,Morelia,,,,,,MX,2015-01-11,2024-12-23,,443 312 2497,http://taqueriaelinfierno.com.mx,,,,,['4bf58dd8d48988d151941735'],['Dining and Drinking > Restaurant > Mexican Restaurant > Taco Restaurant'],https://foursquare.com/placemakers/review-place/54b1f5e3498e67b43d939ac7,b'\x00\x00\x00\x00\x01\xc0YL\x90\xe0Z\xeeo@3\xb4j\xe2k\xe2\xf3',"{'xmin': -101.19634255294817, 'ymin': 19.704755927409632, 'xmax': -101.19634255294817, 'ymax': 19.704755927409632}",dining and drinking > restaurant > mexican restaurant > taco restaurant,1
4f87884de4b047d8486627dd,"Tlayudas y Tacos ""Jesús""",16.23391914367676,-93.90599822998047,,,,,,,,MX,2012-04-13,2014-10-26,,,,,,,,['4bf58dd8d48988d151941735'],['Dining and Drinking > Restaurant > Mexican Restaurant > Taco Restaurant'],https://foursquare.com/placemakers/review-place/4f87884de4b047d8486627dd,b'\x00\x00\x00\x00\x01\xc0Wy\xfb\xe0\x00\x00\x00@0;\xe2 \x00\x00\x01',"{'xmin': -93.90599822998047, 'ymin': 16.23391914367676, 'xmax': -93.90599822998047, 'ymax': 16.23391914367676}",dining and drinking > restaurant > mexican restaurant > taco restaurant,1
5dab7c05a4f2c900072e1005,Las Brazaz,19.674646,-101.162955,,Morelia,MICH,,,,,MX,2019-10-19,2019-10-26,,,,,,,,['4bf58dd8d48988d151941735'],['Dining and Drinking > Restaurant > Mexican Restaurant > Taco Restaurant'],https://foursquare.com/placemakers/review-place/5dab7c05a4f2c900072e1005,b'\x00\x00\x00\x00\x01\xc0YJm\xda\xce\xee\x0f@3\xac\xb5\x99\xaa`\x91',"{'xmin': -101.162955, 'ymin': 19.674646, 'xmax': -101.162955, 'ymax': 19.674646}",dining and drinking > restaurant > mexican restaurant > taco restaurant,1
55d9cb6a498ecc025bf73f8f,Tacos De La Estacion Doña Martina,19.55371492156764,-103.38300516509644,Jesús Carranza 103,Tuxpan,Jalisco,,,,,MX,2015-08-23,2017-03-30,,,,,,,,['4bf58dd8d48988d151941735'],['Dining and Drinking > Restaurant > Mexican Restaurant > Taco Restaurant'],https://foursquare.com/placemakers/review-place/55d9cb6a498ecc025bf73f8f,b'\x00\x00\x00\x00\x01\xc0Y\xd8\x83(\x18\x92s@3\x8d\xc0B\xd7p\xb2',"{'xmin': -103.38300516509644, 'ymin': 19.55371492156764, 'xmax': -103.38300516509644, 'ymax': 19.55371492156764}",dining and drinking > restaurant > mexican restaurant > taco restaurant,1
5805898538fa000e3cb33189,Taqueria MONTANA,17.076782,-96.72606,,Oaxaca,Oaxaca,,,,,MX,2016-10-18,2017-02-27,,,,,,,,['4bf58dd8d48988d151941735'],['Dining and Drinking > Restaurant > Mexican Restaurant > Taco Restaurant'],https://foursquare.com/placemakers/review-place/5805898538fa000e3cb33189,b'\x00\x00\x00\x00\x01\xc0X.w\xc4\\\xbb\xc3@1\x13\xa7\xfc2\xeb\xe6',"{'xmin': -96.72606, 'ymin': 17.076782, 'xmax': -96.72606, 'ymax': 17.076782}",dining and drinking > restaurant > mexican restaurant > taco restaurant,1
4f776c2ae4b03b459d6c96ae,Tortilleria Juarez,20.70111081523243,-101.35837810431634,,,,,,,,MX,2012-03-31,2021-02-04,,,,,,,,['4bf58dd8d48988d151941735'],['Dining and Drinking > Restaurant > Mexican Restaurant > Taco Restaurant'],https://foursquare.com/placemakers/review-place/4f776c2ae4b03b459d6c96ae,b'\x00\x00\x00\x00\x01\xc0YV\xef\xaa\xb7i\t@4\xb3{\xff\x96K\x91',"{'xmin': -101.35837810431634, 'ymin': 20.70111081523243, 'xmax': -101.35837810431634, 'ymax': 20.70111081523243}",dining and drinking > restaurant > mexican restaurant > taco restaurant,1
5601831f498e69e59b65b9a4,Trici tacos 🐽,14.890751811290336,-92.25840669480506,22 Oriente,Tapachula,,,,,,MX,2015-09-22,2015-09-25,,,,,,,,['4bf58dd8d48988d151941735'],['Dining and Drinking > Restaurant > Mexican Restaurant > Taco Restaurant'],https://foursquare.com/placemakers/review-place/5601831f498e69e59b65b9a4,b'\x00\x00\x00\x00\x01\xc0W\x10\x89\xbc;\xd0U@-\xc8\x10\x9f\x14\xb0\x84',"{'xmin': -92.25840669480506, 'ymin': 14.890751811290336, 'xmax': -92.25840669480506, 'ymax': 14.890751811290336}",dining and drinking > restaurant > mexican restaurant > taco restaurant,1
58c5a4807b88a758fa27e65b,takirris,19.271237,-99.640221,Avenida solidaridad las torres #809,Toluca de Lerdo,México,50140,,,,MX,2017-03-12,2017-03-12,,,,,,,,['4bf58dd8d48988d151941735'],['Dining and Drinking > Restaurant > Mexican Restaurant > Taco Restaurant'],https://foursquare.com/placemakers/review-place/58c5a4807b88a758fa27e65b,b'\x00\x00\x00\x00\x01\xc0X\xe8\xf9a\x80M\x98@3Eo\xc9\xbcw\x14',"{'xmin': -99.640221, 'ymin': 19.271237, 'xmax': -99.640221, 'ymax': 19.271237}",dining and drinking > restaurant > mexican restaurant > taco restaurant,1
508c7e5ae4b02ba9b203736b,Taqueria La Parrilla Suiza,19.27987,-99.676655,,,,,,,,MX,2012-10-28,2016-08-06,,,,,,,,['4bf58dd8d48988d151941735'],['Dining and Drinking > Restaurant > Mexican Restaurant > Taco Restaurant'],https://foursquare.com/placemakers/review-place/508c7e5ae4b02ba9b203736b,b'\x00\x00\x00\x00\x01\xc0X\xebNP\xc5\xeb1@3G\xa5\x8fq!\xab',"{'xmin': -99.676655, 'ymin': 19.27987, 'xmax': -99.676655, 'ymax': 19.27987}",dining and drinking > restaurant > mexican restaurant > taco restaurant,1
612157ef17b63c646ab7e0a4,La Jefa “Antojeria Con Madre”,19.337318,-99.149997,Avenida Pacifico 362,Ciudad de México,CDMX,04330,,,,MX,2021-08-21,2021-10-21,,,,,,,,"['4bf58dd8d48988d1c1941735' '58daa1558bbb0b01f18ec1d9'
 '4bf58dd8d48988d151941735']","['Dining and Drinking > Restaurant > Mexican Restaurant'
 'Dining and Drinking > Restaurant > Mexican Restaurant > Botanero'
 'Dining and Drinking > Restaurant > Mexican Restaurant > Taco Restaurant']",https://foursquare.com/placemakers/review-place/612157ef17b63c646ab7e0a4,b'\x00\x00\x00\x00\x01\xc0X\xc9\x99\x8d\x04_\xe1@3VZx\xf2Z%',"{'xmin': -99.149997, 'ymin': 19.337318, 'xmax': -99.149997, 'ymax': 19.337318}","dining and drinking > restaurant > mexican restaurant, dining and drinking > restaurant > mexican restaurant > botanero, dining and drinking > restaurant > mexican restaurant > taco restaurant",1
588cda12e309e12070a2a855,"Birria de Chivo ""Don Pepe""",19.203514,-101.71608,,Ario de Rosales,Michoacán,61830,,,,MX,2017-01-28,2017-12-10,,,,,,,,['4bf58dd8d48988d151941735'],['Dining and Drinking > Restaurant > Mexican Restaurant > Taco Restaurant'],https://foursquare.com/placemakers/review-place/588cda12e309e12070a2a855,b'\x00\x00\x00\x00\x01\xc0Ym\xd4A5Tv@34\x19~VG4',"{'xmin': -101.71608, 'ymin': 19.203514, 'xmax': -101.71608, 'ymax': 19.203514}",dining and drinking > restaurant > mexican restaurant > taco restaurant,1
63408ba082498f34648225cc,Quesadillas De La Becal,19.297034,-99.226073,Becal,Tlalpan,CDMX,14240,,,,MX,2022-10-07,2024-03-24,,,,,,,,['4bf58dd8d48988d151941735'],['Dining and Drinking > Restaurant > Mexican Restaurant > Taco Restaurant'],https://foursquare.com/placemakers/review-place/63408ba082498f34648225cc,b'\x00\x00\x00\x00\x01\xc0X\xcew\xfa\xe3`\x8d@3L\nk\x93\xcc\xd1',"{'xmin': -99.226073, 'ymin': 19.297034, 'xmax': -99.226073, 'ymax': 19.297034}",dining and drinking > restaurant > mexican restaurant > taco restaurant,1
4f3ea8a1e4b0c9cefe9d5b9c,Taco Inn,19.28376,-99.13558,ITESM CCM,,DF,,,,,MX,2012-02-17,2012-03-11,,,http://www.itesm.edu/wps/wcm/connect/Campus/CCM/Ciudad+de+Mexico/,,,,Tec_CCM,['4bf58dd8d48988d151941735'],['Dining and Drinking > Restaurant > Mexican Restaurant > Taco Restaurant'],https://foursquare.com/placemakers/review-place/4f3ea8a1e4b0c9cefe9d5b9c,b'\x00\x00\x00\x00\x01\xc0X\xc8\xadW\xbc\x7fx@3H\xa4~\xcf\xe9\xb8',"{'xmin': -99.13558, 'ymin': 19.28376, 'xmax': -99.13558, 'ymax': 19.28376}",dining and drinking > restaurant > mexican restaurant > taco restaurant,1
59279797d1a4025588bcef63,"Tacos ""El Chispale""",20.688108,-101.328285,,,Guanajuato,,,,,MX,2017-05-26,2018-04-21,,,,,,,,['4bf58dd8d48988d151941735'],['Dining and Drinking > Restaurant > Mexican Restaurant > Taco Restaurant'],https://foursquare.com/placemakers/review-place/59279797d1a4025588bcef63,"b""\x00\x00\x00\x00\x01\xc0YU\x02\x9f\x16\xb1\x1c@4\xb0'\xd8\x8c\x1d\xb0""","{'xmin': -101.328285, 'ymin': 20.688108, 'xmax': -101.328285, 'ymax': 20.688108}",dining and drinking > restaurant > mexican restaurant > taco restaurant,1
4ed9ccbe5c5c96a2fd8c1633,Taqueria Tacolocho,14.905341088897062,-92.25791149241549,,,,,,,,MX,2011-12-03,2024-10-20,,,,,,,,['4bf58dd8d48988d151941735'],['Dining and Drinking > Restaurant > Mexican Restaurant > Taco Restaurant'],https://foursquare.com/placemakers/review-place/4ed9ccbe5c5c96a2fd8c1633,b'\x00\x00\x00\x00\x01\xc0W\x10\x81\x9f4K\xf9@-\xcf\x88\xde\x01\x13i',"{'xmin': -92.25791149241549, 'ymin': 14.905341088897062, 'xmax': -92.25791149241549, 'ymax': 14.905341088897062}",dining and drinking > restaurant > mexican restaurant > taco restaurant,1
4cbe4beb19ceb1f766f41ccd,Tacos Don Martin,20.476938813138787,-100.96715341561463,Fernando montes de oca,Cortázar,GTO,,,,,MX,2010-10-20,2010-10-20,,,,,,,,['4bf58dd8d48988d151941735'],['Dining and Drinking > Restaurant > Mexican Restaurant > Taco Restaurant'],https://foursquare.com/placemakers/review-place/4cbe4beb19ceb1f766f41ccd,b'\x00\x00\x00\x00\x01\xc0Y=\xe5\xd7p\x91\xe4@4z\x18\xa9|\x9f\xc8',"{'xmin': -100.96715341561463, 'ymin': 20.476938813138787, 'xmax': -100.96715341561463, 'ymax': 20.476938813138787}",dining and drinking > restaurant > mexican restaurant > taco restaurant,1
5b80a64c06fb60002c9a1b08,Tacos Estrada,18.890686,-96.95078,Calle 18 A,Córdoba,Veracruz,94575,,,,MX,2018-08-25,2018-11-16,,,,,,,,['4bf58dd8d48988d151941735'],['Dining and Drinking > Restaurant > Mexican Restaurant > Taco Restaurant'],https://foursquare.com/placemakers/review-place/5b80a64c06fb60002c9a1b08,b'\x00\x00\x00\x00\x01\xc0X<\xd9\x94[l7@2\xe4\x03\xffi\x01K',"{'xmin': -96.95078, 'ymin': 18.890686, 'xmax': -96.95078, 'ymax': 18.890686}",dining and drinking > restaurant > mexican restaurant > taco restaurant,1
