fsq_place_id,name,latitude,longitude,address,locality,region,postcode,admin_region,post_town,po_box,country,date_created,date_refreshed,date_closed,tel,website,email,facebook_id,instagram,twitter,fsq_category_ids,fsq_category_labels,geom,bbox,labels_str,taco_restaurant
4f91da58e4b06cfe84806f6e,Guisado De Mariscos El Atunero,31.83813,-116.610238,,,,,,,,MX,2012-04-20,2021-08-13,,,,,,,,['4bf58dd8d48988d151941735'],['Dining and Drinking > Restaurant > Mexican Restaurant > Taco Restaurant'],"b""\x00\x00\x00\x00\x01\xc0]'\x0e#\xaf1\xb1@?\xd6\x8f\xb0\x0b\xcb\xe6""","{'xmin': -116.610238, 'ymin': 31.83813, 'xmax': -116.610238, 'ymax': 31.83813}",dining and drinking > restaurant > mexican restaurant > taco restaurant,1
4f830243e4b023c63b071b02,Tacos De Guisado Hictan,32.63994951031754,-115.4189066163381,,,,,,,,MX,2012-04-09,2021-08-15,,,,,,,,['4bf58dd8d48988d151941735'],['Dining and Drinking > Restaurant > Mexican Restaurant > Taco Restaurant'],b'\x00\x00\x00\x00\x01\xc0\\\xda\xcf]\xb2P\x03@@Q\xe9\xdd\x94\xf3\xd9',"{'xmin': -115.4189066163381, 'ymin': 32.63994951031754, 'xmax': -115.4189066163381, 'ymax': 32.63994951031754}",dining and drinking > restaurant > mexican restaurant > taco restaurant,1
57df6230498ebe11ddaafc6a,Tacos,32.516591,-116.895631,Jardin Dorado (Av. Fco. Villa y Calle San Felipe),,,,,,,MX,2016-09-19,2021-08-13,,,,,,,,['4bf58dd8d48988d151941735'],['Dining and Drinking > Restaurant > Mexican Restaurant > Taco Restaurant'],b'\x00\x00\x00\x00\x01\xc0]9R\x04\xaf\x92)@@B\x1f\xa7e47',"{'xmin': -116.895631, 'ymin': 32.516591, 'xmax': -116.895631, 'ymax': 32.516591}",dining and drinking > restaurant > mexican restaurant > taco restaurant,1
500f1117e4b0019f7ce856a8,Tacos Varios De La 9,32.529894,-117.023168,,,,,,,,MX,2012-07-24,2021-08-15,,,,,,,,['4bf58dd8d48988d151941735'],['Dining and Drinking > Restaurant > Mexican Restaurant > Taco Restaurant'],"b'\x00\x00\x00\x00\x01\xc0]A{\x95\xa2\x94\x14@@C\xd3\x91\x0c,^'","{'xmin': -117.023168, 'ymin': 32.529894, 'xmax': -117.023168, 'ymax': 32.529894}",dining and drinking > restaurant > mexican restaurant > taco restaurant,1
577b1d97498e104f5f9022e1,Cebocitos de Cajeme,32.523846,-117.030535,,,,,,,,MX,2016-07-05,2021-08-16,,,,,,,,['4bf58dd8d48988d151941735'],['Dining and Drinking > Restaurant > Mexican Restaurant > Taco Restaurant'],b'\x00\x00\x00\x00\x01\xc0]A\xf4I\x12\x98\x89@@C\rb\xbf\x11\xf9',"{'xmin': -117.030535, 'ymin': 32.523846, 'xmax': -117.030535, 'ymax': 32.523846}",dining and drinking > restaurant > mexican restaurant > taco restaurant,1
5019813fe4b004b5052f91aa,tacis de birria Antonio,32.478065490722656,-116.92192077636719,,,,,,,,MX,2012-08-01,2020-11-23,,,,,,,,['4bf58dd8d48988d151941735'],['Dining and Drinking > Restaurant > Mexican Restaurant > Taco Restaurant'],b'\x00\x00\x00\x00\x01\xc0];\x00\xc0\x00\x00\x00@@=1@\x00\x00\x00',"{'xmin': -116.92192077636719, 'ymin': 32.478065490722656, 'xmax': -116.92192077636719, 'ymax': 32.478065490722656}",dining and drinking > restaurant > mexican restaurant > taco restaurant,1
4d5049b2d7eaa143f84b660f,Tacos Lalo Al Vapor,32.5480289333445,-116.04628594630721,Poblado la Rumorosa,,,,,,,MX,2011-02-07,2021-08-17,,,,,,,,['4bf58dd8d48988d151941735'],['Dining and Drinking > Restaurant > Mexican Restaurant > Taco Restaurant'],b'\x00\x00\x00\x00\x01\xc0]\x02\xf6YTi\xd9@@F%\xcf\xe4\xfc\xfa',"{'xmin': -116.04628594630721, 'ymin': 32.5480289333445, 'xmax': -116.04628594630721, 'ymax': 32.5480289333445}",dining and drinking > restaurant > mexican restaurant > taco restaurant,1
66b43dbb0798371ebb2bfe87,Carbones,31.867952,-116.629104,,Ensenada,B.C.,22800,,,,MX,2024-08-08,2024-08-08,,,,,,,,['4bf58dd8d48988d1df931735' '4bf58dd8d48988d151941735'],"['Dining and Drinking > Restaurant > BBQ Joint'
 'Dining and Drinking > Restaurant > Mexican Restaurant > Taco Restaurant']",b'\x00\x00\x00\x00\x01\xc0](C=lr\x19@?\xde2\x1a.\x7fo',"{'xmin': -116.629104, 'ymin': 31.867952, 'xmax': -116.629104, 'ymax': 31.867952}","dining and drinking > restaurant > bbq joint, dining and drinking > restaurant > mexican restaurant > taco restaurant",1
4bd27171caff952108fad2f0,Asadero Acatlan de Juarez,32.64429197416032,-115.49005822735106,Calzada Independencia,Mexicali,BCN,21050,,,,MX,2010-04-24,2023-12-21,,686 582 5098,,,,,,['4bf58dd8d48988d151941735'],['Dining and Drinking > Restaurant > Mexican Restaurant > Taco Restaurant'],b'\x00\x00\x00\x00\x01\xc0\\\xdf]\x1d.\xe6\xf2@@Rx(\xcf\x0c\x03',"{'xmin': -115.49005822735106, 'ymin': 32.64429197416032, 'xmax': -115.49005822735106, 'ymax': 32.64429197416032}",dining and drinking > restaurant > mexican restaurant > taco restaurant,1
5966db4dc0af57581bf23ba7,Taqueria Pino Suarez,20.728243,-103.390716,,Zapopan,JAL,45100,,,,MX,2017-07-13,2020-11-23,,,,,,,,['4bf58dd8d48988d151941735'],['Dining and Drinking > Restaurant > Mexican Restaurant > Taco Restaurant'],"b'\x00\x00\x00\x00\x01\xc0Y\xd9\x01}\xae\x81\x88@4\xban""\x1c\x8az'","{'xmin': -103.390716, 'ymin': 20.728243, 'xmax': -103.390716, 'ymax': 20.728243}",dining and drinking > restaurant > mexican restaurant > taco restaurant,1
634b709befd08b4790499b94,Tacos De La Cruz,20.690589,-103.289154,Hacienda La Piedra 3078,Guadalajara,JAL,44720,,,,MX,2022-10-16,2022-10-16,,,,,,,,['4bf58dd8d48988d151941735'],['Dining and Drinking > Restaurant > Mexican Restaurant > Taco Restaurant'],b'\x00\x00\x00\x00\x01\xc0Y\xd2\x81\x7f\xc7`|@4\xb0\xcap\xd1\xfa3',"{'xmin': -103.289154, 'ymin': 20.690589, 'xmax': -103.289154, 'ymax': 20.690589}",dining and drinking > restaurant > mexican restaurant > taco restaurant,1
5cc3dc5b04d1ae002c5b9963,Tacos veganos ISIS,20.674967,-103.358516,,Guadalajara,JAL,44200,,,,MX,2019-04-27,2021-08-15,,,,,,,,['4bf58dd8d48988d151941735'],['Dining and Drinking > Restaurant > Mexican Restaurant > Taco Restaurant'],b'\x00\x00\x00\x00\x01\xc0Y\xd6\xf1\xed\x17\xc5\xef@4\xac\xca\xa3&\xe1\x15',"{'xmin': -103.358516, 'ymin': 20.674967, 'xmax': -103.358516, 'ymax': 20.674967}",dining and drinking > restaurant > mexican restaurant > taco restaurant,1
582e7d539b615c49204efee6,tacos de la depre,20.726852,-103.324233,,,,,,,,MX,2016-11-18,2021-08-17,,,,,,,,['4bf58dd8d48988d151941735'],['Dining and Drinking > Restaurant > Mexican Restaurant > Taco Restaurant'],b'\x00\x00\x00\x00\x01\xc0Y\xd4\xc0;\xc4\xd2-@4\xba\x12\xf9\x01\x08>',"{'xmin': -103.324233, 'ymin': 20.726852, 'xmax': -103.324233, 'ymax': 20.726852}",dining and drinking > restaurant > mexican restaurant > taco restaurant,1
5162d345e4b0bc77dbad20fd,Tacos Mario,20.63014095654759,-103.25173628815502,,,,,,,,MX,2013-04-08,2021-08-14,,,,,,,,['4bf58dd8d48988d151941735'],['Dining and Drinking > Restaurant > Mexican Restaurant > Taco Restaurant'],b'\x00\x00\x00\x00\x01\xc0Y\xd0\x1cr\x855\xe7@4\xa1P\xea\xf0=\xf7',"{'xmin': -103.25173628815502, 'ymin': 20.63014095654759, 'xmax': -103.25173628815502, 'ymax': 20.63014095654759}",dining and drinking > restaurant > mexican restaurant > taco restaurant,1
4f09d7ebe4b039f5ae5fc737,Tacos al Vapor de la Doña de la Carretera,21.00469938480121,-104.1436239458705,Crta. Guadalajara - Tepic,Magdalena,JAL,,,,,MX,2012-01-08,2020-11-24,,,,,,,,['4bf58dd8d48988d151941735'],['Dining and Drinking > Restaurant > Mexican Restaurant > Taco Restaurant'],"b'\x00\x00\x00\x00\x01\xc0Z\t1""}\x9b\xec@5\x013\xfa\x98\x08S'","{'xmin': -104.1436239458705, 'ymin': 21.00469938480121, 'xmax': -104.1436239458705, 'ymax': 21.00469938480121}",dining and drinking > restaurant > mexican restaurant > taco restaurant,1
56322918498e36ed087e87df,Tacos El Chocholique,20.649499143920377,-103.32277261014994,,Guadalajara,,,,,,MX,2015-10-29,2021-08-12,,,,,,,,['4bf58dd8d48988d151941735'],['Dining and Drinking > Restaurant > Mexican Restaurant > Taco Restaurant'],b'\x00\x00\x00\x00\x01\xc0Y\xd4\xa8Ns(\xde@4\xa6E\x93m\xeb\x03',"{'xmin': -103.32277261014994, 'ymin': 20.649499143920377, 'xmax': -103.32277261014994, 'ymax': 20.649499143920377}",dining and drinking > restaurant > mexican restaurant > taco restaurant,1
59360b79123a196a4d184f03,"Tacos ""Los Güeros""",20.762816,-103.439747,,Guadalajara,JAL,45138,,,,MX,2017-06-06,2020-11-23,,,,,,,,['4bf58dd8d48988d151941735'],['Dining and Drinking > Restaurant > Mexican Restaurant > Taco Restaurant'],b'\x00\x00\x00\x00\x01\xc0Y\xdc$\xd0\x99\xe0\xe7@4\xc3G\xe8\xcc\xdd\x94',"{'xmin': -103.439747, 'ymin': 20.762816, 'xmax': -103.439747, 'ymax': 20.762816}",dining and drinking > restaurant > mexican restaurant > taco restaurant,1
51b4b3a5498ee782fb8170a5,Menudo Doña Silvia,20.65278229204958,-103.28454636037807,Refugio Rubio,Guadalajara,Jalisco,,,,,MX,2013-06-09,2021-08-16,,,,,,,,['4bf58dd8d48988d151941735'],['Dining and Drinking > Restaurant > Mexican Restaurant > Taco Restaurant'],b'\x00\x00\x00\x00\x01\xc0Y\xd26\x01\xf0\x01B@4\xa7\x1c\xbd\x83\xc2\xc8',"{'xmin': -103.28454636037807, 'ymin': 20.65278229204958, 'xmax': -103.28454636037807, 'ymax': 20.65278229204958}",dining and drinking > restaurant > mexican restaurant > taco restaurant,1
52c6252d498eced049d28a8c,la brasilla,20.528239400215234,-100.80560216255364,Arrollo ch,Alameda,Guanajuato,,,,,MX,2014-01-03,2020-11-25,,,,,,,,['4bf58dd8d48988d151941735'],['Dining and Drinking > Restaurant > Mexican Restaurant > Taco Restaurant'],b'\x00\x00\x00\x00\x01\xc0Y3\x8e\xfc_pN@4\x87:\xb2\x84b\x12',"{'xmin': -100.80560216255364, 'ymin': 20.528239400215234, 'xmax': -100.80560216255364, 'ymax': 20.528239400215234}",dining and drinking > restaurant > mexican restaurant > taco restaurant,1
50e3b196e4b0869e73b94be7,Tacos Jalisco,20.943498847401788,-101.42933750683558,Obregon Esq. Carrillo Puerto,Silao,Guanajuato,,,,,MX,2013-01-02,2020-11-25,,,,,,,,['4bf58dd8d48988d151941735'],['Dining and Drinking > Restaurant > Mexican Restaurant > Taco Restaurant'],b'\x00\x00\x00\x00\x01\xc0Y[zD\x05\xb3\x85@4\xf1\x89#\xf5g\x85',"{'xmin': -101.42933750683558, 'ymin': 20.943498847401788, 'xmax': -101.42933750683558, 'ymax': 20.943498847401788}",dining and drinking > restaurant > mexican restaurant > taco restaurant,1
5706cdee498ea5a841a651b9,tacos carnes pacos,20.669746,-103.381302,,,,,,,,MX,2016-04-07,2021-08-17,,,,,,,,['4bf58dd8d48988d151941735'],['Dining and Drinking > Restaurant > Mexican Restaurant > Taco Restaurant'],b'\x00\x00\x00\x00\x01\xc0Y\xd8g@\x80\xf9\x90@4\xabtyN\xa0w',"{'xmin': -103.381302, 'ymin': 20.669746, 'xmax': -103.381302, 'ymax': 20.669746}",dining and drinking > restaurant > mexican restaurant > taco restaurant,1
4e80aeefd3e3d96ca84d03a2,Tacos El Gallo JR.,20.696734791811856,-103.32947749033457,,Guadalajara,Jalisco,,,,,MX,2011-09-26,2021-08-13,,,,,,,,['4bf58dd8d48988d151941735'],['Dining and Drinking > Restaurant > Mexican Restaurant > Taco Restaurant'],b'\x00\x00\x00\x00\x01\xc0Y\xd5\x16(\xc1pT@4\xb2]6\x18\xd1:',"{'xmin': -103.32947749033457, 'ymin': 20.696734791811856, 'xmax': -103.32947749033457, 'ymax': 20.696734791811856}",dining and drinking > restaurant > mexican restaurant > taco restaurant,1
524863fb498eea1143ab247a,tacos el güero,20.691256909529592,-103.30137463310146,,,,,,,,MX,2013-09-29,2021-08-22,,,,,,,,['4bf58dd8d48988d151941735'],['Dining and Drinking > Restaurant > Mexican Restaurant > Taco Restaurant'],b'\x00\x00\x00\x00\x01\xc0Y\xd3I\xb8\xd4@\xf2@4\xb0\xf66{\x90J',"{'xmin': -103.30137463310146, 'ymin': 20.691256909529592, 'xmax': -103.30137463310146, 'ymax': 20.691256909529592}",dining and drinking > restaurant > mexican restaurant > taco restaurant,1
4f1ed507e4b0aaaecde7c768,Tacos Al Vapor La 54,20.665277786443795,-103.31711123842375,La 54,Guadalajara,Jalisco,,,,,MX,2012-01-24,2021-08-14,,,,,,,,['4bf58dd8d48988d151941735'],['Dining and Drinking > Restaurant > Mexican Restaurant > Taco Restaurant'],b'\x00\x00\x00\x00\x01\xc0Y\xd4K\x8c\xef\x8eW@4\xaaO\xa5\x1f\x88\x08',"{'xmin': -103.31711123842375, 'ymin': 20.665277786443795, 'xmax': -103.31711123842375, 'ymax': 20.665277786443795}",dining and drinking > restaurant > mexican restaurant > taco restaurant,1
035dde5157e94b3234705e46,Cocina Economica Cervantes,21.474652,-101.220458,Diligencia 31B,San Felipe,Guanajuato,37600,,,,MX,2013-04-05,2023-12-06,,428 685 2232,,,,,,['4bf58dd8d48988d151941735'],['Dining and Drinking > Restaurant > Mexican Restaurant > Taco Restaurant'],"b'\x00\x00\x00\x00\x01\xc0YN\x1b\xfb\xdf\t\x0f@5y\x82\xcb \xfb""'","{'xmin': -101.220458, 'ymin': 21.474652, 'xmax': -101.220458, 'ymax': 21.474652}",dining and drinking > restaurant > mexican restaurant > taco restaurant,1
52c777ff11d21d7bf2b6df4f,Taquería Ahuani,19.674632,-101.191888,,,,,,,,MX,2014-01-04,2021-08-16,,,,,,,,['4bf58dd8d48988d151941735'],['Dining and Drinking > Restaurant > Mexican Restaurant > Taco Restaurant'],b'\x00\x00\x00\x00\x01\xc0YLG\xe4\x9b\x1f\xac@3\xac\xb4\xae\xc8\xd5\xc7',"{'xmin': -101.191888, 'ymin': 19.674632, 'xmax': -101.191888, 'ymax': 19.674632}",dining and drinking > restaurant > mexican restaurant > taco restaurant,1
5421953a498ef6d4a6c4d363,Tacos de perro 3 por Cáncer,20.66018,-103.324118,,,,,,,,MX,2014-09-23,2021-08-14,,,,,,,,['4bf58dd8d48988d151941735'],['Dining and Drinking > Restaurant > Mexican Restaurant > Taco Restaurant'],b'\x00\x00\x00\x00\x01\xc0Y\xd4\xbeYl\x82\xe0@4\xa9\x01\x8euy)',"{'xmin': -103.324118, 'ymin': 20.66018, 'xmax': -103.324118, 'ymax': 20.66018}",dining and drinking > restaurant > mexican restaurant > taco restaurant,1
4f33f8ade4b06e8ecc678568,Loncheria Chivas Jr,21.267516246778246,-102.31515535921845,,San Juan De Los Lagos,,,,,,MX,2012-02-09,2020-11-22,,,,,,,,['4bf58dd8d48988d151941735'],['Dining and Drinking > Restaurant > Mexican Restaurant > Taco Restaurant'],"b""\x00\x00\x00\x00\x01\xc0Y\x94+\x81b@'@5D{\xf1\xdb\x0f\xad""","{'xmin': -102.31515535921845, 'ymin': 21.267516246778246, 'xmax': -102.31515535921845, 'ymax': 21.267516246778246}",dining and drinking > restaurant > mexican restaurant > taco restaurant,1
56b2634038fab575f3097b98,Tacos y Tortas Colombia,21.86988064345982,-102.3023721082876,,,,,,,,MX,2016-02-03,2021-08-13,,,,,,,,['4bf58dd8d48988d151941735'],['Dining and Drinking > Restaurant > Mexican Restaurant > Taco Restaurant'],b'\x00\x00\x00\x00\x01\xc0Y\x93Z\x10\x8b\x14W@5\xde\xb0\x7fs\x15W',"{'xmin': -102.3023721082876, 'ymin': 21.86988064345982, 'xmax': -102.3023721082876, 'ymax': 21.86988064345982}",dining and drinking > restaurant > mexican restaurant > taco restaurant,1
64683009b0656f21623a92f9,El Divino Lechón,21.153131,-101.727757,Blvd. Campestre 2804,León,Guanajuato,37358,,,,MX,2023-05-20,2023-05-20,,,,,,,,['4bf58dd8d48988d151941735'],['Dining and Drinking > Restaurant > Mexican Restaurant > Taco Restaurant'],"b""\x00\x00\x00\x00\x01\xc0Yn\x93\x92\x18\x9b\xd8@5'3\x97\xdd\x00\xf7""","{'xmin': -101.727757, 'ymin': 21.153131, 'xmax': -101.727757, 'ymax': 21.153131}",dining and drinking > restaurant > mexican restaurant > taco restaurant,1
50501621e4b04e8a4c14d164,the student,20.515324,-100.8480675,,,,,,,,MX,2012-09-12,2021-08-13,,,,,,,,['4bf58dd8d48988d151941735'],['Dining and Drinking > Restaurant > Mexican Restaurant > Taco Restaurant'],b'\x00\x00\x00\x00\x01\xc0Y6F\xbc\xe8S;@4\x83\xecF\x0e\xd8\n',"{'xmin': -100.8480675, 'ymin': 20.515324, 'xmax': -100.8480675, 'ymax': 20.515324}",dining and drinking > restaurant > mexican restaurant > taco restaurant,1
5291662711d2bcc69881a048,Tacos Mario,20.730164,-103.422576,,,,,,,,MX,2013-11-24,2021-08-17,,,,,,,,['4bf58dd8d48988d151941735'],['Dining and Drinking > Restaurant > Mexican Restaurant > Taco Restaurant'],b'\x00\x00\x00\x00\x01\xc0Y\xdb\x0b|5\x04\xc5@4\xba\xec\x07$\xb7o',"{'xmin': -103.422576, 'ymin': 20.730164, 'xmax': -103.422576, 'ymax': 20.730164}",dining and drinking > restaurant > mexican restaurant > taco restaurant,1
90ed873bbd924218922d240c,Venta de Tacos,20.53216,-104.0276,Calle 16 de Septiembre 14,Ameca,Jalisco,46700,,,,MX,2010-11-04,2023-12-08,,,,,,,,['4bf58dd8d48988d151941735'],['Dining and Drinking > Restaurant > Mexican Restaurant > Taco Restaurant'],b'\x00\x00\x00\x00\x01\xc0Z\x01\xc42\xcaW\xa8@4\x88;\xa3D=G',"{'xmin': -104.0276, 'ymin': 20.53216, 'xmax': -104.0276, 'ymax': 20.53216}",dining and drinking > restaurant > mexican restaurant > taco restaurant,1
4efe12ad8231bcb702284ade,Tortas Ahogadas Carlos,20.628217925283213,-103.41717470335792,Calle Virgen,Zapopan,Jalisco,45080,,,,MX,2011-12-30,2020-11-25,,,,,,,,['4bf58dd8d48988d151941735' '4bf58dd8d48988d1c1941735'],"['Dining and Drinking > Restaurant > Mexican Restaurant > Taco Restaurant'
 'Dining and Drinking > Restaurant > Mexican Restaurant']",b'\x00\x00\x00\x00\x01\xc0Y\xda\xb2\xfd\x86\xe9\x02@4\xa0\xd2\xe3\xd3\xda5',"{'xmin': -103.41717470335792, 'ymin': 20.628217925283213, 'xmax': -103.41717470335792, 'ymax': 20.628217925283213}","dining and drinking > restaurant > mexican restaurant > taco restaurant, dining and drinking > restaurant > mexican restaurant",1
59279797d1a4025588bcef63,"Tacos ""El Chispale""",20.688108,-101.328285,,,Guanajuato,,,,,MX,2017-05-26,2020-11-30,,,,,,,,['4bf58dd8d48988d151941735'],['Dining and Drinking > Restaurant > Mexican Restaurant > Taco Restaurant'],"b""\x00\x00\x00\x00\x01\xc0YU\x02\x9f\x16\xb1\x1c@4\xb0'\xd8\x8c\x1d\xb0""","{'xmin': -101.328285, 'ymin': 20.688108, 'xmax': -101.328285, 'ymax': 20.688108}",dining and drinking > restaurant > mexican restaurant > taco restaurant,1
512f895fe4b0a50f8b93adea,Tacos don ventura,21.888458251953125,-102.30516052246094,,,,,,,,MX,2013-02-28,2021-08-16,,,,,,,,['4bf58dd8d48988d151941735'],['Dining and Drinking > Restaurant > Mexican Restaurant > Taco Restaurant'],b'\x00\x00\x00\x00\x01\xc0Y\x93\x87\xc0\x00\x00\x00@5\xe3r\x00\x00\x00\x00',"{'xmin': -102.30516052246094, 'ymin': 21.888458251953125, 'xmax': -102.30516052246094, 'ymax': 21.888458251953125}",dining and drinking > restaurant > mexican restaurant > taco restaurant,1
536836fb498e76d4175d8ec4,Tacos Ana,20.428346,-103.588169,,,,,,,,MX,2014-05-06,2023-12-20,,387 772 0860,,,,,,['4bf58dd8d48988d151941735'],['Dining and Drinking > Restaurant > Mexican Restaurant > Taco Restaurant'],b'\x00\x00\x00\x00\x01\xc0Y\xe5\xa4\x8f\x96\xe1X@4m\xa8\x15]_W',"{'xmin': -103.588169, 'ymin': 20.428346, 'xmax': -103.588169, 'ymax': 20.428346}",dining and drinking > restaurant > mexican restaurant > taco restaurant,1
59285f33aa6c952299ef6a04,Tacos El Primo,22.1877,-100.938934,Guerrero,Soledad de Graciano Sánchez,San Luis Potosí,,,,,MX,2017-05-26,2020-11-30,,,,,,,,['4bf58dd8d48988d151941735'],['Dining and Drinking > Restaurant > Mexican Restaurant > Taco Restaurant'],b'\x00\x00\x00\x00\x01\xc0Y<\x17~\xa1\xc6\x8f@60\r\x1bqu\x8e',"{'xmin': -100.938934, 'ymin': 22.1877, 'xmax': -100.938934, 'ymax': 22.1877}",dining and drinking > restaurant > mexican restaurant > taco restaurant,1
569471ae38fa02813d1cf881,Tacos Molina,20.572600419314334,-100.74499316672696,,,,,,,,MX,2016-01-12,2021-08-12,,,,,,,,['4bf58dd8d48988d151941735'],['Dining and Drinking > Restaurant > Mexican Restaurant > Taco Restaurant'],b'\x00\x00\x00\x00\x01\xc0Y/\xad\xf7\xd1\xb5}@4\x92\x95\xf0\xea\xa1\x86',"{'xmin': -100.74499316672696, 'ymin': 20.572600419314334, 'xmax': -100.74499316672696, 'ymax': 20.572600419314334}",dining and drinking > restaurant > mexican restaurant > taco restaurant,1
54013526498ef5492ab977f2,"taquería ""MIN""",21.868032640812867,-102.90925796187226,,,,,,,,MX,2014-08-30,2021-08-13,,,,,,,,['4bf58dd8d48988d151941735'],['Dining and Drinking > Restaurant > Mexican Restaurant > Taco Restaurant'],b'\x00\x00\x00\x00\x01\xc0Y\xba1HNw\x9d@5\xde7c\x1c&\xdb',"{'xmin': -102.90925796187226, 'ymin': 21.868032640812867, 'xmax': -102.90925796187226, 'ymax': 21.868032640812867}",dining and drinking > restaurant > mexican restaurant > taco restaurant,1
4f6bfc47e4b0f375f825a478,Tacotorro,21.888854,-102.288862,,,,,,,,MX,2012-03-23,2021-08-15,,,,,,,,['4bf58dd8d48988d151941735'],['Dining and Drinking > Restaurant > Mexican Restaurant > Taco Restaurant'],b'\x00\x00\x00\x00\x01\xc0Y\x92|\xb7\n\xc3\xa8@5\xe3\x8b\xef\x8c\xeb5',"{'xmin': -102.288862, 'ymin': 21.888854, 'xmax': -102.288862, 'ymax': 21.888854}",dining and drinking > restaurant > mexican restaurant > taco restaurant,1
6585c7e1c4a44e6f625a2694,El Infierno,20.534115,-100.84623,,Celaya,Guanajuato,38028,,,,MX,2023-12-22,2023-12-22,,,,,,,,['4bf58dd8d48988d151941735'],['Dining and Drinking > Restaurant > Mexican Restaurant > Taco Restaurant'],b'\x00\x00\x00\x00\x01\xc0Y6(\xa1\xdf\xb99@4\x88\xbb\xc2\xb9M\x94',"{'xmin': -100.84623, 'ymin': 20.534115, 'xmax': -100.84623, 'ymax': 20.534115}",dining and drinking > restaurant > mexican restaurant > taco restaurant,1
52d3637a498e0806e619f0bc,Tacos Los Güeros,20.738443,-103.361715,,,,,,,,MX,2014-01-13,2021-08-15,,,,,,,,['4bf58dd8d48988d151941735'],['Dining and Drinking > Restaurant > Mexican Restaurant > Taco Restaurant'],b'\x00\x00\x00\x00\x01\xc0Y\xd7&V\xab\xde@@4\xbd\n\x99\xb6\xf5\xcb',"{'xmin': -103.361715, 'ymin': 20.738443, 'xmax': -103.361715, 'ymax': 20.738443}",dining and drinking > restaurant > mexican restaurant > taco restaurant,1
5d50c37b46156b0008724d8d,"Taqueria "" El Chino""",19.280718,-104.7879,calle tamarindos #2B,La Manzanilla,Jalisco,,,,,MX,2019-08-12,2020-11-30,,,,,,,,['4bf58dd8d48988d151941735'],['Dining and Drinking > Restaurant > Mexican Restaurant > Taco Restaurant'],"b'\x00\x00\x00\x00\x01\xc0Z2l\xf4\x1f!-@3G\xdd""\x85f\x06'","{'xmin': -104.7879, 'ymin': 19.280718, 'xmax': -104.7879, 'ymax': 19.280718}",dining and drinking > restaurant > mexican restaurant > taco restaurant,1
6437779b8cbc6004e22278f6,Tacos Inés,21.179268,-101.66719,,León,Guanajuato,37100,,,,MX,2023-04-13,2023-04-13,,,,,,,,['4bf58dd8d48988d151941735'],['Dining and Drinking > Restaurant > Mexican Restaurant > Taco Restaurant'],b'\x00\x00\x00\x00\x01\xc0Yj\xb3=\xaf\x8d\xf8@5-\xe4\x81\xf58&',"{'xmin': -101.66719, 'ymin': 21.179268, 'xmax': -101.66719, 'ymax': 21.179268}",dining and drinking > restaurant > mexican restaurant > taco restaurant,1
506511f4e4b01053558af2ac,Tacos Los Tarascos,20.747245863358597,-103.38534645689843,Bosques De San Isidro 780,Zapopan,,,,,,MX,2012-09-28,2020-11-25,2013-10-22,,,,,,,['4bf58dd8d48988d151941735' '4bf58dd8d48988d1c1941735'],"['Dining and Drinking > Restaurant > Mexican Restaurant > Taco Restaurant'
 'Dining and Drinking > Restaurant > Mexican Restaurant']",b'\x00\x00\x00\x00\x01\xc0Y\xd8\xa9\x84/\x80\x87@4\xbfK\x81A2K',"{'xmin': -103.38534645689843, 'ymin': 20.747245863358597, 'xmax': -103.38534645689843, 'ymax': 20.747245863358597}","dining and drinking > restaurant > mexican restaurant > taco restaurant, dining and drinking > restaurant > mexican restaurant",1
517a9cd0498e2f018705d4af,La Parada Tacos Y Tortas,22.139259,-101.023248,Cordillera Del Sur 310-9,San Luis Potosí,San Luis Potosí,,,,,MX,2013-04-26,2020-11-30,,,,,,,,['4bf58dd8d48988d151941735'],['Dining and Drinking > Restaurant > Mexican Restaurant > Taco Restaurant'],b'\x00\x00\x00\x00\x01\xc0YA|\xe5-\xec\xa2@6#\xa6zR\xacu',"{'xmin': -101.023248, 'ymin': 22.139259, 'xmax': -101.023248, 'ymax': 22.139259}",dining and drinking > restaurant > mexican restaurant > taco restaurant,1
5faf49d3a5c0184c7e21f81a,Tacos Betote,20.523037,-100.82951,,Celaya,Guanajuato,38040,,,,MX,2020-11-14,2020-11-14,,,,,,,,['4bf58dd8d48988d151941735'],['Dining and Drinking > Restaurant > Mexican Restaurant > Taco Restaurant'],b'\x00\x00\x00\x00\x01\xc0Y5\x16\xb1\x1cm\x1e@4\x85\xe5\xc0\xb9\x99\x13',"{'xmin': -100.82951, 'ymin': 20.523037, 'xmax': -100.82951, 'ymax': 20.523037}",dining and drinking > restaurant > mexican restaurant > taco restaurant,1
4dec2bc8c65be8091dd38fea,La Talavera,22.146403,-100.968535,,,,,,,,MX,2011-06-06,2021-08-15,,,,,,,,['4bf58dd8d48988d151941735'],['Dining and Drinking > Restaurant > Mexican Restaurant > Taco Restaurant'],b'\x00\x00\x00\x00\x01\xc0Y=\xfcz9\x82\x02@6%z\xaa\xc1\tJ',"{'xmin': -100.968535, 'ymin': 22.146403, 'xmax': -100.968535, 'ymax': 22.146403}",dining and drinking > restaurant > mexican restaurant > taco restaurant,1
58dc08eee9233e27bfc5c11d,Tacos El Dany,20.632782,-103.408322,Tainguis Montemorelos,Guadalajara,JAL,45087,,,,MX,2017-03-29,2020-11-22,,,,,,,,['4bf58dd8d48988d151941735'],['Dining and Drinking > Restaurant > Mexican Restaurant > Taco Restaurant'],b'\x00\x00\x00\x00\x01\xc0Y\xda!\xf2\x99\x0f0@4\xa1\xfe\x00K\x7fZ',"{'xmin': -103.408322, 'ymin': 20.632782, 'xmax': -103.408322, 'ymax': 20.632782}",dining and drinking > restaurant > mexican restaurant > taco restaurant,1
5692f054498ee87de26b3825,Gorditas Juliantla,21.815575093734434,-100.93262286370279,,,,,,,,MX,2016-01-10,2021-08-14,,,,,,,,['4bf58dd8d48988d151941735'],['Dining and Drinking > Restaurant > Mexican Restaurant > Taco Restaurant'],b'\x00\x00\x00\x00\x01\xc0Y;\xb0\x17\xce\xc6\xbe@5\xd0\xc9\x87\x83\x05\x83',"{'xmin': -100.93262286370279, 'ymin': 21.815575093734434, 'xmax': -100.93262286370279, 'ymax': 21.815575093734434}",dining and drinking > restaurant > mexican restaurant > taco restaurant,1
5cc71182cf72a0002c994deb,Tacos El Norteño,22.146221,-100.973698,,San Luis Potosí,S.L.P.,78349,,,,MX,2019-04-29,2020-11-25,,,,,,,,['4bf58dd8d48988d151941735'],['Dining and Drinking > Restaurant > Mexican Restaurant > Taco Restaurant'],b'\x00\x00\x00\x00\x01\xc0Y>Q\x11j\x8b\x8f@6%n\xbdL\xfd\t',"{'xmin': -100.973698, 'ymin': 22.146221, 'xmax': -100.973698, 'ymax': 22.146221}",dining and drinking > restaurant > mexican restaurant > taco restaurant,1
4ef3f90002d574894f674d82,Tacos Don Prole (Estilo DF),21.922243794991058,-102.27478568590155,Adoratrices,,,,,,,MX,2011-12-23,2021-08-16,,,,,,,,['4bf58dd8d48988d151941735'],['Dining and Drinking > Restaurant > Mexican Restaurant > Taco Restaurant'],b'\x00\x00\x00\x00\x01\xc0Y\x91\x96\x16\xb3\x96\xca@5\xec\x18+Zl\xef',"{'xmin': -102.27478568590155, 'ymin': 21.922243794991058, 'xmax': -102.27478568590155, 'ymax': 21.922243794991058}",dining and drinking > restaurant > mexican restaurant > taco restaurant,1
4d2c99b6c406721ee23996b6,Tacos Kike,21.90510729731808,-102.30906260080897,Av Universidad,Aguascalientes,AGS,,,,,MX,2011-01-11,2020-11-25,,,,,,,,['4bf58dd8d48988d151941735'],['Dining and Drinking > Restaurant > Mexican Restaurant > Taco Restaurant'],b'\x00\x00\x00\x00\x01\xc0Y\x93\xc7\xae\x80\xb9\n@5\xe7\xb5\x1c\xa1Z#',"{'xmin': -102.30906260080897, 'ymin': 21.90510729731808, 'xmax': -102.30906260080897, 'ymax': 21.90510729731808}",dining and drinking > restaurant > mexican restaurant > taco restaurant,1
65148f8ac25df85540eaad5a,Don Rojo,20.67939,-103.425892,,Zapopan,Jal.,45020,,,,MX,2023-09-27,2023-09-27,,,,,,,,['4bf58dd8d48988d151941735'],['Dining and Drinking > Restaurant > Mexican Restaurant > Taco Restaurant'],b'\x00\x00\x00\x00\x01\xc0Y\xdbA\xd0\x84\xe82@4\xad\xec\x80\xc7:\xbd',"{'xmin': -103.425892, 'ymin': 20.67939, 'xmax': -103.425892, 'ymax': 20.67939}",dining and drinking > restaurant > mexican restaurant > taco restaurant,1
56e48cf6cd1091b0bd923a1e,Mr. Mat,21.119029998779297,-101.65780639648438,,,,,,,,MX,2016-03-12,2021-08-12,,,,,,,,['4bf58dd8d48988d151941735'],['Dining and Drinking > Restaurant > Mexican Restaurant > Taco Restaurant'],b'\x00\x00\x00\x00\x01\xc0Yj\x19\x80\x00\x00\x00@5\x1ex\xc0\x00\x00\x00',"{'xmin': -101.65780639648438, 'ymin': 21.119029998779297, 'xmax': -101.65780639648438, 'ymax': 21.119029998779297}",dining and drinking > restaurant > mexican restaurant > taco restaurant,1
58cb5caece593d315f3253ae,Tacos La pequeña Lulú,20.731558,-103.406877,Av Santa Margarita No. 60,Zapopan,Jalisco,45148,,,,MX,2017-03-17,2020-11-30,,,,,,,,['4bf58dd8d48988d151941735'],['Dining and Drinking > Restaurant > Mexican Restaurant > Taco Restaurant'],b'\x00\x00\x00\x00\x01\xc0Y\xda\nE\xd4\x1f\xa7@4\xbbGb\x95 \x8e',"{'xmin': -103.406877, 'ymin': 20.731558, 'xmax': -103.406877, 'ymax': 20.731558}",dining and drinking > restaurant > mexican restaurant > taco restaurant,1
56fddbcf498ef0dbeb818ce8,tacos la fragua,20.644311,-105.220611,Francisco Villa,,,,,,,MX,2016-04-01,2021-08-12,,,,,,,,['4bf58dd8d48988d151941735'],['Dining and Drinking > Restaurant > Mexican Restaurant > Taco Restaurant'],b'\x00\x00\x00\x00\x01\xc0ZN\x1e}\x99\x88\xd3@4\xa4\xf1\x90\xd1s\xfb',"{'xmin': -105.220611, 'ymin': 20.644311, 'xmax': -105.220611, 'ymax': 20.644311}",dining and drinking > restaurant > mexican restaurant > taco restaurant,1
57dc76ff498ea39ff4f514b0,Taco Loco,21.866224,-102.29882,,Aguascalientes,Aguascalientes,,,,,MX,2016-09-16,2020-11-24,,,,,,,,['4bf58dd8d48988d151941735'],['Dining and Drinking > Restaurant > Mexican Restaurant > Taco Restaurant'],"b""\x00\x00\x00\x00\x01\xc0Y\x93\x1f\xdd\xeb\xd9\x02@5\xdd\xc0\xdb'\x02\xa3""","{'xmin': -102.29882, 'ymin': 21.866224, 'xmax': -102.29882, 'ymax': 21.866224}",dining and drinking > restaurant > mexican restaurant > taco restaurant,1
4f5ba615e4b085f52d729b0a,"Tortas Ahogadas ""El Güero""",20.633470298847328,-103.28138373251794,,,,,,,,MX,2012-03-10,2021-08-12,,,,,,,,['4bf58dd8d48988d151941735'],['Dining and Drinking > Restaurant > Mexican Restaurant > Taco Restaurant'],b'\x00\x00\x00\x00\x01\xc0Y\xd2\x020\xea2\x9f@4\xa2+\x1c\x08\x89`',"{'xmin': -103.28138373251794, 'ymin': 20.633470298847328, 'xmax': -103.28138373251794, 'ymax': 20.633470298847328}",dining and drinking > restaurant > mexican restaurant > taco restaurant,1
d156e97216d4413e2e8fc366,Michelas mas Pancha,20.727541,-103.369664,General Agustin Olachea 392,Guadalajara,Jalisco,45180,,,,MX,2013-03-07,2023-12-06,,33 3848 2878,,,,,,['4bf58dd8d48988d116941735' '4bf58dd8d48988d151941735'],"['Dining and Drinking > Bar'
 'Dining and Drinking > Restaurant > Mexican Restaurant > Taco Restaurant']",b'\x00\x00\x00\x00\x01\xc0Y\xd7\xa8\x931\xa0\x8c@4\xba@ \x81\x7f\xc7',"{'xmin': -103.369664, 'ymin': 20.727541, 'xmax': -103.369664, 'ymax': 20.727541}","dining and drinking > bar, dining and drinking > restaurant > mexican restaurant > taco restaurant",1
530ea981498e7046d5a6a414,Tacos Contreras,20.6170654296875,-103.31513214111328,,,,,,,,MX,2014-02-27,2021-08-15,,,,,,,,['4bf58dd8d48988d151941735'],['Dining and Drinking > Restaurant > Mexican Restaurant > Taco Restaurant'],b'\x00\x00\x00\x00\x01\xc0Y\xd4+ \x00\x00\x00@4\x9d\xf8\x00\x00\x00\x00',"{'xmin': -103.31513214111328, 'ymin': 20.6170654296875, 'xmax': -103.31513214111328, 'ymax': 20.6170654296875}",dining and drinking > restaurant > mexican restaurant > taco restaurant,1
5393ec7e498e5a218761fb84,Tacos Neri,20.674134769798755,-103.3801731056719,,Guadalajara,Jalisco,,,,,MX,2014-06-08,2021-08-14,,,,,,,,['4bf58dd8d48988d151941735'],['Dining and Drinking > Restaurant > Mexican Restaurant > Taco Restaurant'],b'\x00\x00\x00\x00\x01\xc0Y\xd8T\xc1\x93\xeb~@4\xac\x94\x18\xa5a\xd4',"{'xmin': -103.3801731056719, 'ymin': 20.674134769798755, 'xmax': -103.3801731056719, 'ymax': 20.674134769798755}",dining and drinking > restaurant > mexican restaurant > taco restaurant,1
5b36f5cce55d8b002c9b6a46,El After,20.589183,-101.204021,,Salamanca,GTO,36875,,,,MX,2018-06-30,2020-11-25,,,,,,,,['4bf58dd8d48988d151941735'],['Dining and Drinking > Restaurant > Mexican Restaurant > Taco Restaurant'],b'\x00\x00\x00\x00\x01\xc0YM\x0e\xae\x18\xac\x9f@4\x96\xd4\xb2t[\xf2',"{'xmin': -101.204021, 'ymin': 20.589183, 'xmax': -101.204021, 'ymax': 20.589183}",dining and drinking > restaurant > mexican restaurant > taco restaurant,1
547fcb61498ee27c61418374,Tacos Pablo,20.72710486572707,-103.39319997086989,,,,,,,,MX,2014-12-04,2021-08-13,,,,,,,,['4bf58dd8d48988d151941735'],['Dining and Drinking > Restaurant > Mexican Restaurant > Taco Restaurant'],b'\x00\x00\x00\x00\x01\xc0Y\xd9*05\xeb(@4\xba#\x8bc\x0fl',"{'xmin': -103.39319997086989, 'ymin': 20.72710486572707, 'xmax': -103.39319997086989, 'ymax': 20.72710486572707}",dining and drinking > restaurant > mexican restaurant > taco restaurant,1
4eac078a29c2152debfbf8c0,Tacos Los Hermanos,20.67785030120326,-103.38283027514366,,,,,,,,MX,2011-10-29,2021-08-14,,,,,,,,['4bf58dd8d48988d151941735'],['Dining and Drinking > Restaurant > Mexican Restaurant > Taco Restaurant'],b'\x00\x00\x00\x00\x01\xc0Y\xd8\x80J\x8d\xeaI@4\xad\x87\x98\xeb@s',"{'xmin': -103.38283027514366, 'ymin': 20.67785030120326, 'xmax': -103.38283027514366, 'ymax': 20.67785030120326}",dining and drinking > restaurant > mexican restaurant > taco restaurant,1
4e6984c3a8092902679d96ea,Tacos Los Jardines,20.660757287279935,-105.22856104703106,,Puerto Vallarta,Jalisco,,,,,MX,2011-09-09,2020-11-25,,,,,,,,['4bf58dd8d48988d151941735'],['Dining and Drinking > Restaurant > Mexican Restaurant > Taco Restaurant'],"b""\x00\x00\x00\x00\x01\xc0ZN\xa0\xbe\x83\x88\xd4@4\xa9'c\xbbv\x04""","{'xmin': -105.22856104703106, 'ymin': 20.660757287279935, 'xmax': -105.22856104703106, 'ymax': 20.660757287279935}",dining and drinking > restaurant > mexican restaurant > taco restaurant,1
4cf93719de096dcb4f558d79,Las Super Gorditas,21.509498,-104.895354,,,,,,,,MX,2010-12-03,2023-12-20,,311 135 5314,,,,,,['4bf58dd8d48988d151941735'],['Dining and Drinking > Restaurant > Mexican Restaurant > Taco Restaurant'],b'\x00\x00\x00\x00\x01\xc0Z9Mz\xdd\x15\xf0@5\x82nu\xff`\x9e',"{'xmin': -104.895354, 'ymin': 21.509498, 'xmax': -104.895354, 'ymax': 21.509498}",dining and drinking > restaurant > mexican restaurant > taco restaurant,1
9e48bc715d1746471aef127b,Taqueria,20.657229,-103.369864,Calle Fresno 1946,Guadalajara,Jalisco,44900,,,,MX,2010-11-04,2023-12-06,,,,,,,,['4bf58dd8d48988d151941735'],['Dining and Drinking > Restaurant > Mexican Restaurant > Taco Restaurant'],b'\x00\x00\x00\x00\x01\xc0Y\xd7\xab\xda\r\xfd\xf0@4\xa8@(\xe4\xfb\x98',"{'xmin': -103.369864, 'ymin': 20.657229, 'xmax': -103.369864, 'ymax': 20.657229}",dining and drinking > restaurant > mexican restaurant > taco restaurant,1
533391b5498eee847fa803ed,Tacos Copacabana,21.155868829729645,-101.68719217493049,,"Leon Guanajuato, GTO",Guanajuato,37000,,,,MX,2014-03-27,2020-11-25,2019-10-10,,,,,,,['4bf58dd8d48988d151941735'],['Dining and Drinking > Restaurant > Mexican Restaurant > Taco Restaurant'],"b""\x00\x00\x00\x00\x01\xc0Yk\xfa\xf4\xe3Y0@5'\xe7\x05\x06'\x95""","{'xmin': -101.68719217493049, 'ymin': 21.155868829729645, 'xmax': -101.68719217493049, 'ymax': 21.155868829729645}",dining and drinking > restaurant > mexican restaurant > taco restaurant,1
5015e9d2e4b0c3be984ef4b4,Tacos Cocotó,20.6852669662886,-103.43505409455008,,,,,,,,MX,2012-07-30,2021-08-16,,,,,,,,['4bf58dd8d48988d151941735'],['Dining and Drinking > Restaurant > Mexican Restaurant > Taco Restaurant'],b'\x00\x00\x00\x00\x01\xc0Y\xdb\xd7\xed!\x05X@4\xafm\xa7\xe9=\x1a',"{'xmin': -103.43505409455008, 'ymin': 20.6852669662886, 'xmax': -103.43505409455008, 'ymax': 20.6852669662886}",dining and drinking > restaurant > mexican restaurant > taco restaurant,1
511516dfe4b0cde3d0e9bfb6,pochol,19.10251212739927,-104.30647618815429,J. Alcaraz El Tajo,Manzanillo,colima,,,,,MX,2013-02-08,2020-11-25,,,,,,,,['4bf58dd8d48988d151941735'],['Dining and Drinking > Restaurant > Mexican Restaurant > Taco Restaurant'],b'\x00\x00\x00\x00\x01\xc0Z\x13\x9dNMH\x07@3\x1a><\x1a\x9f\x8d',"{'xmin': -104.30647618815429, 'ymin': 19.10251212739927, 'xmax': -104.30647618815429, 'ymax': 19.10251212739927}",dining and drinking > restaurant > mexican restaurant > taco restaurant,1
52864e2711d212b55ad37a18,Tacos Barreto,19.049707,-104.318468,,,,,,,,MX,2013-11-15,2021-08-17,,,,,,,,['4bf58dd8d48988d151941735'],['Dining and Drinking > Restaurant > Mexican Restaurant > Taco Restaurant'],b'\x00\x00\x00\x00\x01\xc0Z\x14a\xc7\x9b4\xa4@3\x0c\xb9\x99\x13a\xdd',"{'xmin': -104.318468, 'ymin': 19.049707, 'xmax': -104.318468, 'ymax': 19.049707}",dining and drinking > restaurant > mexican restaurant > taco restaurant,1
501c242ae4b0d84831051cb8,Tacos Te Tripa,21.103728141087647,-101.64142485218836,,,,,,,,MX,2012-08-03,2021-08-17,,,,,,,,['4bf58dd8d48988d151941735'],['Dining and Drinking > Restaurant > Mexican Restaurant > Taco Restaurant'],b'\x00\x00\x00\x00\x01\xc0Yi\r\x1a\xd2\xbfg@5\x1a\x8d\xedm\xa5u',"{'xmin': -101.64142485218836, 'ymin': 21.103728141087647, 'xmax': -101.64142485218836, 'ymax': 21.103728141087647}",dining and drinking > restaurant > mexican restaurant > taco restaurant,1
5cb7dbcd46e1b6002c69949e,Tacos Chente,21.050725,-104.484199,Calle Hodalgo No. 31,Ahuacatlán,NAY,63920,,,,MX,2019-04-18,2020-11-23,,,,,,,,['4bf58dd8d48988d151941735'],['Dining and Drinking > Restaurant > Mexican Restaurant > Taco Restaurant'],b'\x00\x00\x00\x00\x01\xc0Z\x1e\xfd\x1d\xcdpa@5\x0c\xfcPH\x16\xf0',"{'xmin': -104.484199, 'ymin': 21.050725, 'xmax': -104.484199, 'ymax': 21.050725}",dining and drinking > restaurant > mexican restaurant > taco restaurant,1
4ecc4e5a0e6115035055d365,Tacos Don Pepe,19.682491070960243,-101.21021991835259,,,,,,,,MX,2011-11-23,2021-08-10,,,,,,,,['4bf58dd8d48988d151941735'],['Dining and Drinking > Restaurant > Mexican Restaurant > Taco Restaurant'],b'\x00\x00\x00\x00\x01\xc0YMt>>\x92\xb3@3\xae\xb7\xbc\x1d\x96\x15',"{'xmin': -101.21021991835259, 'ymin': 19.682491070960243, 'xmax': -101.21021991835259, 'ymax': 19.682491070960243}",dining and drinking > restaurant > mexican restaurant > taco restaurant,1
656cbe4e0733ca29609f3a3e,Tacos Fran,20.638082,-103.43134,,Zapopan,Jal.,45070,,,,MX,2023-12-03,2023-12-03,,,,,,,,['4bf58dd8d48988d151941735'],['Dining and Drinking > Restaurant > Mexican Restaurant > Taco Restaurant'],b'\x00\x00\x00\x00\x01\xc0Y\xdb\x9b\x13\x16]:@4\xa3YW\x8a*\x91',"{'xmin': -103.43134, 'ymin': 20.638082, 'xmax': -103.43134, 'ymax': 20.638082}",dining and drinking > restaurant > mexican restaurant > taco restaurant,1
7f1edb2ee3474128ed291479,Cenaduria Pinolillo,21.137701,-101.693235,Romita 1004,León,Guanajuato,37230,,,,MX,2013-05-03,2023-12-06,,477 773 1193,,,,,,['4bf58dd8d48988d151941735'],['Dining and Drinking > Restaurant > Mexican Restaurant > Taco Restaurant'],b'\x00\x00\x00\x00\x01\xc0Yl]\xf6U\\S@5#@_k\xa0b',"{'xmin': -101.693235, 'ymin': 21.137701, 'xmax': -101.693235, 'ymax': 21.137701}",dining and drinking > restaurant > mexican restaurant > taco restaurant,1
4ca3e7dc7f84224b0a23c958,Taquitos,20.71299562622682,-103.36716449334861,,,,,,,,MX,2010-09-30,2021-08-14,,,,,,,,['4bf58dd8d48988d151941735'],['Dining and Drinking > Restaurant > Mexican Restaurant > Taco Restaurant'],b'\x00\x00\x00\x00\x01\xc0Y\xd7\x7f\x9f\x80\xcb\xd2@4\xb6\x86\xe1\xa0\xd5\xd2',"{'xmin': -103.36716449334861, 'ymin': 20.71299562622682, 'xmax': -103.36716449334861, 'ymax': 20.71299562622682}",dining and drinking > restaurant > mexican restaurant > taco restaurant,1
50422f2fe4b03798679baa4f,Tacos y Tortas Crispin,21.153543200428313,-101.69844834241434,,,,,,,,MX,2012-09-01,2021-08-16,,,,,,,,['4bf58dd8d48988d151941735'],['Dining and Drinking > Restaurant > Mexican Restaurant > Taco Restaurant'],"b""\x00\x00\x00\x00\x01\xc0Yl\xb3`\xad'\\@5'N\x9bp\\\xdf""","{'xmin': -101.69844834241434, 'ymin': 21.153543200428313, 'xmax': -101.69844834241434, 'ymax': 21.153543200428313}",dining and drinking > restaurant > mexican restaurant > taco restaurant,1
57772b37cd1001857ee62017,"Tacos ""El Reymon""",21.158134,-100.9359,,,,,,,,MX,2016-07-02,2021-08-15,,,,,,,,['4bf58dd8d48988d151941735'],['Dining and Drinking > Restaurant > Mexican Restaurant > Taco Restaurant'],b'\x00\x00\x00\x00\x01\xc0Y;\xe5\xc9\x1d\x14\xe4@5({xFb\xbb',"{'xmin': -100.9359, 'ymin': 21.158134, 'xmax': -100.9359, 'ymax': 21.158134}",dining and drinking > restaurant > mexican restaurant > taco restaurant,1
4fab30cbe4b06a5977114ea1,"Tacos ""Deivis""",20.72610444058422,-103.39672066833025,,,,,,,,MX,2012-05-10,2021-08-13,,,,,,,,['4bf58dd8d48988d151941735'],['Dining and Drinking > Restaurant > Mexican Restaurant > Taco Restaurant'],b'\x00\x00\x00\x00\x01\xc0Y\xd9c\xdf\x16\x08\x0b@4\xb9\xe1\xfb\t\xca#',"{'xmin': -103.39672066833025, 'ymin': 20.72610444058422, 'xmax': -103.39672066833025, 'ymax': 20.72610444058422}",dining and drinking > restaurant > mexican restaurant > taco restaurant,1
537666be498ecfd1a0072288,tortas ahogadas y tacos de Jaime,20.65864333271754,-103.37942278970533,Platano,Guadalajara,jalisco,44900,,,,MX,2014-05-16,2021-08-13,,,,,,,,['4bf58dd8d48988d151941735'],['Dining and Drinking > Restaurant > Mexican Restaurant > Taco Restaurant'],b'\x00\x00\x00\x00\x01\xc0Y\xd8Hv\x86I\x0e@4\xa8\x9c\xd9u\xc0\x12',"{'xmin': -103.37942278970533, 'ymin': 20.65864333271754, 'xmax': -103.37942278970533, 'ymax': 20.65864333271754}",dining and drinking > restaurant > mexican restaurant > taco restaurant,1
50dc8379e4b05e3a0e14853d,Los Chinos,21.13915422419202,-101.68403005613864,,,,,,,,MX,2012-12-27,2021-08-13,,,,,,,,['4bf58dd8d48988d151941735'],['Dining and Drinking > Restaurant > Mexican Restaurant > Taco Restaurant'],b'\x00\x00\x00\x00\x01\xc0Yk\xc7&\x00&-@5#\x9f\x9cz\x01F',"{'xmin': -101.68403005613864, 'ymin': 21.13915422419202, 'xmax': -101.68403005613864, 'ymax': 21.13915422419202}",dining and drinking > restaurant > mexican restaurant > taco restaurant,1
58b5d86051666a6d75ba7a76,Taqueria Adan,20.68439,-103.44858,Calzada de las Palmas,Zapopan,Jalisco,45010,,,,MX,2017-02-28,2020-11-22,,,,,,,,['4bf58dd8d48988d151941735'],['Dining and Drinking > Restaurant > Mexican Restaurant > Taco Restaurant'],b'\x00\x00\x00\x00\x01\xc0Y\xdc\xb5\x88\xe3h\xf1@4\xaf4.\xdb\xb5\x9e',"{'xmin': -103.44858, 'ymin': 20.68439, 'xmax': -103.44858, 'ymax': 20.68439}",dining and drinking > restaurant > mexican restaurant > taco restaurant,1
51cfb631498ea91e6238edca,El Braserio De Pepon,19.774589157076875,-104.35424240521436,,,,,,,,MX,2013-06-30,2021-08-16,,,,,,,,['4bf58dd8d48988d151941735'],['Dining and Drinking > Restaurant > Mexican Restaurant > Taco Restaurant'],"b'\x00\x00\x00\x00\x01\xc0Z\x16\xab\xe8VP""@3\xc6Ky\x99{<'","{'xmin': -104.35424240521436, 'ymin': 19.774589157076875, 'xmax': -104.35424240521436, 'ymax': 19.774589157076875}",dining and drinking > restaurant > mexican restaurant > taco restaurant,1
51547330e4b034daa5bcfd47,El Balcon De Lulu,19.10578626479381,-104.32089870562832,,,,,,,,MX,2013-03-28,2021-08-16,,,,,,,,['4bf58dd8d48988d151941735'],['Dining and Drinking > Restaurant > Mexican Restaurant > Taco Restaurant'],"b""\x00\x00\x00\x00\x01\xc0Z\x14\x89\x9a\xb9\x80'@3\x1b\x14\xcf\x03\xa7\xc9""","{'xmin': -104.32089870562832, 'ymin': 19.10578626479381, 'xmax': -104.32089870562832, 'ymax': 19.10578626479381}",dining and drinking > restaurant > mexican restaurant > taco restaurant,1
5282690d11d23eb3bacf83d7,El Sabor Del Norte,20.720109,-103.361122,,,,,,,,MX,2013-11-12,2021-08-11,,,,,,,,['4bf58dd8d48988d151941735'],['Dining and Drinking > Restaurant > Mexican Restaurant > Taco Restaurant'],b'\x00\x00\x00\x00\x01\xc0Y\xd7\x1c\x9fr\xf7n@4\xb8Y\x10<\x8e&',"{'xmin': -103.361122, 'ymin': 20.720109, 'xmax': -103.361122, 'ymax': 20.720109}",dining and drinking > restaurant > mexican restaurant > taco restaurant,1
5a7528878b98fd18bac5d1b2,Tacos Árabes Don Coco,20.64218,-103.31801,Boulevard Marcelino García Barragán #1924,San Pedro Tlaquepaque,Jalisco,45560,,,,MX,2018-02-03,2021-08-16,,,,,,,,['4bf58dd8d48988d151941735'],['Dining and Drinking > Restaurant > Mexican Restaurant > Taco Restaurant'],b'\x00\x00\x00\x00\x01\xc0Y\xd4ZF\x9dsC@4\xa4e\xe8\x92%1',"{'xmin': -103.31801, 'ymin': 20.64218, 'xmax': -103.31801, 'ymax': 20.64218}",dining and drinking > restaurant > mexican restaurant > taco restaurant,1
502bdc00e4b0e3a4cbd818ac,Tacos de pescado y camarón,20.665230522298458,-103.36169856474662,,Guadalajara,,,,,,MX,2012-08-15,2021-08-14,,,,,,,,['4bf58dd8d48988d151941735'],['Dining and Drinking > Restaurant > Mexican Restaurant > Taco Restaurant'],b'\x00\x00\x00\x00\x01\xc0Y\xd7&\x11\xbc\xa63@4\xaaL\x8c)\x92\xa8',"{'xmin': -103.36169856474662, 'ymin': 20.665230522298458, 'xmax': -103.36169856474662, 'ymax': 20.665230522298458}",dining and drinking > restaurant > mexican restaurant > taco restaurant,1
4ce86760fe90a35d188e420e,Taqueria Sahuayo Centro Sur,20.60303516,-103.40200236999999,,,,,,,,MX,2010-11-21,2021-08-11,,,,,,,,['4bf58dd8d48988d151941735'],['Dining and Drinking > Restaurant > Mexican Restaurant > Taco Restaurant'],"b'\x00\x00\x00\x00\x01\xc0Y\xd9\xbah&\x04 @4\x9a`\x83""\x89\xc3'","{'xmin': -103.40200236999999, 'ymin': 20.60303516, 'xmax': -103.40200236999999, 'ymax': 20.60303516}",dining and drinking > restaurant > mexican restaurant > taco restaurant,1
56ad445e498e45f9ab614880,Tacos Al Carbón Los Valdez,21.959262005984957,-102.3372352271231,Av. Alejandro de la Cruz 414,Jesús María,Aguascalientes,,,,,MX,2016-01-30,2023-01-27,,,,,,,,['4bf58dd8d48988d151941735' '4bf58dd8d48988d1c1941735'],"['Dining and Drinking > Restaurant > Mexican Restaurant > Taco Restaurant'
 'Dining and Drinking > Restaurant > Mexican Restaurant']",b'\x00\x00\x00\x00\x01\xc0Y\x95\x95C\x0f\xe3b@5\xf5\x921\xe0\x001',"{'xmin': -102.3372352271231, 'ymin': 21.959262005984957, 'xmax': -102.3372352271231, 'ymax': 21.959262005984957}","dining and drinking > restaurant > mexican restaurant > taco restaurant, dining and drinking > restaurant > mexican restaurant",1
5043844be4b02f9094c2eaa6,Flautas El Chino,20.684555282531214,-103.30693945015496,Ignacio Machain,Guadalajara,Jalisco,44719,,,,MX,2012-09-02,2021-08-10,,,,,,,,['4bf58dd8d48988d151941735'],['Dining and Drinking > Restaurant > Mexican Restaurant > Taco Restaurant'],b'\x00\x00\x00\x00\x01\xc0Y\xd3\xa4\xe5]\x11#@4\xaf?\x03\xd6\xc6\x8e',"{'xmin': -103.30693945015496, 'ymin': 20.684555282531214, 'xmax': -103.30693945015496, 'ymax': 20.684555282531214}",dining and drinking > restaurant > mexican restaurant > taco restaurant,1
522160e511d2ad37b4da8399,Taqueria 5 Estrellas,19.769263100651923,-104.37537519825818,,,,,,,,MX,2013-08-31,2021-08-14,,,,,,,,['4bf58dd8d48988d151941735'],['Dining and Drinking > Restaurant > Mexican Restaurant > Taco Restaurant'],b'\x00\x00\x00\x00\x01\xc0Z\x18\x06%\xb2\x0f\xe6@3\xc4\xeem3Q\xcf',"{'xmin': -104.37537519825818, 'ymin': 19.769263100651923, 'xmax': -104.37537519825818, 'ymax': 19.769263100651923}",dining and drinking > restaurant > mexican restaurant > taco restaurant,1
51a240ee498eb2acb4c6ba19,Taqueria Los Molcates,19.23466111256802,-103.72301416704298,,,,,,,,MX,2013-05-26,2021-08-13,,,,,,,,['4bf58dd8d48988d151941735'],['Dining and Drinking > Restaurant > Mexican Restaurant > Taco Restaurant'],"b'\x00\x00\x00\x00\x01\xc0Y\xeeE\xdd6\x7f\xa2@3<\x12\xc0,\x1fd'","{'xmin': -103.72301416704298, 'ymin': 19.23466111256802, 'xmax': -103.72301416704298, 'ymax': 19.23466111256802}",dining and drinking > restaurant > mexican restaurant > taco restaurant,1
50c7fdfce4b0cd965ed3b771,El Taco & Loco,20.749980163094733,-103.420318665305,Plaza Aleira,Zapopan,JAL,,,,,MX,2012-12-12,2020-11-26,2019-01-28,33 1371 3907,,,,,,['4bf58dd8d48988d151941735'],['Dining and Drinking > Restaurant > Mexican Restaurant > Taco Restaurant'],b'\x00\x00\x00\x00\x01\xc0Y\xda\xe6\x80BX\x89@4\xbf\xfe\xb31$\x00',"{'xmin': -103.420318665305, 'ymin': 20.749980163094733, 'xmax': -103.420318665305, 'ymax': 20.749980163094733}",dining and drinking > restaurant > mexican restaurant > taco restaurant,1
50c4c6e1e4b087eb7e967b2f,"El Güero Valente, Tacos y Barbacoa",19.280174255371094,-103.73308563232422,H. Ayuntamiento,Villa De Alvarez,Colima,,,,,MX,2012-12-09,2020-11-22,,,,,,,,['4bf58dd8d48988d151941735'],['Dining and Drinking > Restaurant > Mexican Restaurant > Taco Restaurant'],b'\x00\x00\x00\x00\x01\xc0Y\xee\xea\xe0\x00\x00\x00@3G\xb9\x80\x00\x00\x00',"{'xmin': -103.73308563232422, 'ymin': 19.280174255371094, 'xmax': -103.73308563232422, 'ymax': 19.280174255371094}",dining and drinking > restaurant > mexican restaurant > taco restaurant,1
589c0296876ade25f2cfe47f,El Asadero De Dany,21.128685,-101.6464,,,,,,,,MX,2017-02-09,2021-08-14,,,,,,,,['4bf58dd8d48988d151941735'],['Dining and Drinking > Restaurant > Mexican Restaurant > Taco Restaurant'],b'\x00\x00\x00\x00\x01\xc0Yi^\x9e\x1b\x08\x9a@5 \xf1\x80\n|[',"{'xmin': -101.6464, 'ymin': 21.128685, 'xmax': -101.6464, 'ymax': 21.128685}",dining and drinking > restaurant > mexican restaurant > taco restaurant,1
4ce0a66f78ddf04db7a6a798,Lechón Rudy,21.87906119382636,-102.31224162084065,Av Convención de 1914 Pte 501,Aguascalientes,AGS,,,,,MX,2010-11-15,2023-12-21,,449 918 7418,,,,,,['4bf58dd8d48988d151941735' '4bf58dd8d48988d1cb941735'],"['Dining and Drinking > Restaurant > Mexican Restaurant > Taco Restaurant'
 'Dining and Drinking > Food Truck']","b""\x00\x00\x00\x00\x01\xc0Y\x93\xfb\xc4G}{@5\xe1\n'\x86\xaa\xbc""","{'xmin': -102.31224162084065, 'ymin': 21.87906119382636, 'xmax': -102.31224162084065, 'ymax': 21.87906119382636}","dining and drinking > restaurant > mexican restaurant > taco restaurant, dining and drinking > food truck",1
52dfd7b9498eff536d46c1f1,Birrieria Don Ines,21.358163833618164,-101.929931640625,,,,,,,,MX,2014-01-22,2021-08-12,,,,,,,,['4bf58dd8d48988d151941735'],['Dining and Drinking > Restaurant > Mexican Restaurant > Taco Restaurant'],b'\x00\x00\x00\x00\x01\xc0Y{\x84\x00\x00\x00\x00@5[\xb0\xa0\x00\x00\x00',"{'xmin': -101.929931640625, 'ymin': 21.358163833618164, 'xmax': -101.929931640625, 'ymax': 21.358163833618164}",dining and drinking > restaurant > mexican restaurant > taco restaurant,1
4ff9af5de4b024f55aff69e2,Tacos de Barbacoa Arturo el amigo,20.817359,-102.762773,,,,,,,,MX,2012-07-08,2021-08-11,,,,,,,,['4bf58dd8d48988d151941735'],['Dining and Drinking > Restaurant > Mexican Restaurant > Taco Restaurant'],b'\x00\x00\x00\x00\x01\xc0Y\xb0\xd1E\xd8Qe@4\xd1>p~\x17]',"{'xmin': -102.762773, 'ymin': 20.817359, 'xmax': -102.762773, 'ymax': 20.817359}",dining and drinking > restaurant > mexican restaurant > taco restaurant,1
537ff7a3498e151a05126ed2,Tacos La Paz,20.67531040786246,-103.37418762521479,,,,,,,,MX,2014-05-24,2021-08-15,,,,,,,,['4bf58dd8d48988d151941735'],['Dining and Drinking > Restaurant > Mexican Restaurant > Taco Restaurant'],b'\x00\x00\x00\x00\x01\xc0Y\xd7\xf2\xb0\xa77c@4\xac\xe1$\x94j\xee',"{'xmin': -103.37418762521479, 'ymin': 20.67531040786246, 'xmax': -103.37418762521479, 'ymax': 20.67531040786246}",dining and drinking > restaurant > mexican restaurant > taco restaurant,1
52312b3711d213f992434fb5,Tacos Don Alfredo,20.628683337143237,-103.30725433748037,Glendale Esquina Bartolome De Las Casas,,,,,,,MX,2013-09-12,2021-08-16,,,,,,,,['4bf58dd8d48988d151941735'],['Dining and Drinking > Restaurant > Mexican Restaurant > Taco Restaurant'],b'\x00\x00\x00\x00\x01\xc0Y\xd3\xaa\x0e\x18\xc2\x12@4\xa0\xf1d$\x92\x02',"{'xmin': -103.30725433748037, 'ymin': 20.628683337143237, 'xmax': -103.30725433748037, 'ymax': 20.628683337143237}",dining and drinking > restaurant > mexican restaurant > taco restaurant,1
509da40c45b07d99da47a980,Barbachih,20.631288183544587,-103.42897295951843,Galileo Galilei 4409 Col. Las Arboledas,Zapopan,Jalisco,45070,,,,MX,2012-11-10,2020-11-23,,,,,,,barachih,['4bf58dd8d48988d151941735'],['Dining and Drinking > Restaurant > Mexican Restaurant > Taco Restaurant'],b'\x00\x00\x00\x00\x01\xc0Y\xdbtK\x00\x00\x00@4\xa1\x9c\x1a6\xac\xdd',"{'xmin': -103.42897295951843, 'ymin': 20.631288183544587, 'xmax': -103.42897295951843, 'ymax': 20.631288183544587}",dining and drinking > restaurant > mexican restaurant > taco restaurant,1
5dc34c47d44b0c0008994dce,Buffet & Tacos Restaurante By E. Villegas Event Planner,20.554318,-100.845074,Avenida Salvador Ortega 1906 Local 1 Y 2,Celaya,GTO,38016,,,,MX,2019-11-06,2020-11-23,,,,,,,,"['52e81612bcbc57f1066b79f4' '4bf58dd8d48988d151941735'
 '5454152e498ef71e2b9132c6']","['Dining and Drinking > Restaurant > Buffet'
 'Dining and Drinking > Restaurant > Mexican Restaurant > Taco Restaurant'
 'Business and Professional Services > Event Service']","b'\x00\x00\x00\x00\x01\xc0Y6\x15\xb1B,\xcb@4\x8d\xe7\xc8\xd1\x95\x89'","{'xmin': -100.845074, 'ymin': 20.554318, 'xmax': -100.845074, 'ymax': 20.554318}","dining and drinking > restaurant > buffet, dining and drinking > restaurant > mexican restaurant > taco restaurant, business and professional services > event service",1
53c1d47b498ea6a02f2458c0,Potreros Tacos y Tortas de Lechón,21.926427925745973,-102.30211493886726,calle Potreros 401 A,Aguascalientes,Aguascalientes,20115,,,,MX,2014-07-13,2020-11-23,,449 781 1382,,,,,,['4bf58dd8d48988d151941735'],['Dining and Drinking > Restaurant > Mexican Restaurant > Taco Restaurant'],b'\x00\x00\x00\x00\x01\xc0Y\x93U\xd9\xe5\x84Y@5\xed*ak.\x19',"{'xmin': -102.30211493886726, 'ymin': 21.926427925745973, 'xmax': -102.30211493886726, 'ymax': 21.926427925745973}",dining and drinking > restaurant > mexican restaurant > taco restaurant,1
502c7546e4b0fdd3385a9b1b,Tacos Gely,20.778033,-103.454835,,,,,,,,MX,2012-08-16,2021-08-16,,,,,,,,['4bf58dd8d48988d151941735'],['Dining and Drinking > Restaurant > Mexican Restaurant > Taco Restaurant'],b'\x00\x00\x00\x00\x01\xc0Y\xdd\x1c\x04B\x84\xe0@4\xc7-+\xb25r',"{'xmin': -103.454835, 'ymin': 20.778033, 'xmax': -103.454835, 'ymax': 20.778033}",dining and drinking > restaurant > mexican restaurant > taco restaurant,1
520adf4a049393e8585a0835,The Happy Fish,20.663264798674323,-103.35256350079949,Calzada del Águila 878 Col. Moderna,Guadalajara,JAL,44190,,,,MX,2013-08-14,2024-02-23,,33 3562 1951,http://www.thehappyfish.com.mx,,567314679982164.0,,,['4bf58dd8d48988d1ce941735' '4bf58dd8d48988d151941735'],"['Dining and Drinking > Restaurant > Seafood Restaurant'
 'Dining and Drinking > Restaurant > Mexican Restaurant > Taco Restaurant']",b'\x00\x00\x00\x00\x01\xc0Y\xd6\x90f\x80l\x9d@4\xa9\xcb\xb8\xca\xe4\xed',"{'xmin': -103.35256350079949, 'ymin': 20.663264798674323, 'xmax': -103.35256350079949, 'ymax': 20.663264798674323}","dining and drinking > restaurant > seafood restaurant, dining and drinking > restaurant > mexican restaurant > taco restaurant",1
4e25df2b8877099df4c2c6a0,Tortas Ahogadas El Sigi's,20.638072858628092,-103.37107076722138,Lopez de Legazpi,Guadalajara,Jalisco,44960,,,,MX,2011-07-19,2021-08-13,,,,,,,,"['4bf58dd8d48988d16c941735' '4bf58dd8d48988d1c1941735'
 '4bf58dd8d48988d151941735']","['Dining and Drinking > Restaurant > Burger Joint'
 'Dining and Drinking > Restaurant > Mexican Restaurant'
 'Dining and Drinking > Restaurant > Mexican Restaurant > Taco Restaurant']","b'\x00\x00\x00\x00\x01\xc0Y\xd7\xbf\x9f\x9am\xeb@4\xa3X\xbe,E\xdc'","{'xmin': -103.37107076722138, 'ymin': 20.638072858628092, 'xmax': -103.37107076722138, 'ymax': 20.638072858628092}","dining and drinking > restaurant > burger joint, dining and drinking > restaurant > mexican restaurant, dining and drinking > restaurant > mexican restaurant > taco restaurant",1
5ab28a73872f7d38a2f7b8eb,Tacos Rocio,20.424412,-103.59053,Cuitlahuac 44,Acatlán de Juárez,Jalisco,45700,,,,MX,2018-03-21,2020-11-26,,,,,,,,['4bf58dd8d48988d151941735'],['Dining and Drinking > Restaurant > Mexican Restaurant > Taco Restaurant'],b'\x00\x00\x00\x00\x01\xc0Y\xe5\xcb>WS\xa4@4l\xa6C\xcc\x07\xab',"{'xmin': -103.59053, 'ymin': 20.424412, 'xmax': -103.59053, 'ymax': 20.424412}",dining and drinking > restaurant > mexican restaurant > taco restaurant,1
4c6c92bbe13db60cd4a2d6b1,"Taqueria ""Tere""",19.684908730630486,-101.19940504127216,,Morelia,Michoacán,,,,,MX,2010-08-19,2020-11-26,,,,,,,,['4bf58dd8d48988d151941735'],['Dining and Drinking > Restaurant > Mexican Restaurant > Taco Restaurant'],b'\x00\x00\x00\x00\x01\xc0YL\xc3\r\\\xba\xf9@3\xafV-\xb6\xcd\x85',"{'xmin': -101.19940504127216, 'ymin': 19.684908730630486, 'xmax': -101.19940504127216, 'ymax': 19.684908730630486}",dining and drinking > restaurant > mexican restaurant > taco restaurant,1
5303d44511d2c11a91db963b,Tacos de Ollita Becky,20.68195152282715,-103.36954498291016,,Guadalajara,Jalisco,,,,,MX,2014-02-18,2021-08-17,,,,,,,,['4bf58dd8d48988d151941735'],['Dining and Drinking > Restaurant > Mexican Restaurant > Taco Restaurant'],b'\x00\x00\x00\x00\x01\xc0Y\xd7\xa6\xa0\x00\x00\x00@4\xae\x94`\x00\x00\x00',"{'xmin': -103.36954498291016, 'ymin': 20.68195152282715, 'xmax': -103.36954498291016, 'ymax': 20.68195152282715}",dining and drinking > restaurant > mexican restaurant > taco restaurant,1
571666ab498eb23f811a9b14,Las Mejores,20.67562,-103.35339,,Guadalajara,Jalisco,,,,,MX,2016-04-19,2021-08-14,,,,,,,,['4bf58dd8d48988d151941735'],['Dining and Drinking > Restaurant > Mexican Restaurant > Taco Restaurant'],b'\x00\x00\x00\x00\x01\xc0Y\xd6\x9d\xf1\x17.\xf1@4\xac\xf5n\xac\x86\x05',"{'xmin': -103.35339, 'ymin': 20.67562, 'xmax': -103.35339, 'ymax': 20.67562}",dining and drinking > restaurant > mexican restaurant > taco restaurant,1
4f0dd0dce4b0c6e466704ce3,Tacos Pipo,20.68777541763413,-103.42690431976139,Juan Palomar Y Arias 542,Guadalajara,Jalisco,,,,,MX,2012-01-11,2020-11-25,,521 380 0220,http://tacospipo.com,,,,,['4bf58dd8d48988d151941735'],['Dining and Drinking > Restaurant > Mexican Restaurant > Taco Restaurant'],b'\x00\x00\x00\x00\x01\xc0Y\xdbRf~\xf9]@4\xb0\x12\x0c\xbd\xbb8',"{'xmin': -103.42690431976139, 'ymin': 20.68777541763413, 'xmax': -103.42690431976139, 'ymax': 20.68777541763413}",dining and drinking > restaurant > mexican restaurant > taco restaurant,1
4f92193fe4b0d5d78a0a66fa,Tacos de Arrachera,21.107302521352334,-101.63808000440176,Paseo De Jerez,Leon,Guanajuato,,,,,MX,2012-04-21,2020-11-23,,,,,,,,['4bf58dd8d48988d151941735'],['Dining and Drinking > Restaurant > Mexican Restaurant > Taco Restaurant'],b'\x00\x00\x00\x00\x01\xc0Yh\xd6M\x83\xc8\xc6@5\x1bx-\x93\xfc\x93',"{'xmin': -101.63808000440176, 'ymin': 21.107302521352334, 'xmax': -101.63808000440176, 'ymax': 21.107302521352334}",dining and drinking > restaurant > mexican restaurant > taco restaurant,1
4e5bf64cae6015fd0d98a77a,Birrieria El Paisa,21.913272431198646,-102.29475034179805,Tianguis,Aguascalientes,AGS,20135,,,,MX,2011-08-29,2020-11-23,,,,,,,,['4bf58dd8d48988d1c1941735' '4bf58dd8d48988d151941735'],"['Dining and Drinking > Restaurant > Mexican Restaurant'
 'Dining and Drinking > Restaurant > Mexican Restaurant > Taco Restaurant']",b'\x00\x00\x00\x00\x01\xc0Y\x92\xdd0\x89\xa0z@5\xe9\xcc8\xd8V+',"{'xmin': -102.29475034179805, 'ymin': 21.913272431198646, 'xmax': -102.29475034179805, 'ymax': 21.913272431198646}","dining and drinking > restaurant > mexican restaurant, dining and drinking > restaurant > mexican restaurant > taco restaurant",1
4e7428f78998ed82a3da9c78,Que Me Ves,20.705656744407317,-103.32552938787713,,Guadalajara,,,,,,MX,2011-09-17,2021-08-14,,,,,,,,['4bf58dd8d48988d151941735'],['Dining and Drinking > Restaurant > Mexican Restaurant > Taco Restaurant'],b'\x00\x00\x00\x00\x01\xc0Y\xd4\xd5y6\xb4m@4\xb4\xa5\xeb\x9fng',"{'xmin': -103.32552938787713, 'ymin': 20.705656744407317, 'xmax': -103.32552938787713, 'ymax': 20.705656744407317}",dining and drinking > restaurant > mexican restaurant > taco restaurant,1
57144ad3498ea80e4c9109ab,Antojotos Mexicanos santa margarita,20.736276,-103.417704,,,,,,,,MX,2016-04-18,2021-08-12,,,,,,,,['4bf58dd8d48988d151941735'],['Dining and Drinking > Restaurant > Mexican Restaurant > Taco Restaurant'],b'\x00\x00\x00\x00\x01\xc0Y\xda\xbb\xa9\x8e\xda#@4\xbc|\x95|\xd4g',"{'xmin': -103.417704, 'ymin': 20.736276, 'xmax': -103.417704, 'ymax': 20.736276}",dining and drinking > restaurant > mexican restaurant > taco restaurant,1
561b3202498e0c5c4d9f94f8,"Tacos El Neto ""El amigo de todos""",21.129964177663847,-101.65362686296447,,,,,,,,MX,2015-10-12,2021-08-10,,,,,,,,['4bf58dd8d48988d151941735'],['Dining and Drinking > Restaurant > Mexican Restaurant > Taco Restaurant'],b'\x00\x00\x00\x00\x01\xc0Yi\xd5\x05\xc4\x0e\x0c@5!EU\x14\xb7\xbf',"{'xmin': -101.65362686296447, 'ymin': 21.129964177663847, 'xmax': -101.65362686296447, 'ymax': 21.129964177663847}",dining and drinking > restaurant > mexican restaurant > taco restaurant,1
4f3f4d1de4b0b019c5b3b97a,Tacos El Rosario,21.159236505484984,-101.68367507315506,Blvd. Adolfo Lopez Mateos 3241,León,,37130,,,,MX,2012-02-18,2020-11-22,,,,,,,,['4bf58dd8d48988d151941735'],['Dining and Drinking > Restaurant > Mexican Restaurant > Taco Restaurant'],b'\x00\x00\x00\x00\x01\xc0Yk\xc1U\x18\x12\xa6@5(\xc3\xb9?c(',"{'xmin': -101.68367507315506, 'ymin': 21.159236505484984, 'xmax': -101.68367507315506, 'ymax': 21.159236505484984}",dining and drinking > restaurant > mexican restaurant > taco restaurant,1
57dc3085498e53b5700da24b,Las Planchitas,19.670819,-101.172289,,,,,,,,MX,2016-09-16,2020-11-24,,,,,,,,['4bf58dd8d48988d151941735'],['Dining and Drinking > Restaurant > Mexican Restaurant > Taco Restaurant'],b'\x00\x00\x00\x00\x01\xc0YK\x06\xc8q\x1dz@3\xab\xba\xcbB\x89\x12',"{'xmin': -101.172289, 'ymin': 19.670819, 'xmax': -101.172289, 'ymax': 19.670819}",dining and drinking > restaurant > mexican restaurant > taco restaurant,1
53e3cb1b498e4f2d6c68858e,"Tacos & Tortas ""Elias""",20.71942473747997,-103.34683626228215,Saltillo #157,Zapopan,Jalisco,,,,,MX,2014-08-07,2020-11-25,,,,,,,,['4bf58dd8d48988d151941735'],['Dining and Drinking > Restaurant > Mexican Restaurant > Taco Restaurant'],"b'\x00\x00\x00\x00\x01\xc0Y\xd62\x90\xb8\xe4f@4\xb8,87h\xec'","{'xmin': -103.34683626228215, 'ymin': 20.71942473747997, 'xmax': -103.34683626228215, 'ymax': 20.71942473747997}",dining and drinking > restaurant > mexican restaurant > taco restaurant,1
544c6d04498eb6077fab543b,tacos y carnes asadas el caporal,19.88161,-103.594208,Constitución,Sayula,Jalisco,49300,,,,MX,2014-10-26,2020-11-23,,,,,,,,['4bf58dd8d48988d151941735'],['Dining and Drinking > Restaurant > Mexican Restaurant > Taco Restaurant'],b'\x00\x00\x00\x00\x01\xc0Y\xe6\x07\x80\xfd\xc1a@3\xe1\xb11e\xd3\x99',"{'xmin': -103.594208, 'ymin': 19.88161, 'xmax': -103.594208, 'ymax': 19.88161}",dining and drinking > restaurant > mexican restaurant > taco restaurant,1
50fdf585e4b02622ca6e4308,Taqueria El Güero,20.661589101239453,-103.23341575512087,,,,,,,,MX,2013-01-22,2021-08-10,,,,,,,,['4bf58dd8d48988d151941735'],['Dining and Drinking > Restaurant > Mexican Restaurant > Taco Restaurant'],b'\x00\x00\x00\x00\x01\xc0Y\xce\xf0H\xa2\xa7a@4\xa9]\xe7A6\xa7',"{'xmin': -103.23341575512087, 'ymin': 20.661589101239453, 'xmax': -103.23341575512087, 'ymax': 20.661589101239453}",dining and drinking > restaurant > mexican restaurant > taco restaurant,1
4d1e0a695c4ca1cdc0cc8c3d,Tacos El Primo Y El Felino,20.58486951577953,-103.44074327607588,,,,,,,,MX,2010-12-31,2020-11-25,,,,,,,,['4bf58dd8d48988d151941735'],['Dining and Drinking > Restaurant > Mexican Restaurant > Taco Restaurant'],b'\x00\x00\x00\x00\x01\xc0Y\xdc5#I+a@4\x95\xba\x022\xb3P',"{'xmin': -103.44074327607588, 'ymin': 20.58486951577953, 'xmax': -103.44074327607588, 'ymax': 20.58486951577953}",dining and drinking > restaurant > mexican restaurant > taco restaurant,1
5689fe14498e71639e06316a,Antojitos Mexicanos JAVEBI,21.547163,-105.28428,Diaz Ordaz,San Blas Nayarit,,,,,,MX,2016-01-04,2020-11-30,,,,,,,,['4bf58dd8d48988d151941735'],['Dining and Drinking > Restaurant > Mexican Restaurant > Taco Restaurant'],b'\x00\x00\x00\x00\x01\xc0ZR1\xa4\xbd\xba\n@5\x8c\x12\xdf\xd6\x94\xcd',"{'xmin': -105.28428, 'ymin': 21.547163, 'xmax': -105.28428, 'ymax': 21.547163}",dining and drinking > restaurant > mexican restaurant > taco restaurant,1
54fc9cea498ebe4001215675,Gorditas Yolis,22.135366575070165,-100.99308984394342,,,,,,,,MX,2015-03-08,2021-08-14,,,,,,,,['4bf58dd8d48988d151941735'],['Dining and Drinking > Restaurant > Mexican Restaurant > Taco Restaurant'],"b'\x00\x00\x00\x00\x01\xc0Y?\x8e\xc8\xb4n\x83@6""\xa7bD\xe5\xdc'","{'xmin': -100.99308984394342, 'ymin': 22.135366575070165, 'xmax': -100.99308984394342, 'ymax': 22.135366575070165}",dining and drinking > restaurant > mexican restaurant > taco restaurant,1
56fc6679498e4864b2219da3,Súper tacos al carbón Normis,21.461188,-104.892198,,,,,,,,MX,2016-03-30,2021-08-15,,,,,,,,['4bf58dd8d48988d151941735'],['Dining and Drinking > Restaurant > Mexican Restaurant > Taco Restaurant'],b'\x00\x00\x00\x00\x01\xc0Z9\x19\xc5\xa3\xe3\x9f@5v\x10j\xb1N\xc2',"{'xmin': -104.892198, 'ymin': 21.461188, 'xmax': -104.892198, 'ymax': 21.461188}",dining and drinking > restaurant > mexican restaurant > taco restaurant,1
4d450681bf61a1cdf08c0fac,La Barra De Barry,22.152349928276337,-101.01024848697101,Nereo Rodriguez Barragan #1235,San Luis Potosí,SLP,78200,,,,MX,2011-01-30,2023-12-20,,444 822 5508,,,,,,['4bf58dd8d48988d151941735'],['Dining and Drinking > Restaurant > Mexican Restaurant > Taco Restaurant'],"b""\x00\x00\x00\x00\x01\xc0Y@\xa7\xe9E\x17\xef@6'\x00g\xa7~\xac""","{'xmin': -101.01024848697101, 'ymin': 22.152349928276337, 'xmax': -101.01024848697101, 'ymax': 22.152349928276337}",dining and drinking > restaurant > mexican restaurant > taco restaurant,1
4faf3254e4b02f54b86b14e9,Tacos Carlos de carne asada con frijoles de la olla y chiles güeros,21.131668414346507,-101.65782283904491,,,,,,,,MX,2012-05-13,2021-08-16,,,,,,,,['4bf58dd8d48988d151941735'],['Dining and Drinking > Restaurant > Mexican Restaurant > Taco Restaurant'],b'\x00\x00\x00\x00\x01\xc0Yj\x19\xc4\xf7\x10\xa0@5!\xb5\x05m\x88\xd0',"{'xmin': -101.65782283904491, 'ymin': 21.131668414346507, 'xmax': -101.65782283904491, 'ymax': 21.131668414346507}",dining and drinking > restaurant > mexican restaurant > taco restaurant,1
9db114c09c4440580c3574be,Restaurante de los Amigos,20.62397,-101.671696,Juarez S N,Guanajuato,Guanajuato,36960,,,,MX,2013-03-24,2024-05-13,,429 694 0023,,,,,,['4bf58dd8d48988d1d0941735' '4bf58dd8d48988d151941735'],"['Dining and Drinking > Dessert Shop'
 'Dining and Drinking > Restaurant > Mexican Restaurant > Taco Restaurant']",b'\x00\x00\x00\x00\x01\xc0Yj\xfd\x1186\xa8@4\x9f\xbc\x7fw\xafd',"{'xmin': -101.671696, 'ymin': 20.62397, 'xmax': -101.671696, 'ymax': 20.62397}","dining and drinking > dessert shop, dining and drinking > restaurant > mexican restaurant > taco restaurant",1
54e6a6c4498e324752acf4bb,Taqueria la guadalupana 2,22.15135,-100.961604,Av. Universidad,,,,,,,MX,2015-02-20,2021-08-17,,,,,,,,['4bf58dd8d48988d151941735'],['Dining and Drinking > Restaurant > Mexican Restaurant > Taco Restaurant'],b'\x00\x00\x00\x00\x01\xc0Y=\x8a\xeb\x80\xec\xfa@6&\xbe\xdf\xa4?\xe6',"{'xmin': -100.961604, 'ymin': 22.15135, 'xmax': -100.961604, 'ymax': 22.15135}",dining and drinking > restaurant > mexican restaurant > taco restaurant,1
5a3725f72619ee48dc1b0d1c,Taco Sanvi Badeba,20.752455,-105.252852,Ostion 48,Bahía de Banderas,NAY,63737,,,,MX,2017-12-18,2020-11-30,,,,,,,,['4bf58dd8d48988d151941735'],['Dining and Drinking > Restaurant > Mexican Restaurant > Taco Restaurant'],"b""\x00\x00\x00\x00\x01\xc0ZP.\xba'\xae\x9b@4\xc0\xa0\xe4\x10\xb61""","{'xmin': -105.252852, 'ymin': 20.752455, 'xmax': -105.252852, 'ymax': 20.752455}",dining and drinking > restaurant > mexican restaurant > taco restaurant,1
6268a43d501264600023e33e,El Padrino Grill,21.152352,-101.729028,Prolongación Campestre,León,GTO,37358,,,,MX,2022-04-27,2022-04-27,,,,,,,,['4bf58dd8d48988d151941735' '4bf58dd8d48988d1c1941735'],"['Dining and Drinking > Restaurant > Mexican Restaurant > Taco Restaurant'
 'Dining and Drinking > Restaurant > Mexican Restaurant']","b""\x00\x00\x00\x00\x01\xc0Yn\xa8e\x0ew\x92@5'\x00\x8aiz\xee""","{'xmin': -101.729028, 'ymin': 21.152352, 'xmax': -101.729028, 'ymax': 21.152352}","dining and drinking > restaurant > mexican restaurant > taco restaurant, dining and drinking > restaurant > mexican restaurant",1
505a6f59e4b066ff885d4293,tacos shanok,21.87306022644043,-102.30256652832031,,,,,,,,MX,2012-09-20,2021-08-13,,,,,,,,['4bf58dd8d48988d151941735'],['Dining and Drinking > Restaurant > Mexican Restaurant > Taco Restaurant'],b'\x00\x00\x00\x00\x01\xc0Y\x93]@\x00\x00\x00@5\xdf\x80\xe0\x00\x00\x00',"{'xmin': -102.30256652832031, 'ymin': 21.87306022644043, 'xmax': -102.30256652832031, 'ymax': 21.87306022644043}",dining and drinking > restaurant > mexican restaurant > taco restaurant,1
5533345a498e17137cc02b56,Tacos Paco's,21.48917873703191,-104.88336902084005,,,,,,,,MX,2015-04-19,2021-08-13,,,,,,,,['4bf58dd8d48988d151941735'],['Dining and Drinking > Restaurant > Mexican Restaurant > Taco Restaurant'],b'\x00\x00\x00\x00\x01\xc0Z8\x89\x1e7\xb3\xaf@5}:\xd1Us]',"{'xmin': -104.88336902084005, 'ymin': 21.48917873703191, 'xmax': -104.88336902084005, 'ymax': 21.48917873703191}",dining and drinking > restaurant > mexican restaurant > taco restaurant,1
52ef0945498e4df1656a2463,Tacos Chema,20.142302725424035,-101.18631635026627,5 De Mayo,,Uriangato,,,,,MX,2014-02-03,2021-08-15,,,,,,,,['4bf58dd8d48988d151941735'],['Dining and Drinking > Restaurant > Mexican Restaurant > Taco Restaurant'],b'\x00\x00\x00\x00\x01\xc0YK\xec\x9bi\xc6\xa3@4$m\xf3\x8f\xd3\xf1',"{'xmin': -101.18631635026627, 'ymin': 20.142302725424035, 'xmax': -101.18631635026627, 'ymax': 20.142302725424035}",dining and drinking > restaurant > mexican restaurant > taco restaurant,1
57d5d793498e630087b7e879,Tacos Murillo,21.092932,-101.658394,,León,Guanajuato,,,,,MX,2016-09-11,2020-11-25,,,,,,,,['4bf58dd8d48988d151941735'],['Dining and Drinking > Restaurant > Mexican Restaurant > Taco Restaurant'],b'\x00\x00\x00\x00\x01\xc0Yj# \x96x}@5\x17\xcad<\xc0{',"{'xmin': -101.658394, 'ymin': 21.092932, 'xmax': -101.658394, 'ymax': 21.092932}",dining and drinking > restaurant > mexican restaurant > taco restaurant,1
51fc87f4498e4572eb93faf8,Tacos El Crucerito,20.7379344614931,-105.2701309352914,,,,,,,,MX,2013-08-03,2020-11-30,,,,,,,,['4bf58dd8d48988d151941735'],['Dining and Drinking > Restaurant > Mexican Restaurant > Taco Restaurant'],b'\x00\x00\x00\x00\x01\xc0ZQI\xd3C-\xba@4\xbc\xe9E\xda\xb4I',"{'xmin': -105.2701309352914, 'ymin': 20.7379344614931, 'xmax': -105.2701309352914, 'ymax': 20.7379344614931}",dining and drinking > restaurant > mexican restaurant > taco restaurant,1
5d9b6039b5059b0008298fbb,Tacos el Mengache,21.902662,-102.280143,"Libra Esquina Con orion, La Estrella",Aguascalientes,AGS,20150,,,,MX,2019-10-07,2020-11-25,,,,,,,,['4bf58dd8d48988d151941735'],['Dining and Drinking > Restaurant > Mexican Restaurant > Taco Restaurant'],b'\x00\x00\x00\x00\x01\xc0Y\x91\xed\xdc\xe7\xcd\x03@5\xe7\x14\xdbYW\x8a',"{'xmin': -102.280143, 'ymin': 21.902662, 'xmax': -102.280143, 'ymax': 21.902662}",dining and drinking > restaurant > mexican restaurant > taco restaurant,1
4ddf127f7d8b04e502555fd8,Tacos Furber,20.672165772761726,-101.34599579267497,Alvaro Obregón,Irapuato,GTO,,,,,MX,2011-01-16,2021-11-23,,,,,,,,['4bf58dd8d48988d151941735'],['Dining and Drinking > Restaurant > Mexican Restaurant > Taco Restaurant'],b'\x00\x00\x00\x00\x01\xc0YV$\xcb\x89\x85\xed@4\xac\x13\x0e[\x80\x8f',"{'xmin': -101.34599579267497, 'ymin': 20.672165772761726, 'xmax': -101.34599579267497, 'ymax': 20.672165772761726}",dining and drinking > restaurant > mexican restaurant > taco restaurant,1
5b194a39dab4b1002cfacf14,Birrieria Las Pencas,21.899944,-102.301661,,Aguascalientes,AGS,20020,,,,MX,2018-06-07,2020-11-30,,,,,,,,['4bf58dd8d48988d151941735'],['Dining and Drinking > Restaurant > Mexican Restaurant > Taco Restaurant'],b'\x00\x00\x00\x00\x01\xc0Y\x93Ni\xf0^\xa2@5\xe6b\xba\xe0;?',"{'xmin': -102.301661, 'ymin': 21.899944, 'xmax': -102.301661, 'ymax': 21.899944}",dining and drinking > restaurant > mexican restaurant > taco restaurant,1
51f1c882498e9f2bc17ec374,Tacos Las Muchachas,20.733100882089932,-103.31124713641684,Volcán Misti,Guadalajara,Jalisco,44250,,,,MX,2013-07-26,2021-08-13,,,,,,,,['4bf58dd8d48988d151941735'],['Dining and Drinking > Restaurant > Mexican Restaurant > Taco Restaurant'],b'\x00\x00\x00\x00\x01\xc0Y\xd3\xeby\x1b\xf8\x93@4\xbb\xac\x7f\xd9>\xb9',"{'xmin': -103.31124713641684, 'ymin': 20.733100882089932, 'xmax': -103.31124713641684, 'ymax': 20.733100882089932}",dining and drinking > restaurant > mexican restaurant > taco restaurant,1
5302c977498eb9a216a3dceb,El Taco-keton,21.479568481445312,-104.8797607421875,Cannan,Tepic,Nayarit,63197,,,,MX,2014-02-18,2020-11-25,,,,,,,,['4bf58dd8d48988d151941735'],['Dining and Drinking > Restaurant > Mexican Restaurant > Taco Restaurant'],b'\x00\x00\x00\x00\x01\xc0Z8N\x00\x00\x00\x00@5z\xc5\x00\x00\x00\x00',"{'xmin': -104.8797607421875, 'ymin': 21.479568481445312, 'xmax': -104.8797607421875, 'ymax': 21.479568481445312}",dining and drinking > restaurant > mexican restaurant > taco restaurant,1
57768b04498ec3756617a63c,Tacos El Cuate Beto,20.451784,-101.529465,Callejón Aldana,Abasolo,Guanajuato,36970,,,,MX,2016-07-01,2020-11-24,,,,,,,,['4bf58dd8d48988d151941735'],['Dining and Drinking > Restaurant > Mexican Restaurant > Taco Restaurant'],"b""\x00\x00\x00\x00\x01\xc0Ya\xe2\xc1*\xd8\x1b@4s\xa8\x1d\xc0\xdb'""","{'xmin': -101.529465, 'ymin': 20.451784, 'xmax': -101.529465, 'ymax': 20.451784}",dining and drinking > restaurant > mexican restaurant > taco restaurant,1
494b3b50a9734f7333cbf369,La Polar,19.243528,-103.727976,Portal Medellin 46,Colima,Colima,28000,,,,MX,2013-06-15,2023-12-06,,312 313 1012,,sergiogarciapolar@yahoo.com.mx,,,,"['4bf58dd8d48988d16e941735' '4bf58dd8d48988d153941735'
 '4bf58dd8d48988d151941735']","['Dining and Drinking > Restaurant > Fast Food Restaurant'
 'Dining and Drinking > Restaurant > Mexican Restaurant > Burrito Restaurant'
 'Dining and Drinking > Restaurant > Mexican Restaurant > Taco Restaurant']",b'\x00\x00\x00\x00\x01\xc0Y\xee\x97(\xa6\x11w@3>W\xd9\xdb\xa9\t',"{'xmin': -103.727976, 'ymin': 19.243528, 'xmax': -103.727976, 'ymax': 19.243528}","dining and drinking > restaurant > fast food restaurant, dining and drinking > restaurant > mexican restaurant > burrito restaurant, dining and drinking > restaurant > mexican restaurant > taco restaurant",1
4d64b02489238cfa6c049036,Valapanza,20.635098,-105.230065,,Puerto Vallarta,JAL,,,,,MX,2011-02-23,2020-11-30,2011-04-25,,,,,,,['4bf58dd8d48988d151941735'],['Dining and Drinking > Restaurant > Mexican Restaurant > Taco Restaurant'],b'\x00\x00\x00\x00\x01\xc0ZN\xb9b\x8c\xbd\x12@4\xa2\x95\xc8S\xc1H',"{'xmin': -105.230065, 'ymin': 20.635098, 'xmax': -105.230065, 'ymax': 20.635098}",dining and drinking > restaurant > mexican restaurant > taco restaurant,1
503fd662e4b02f9093188df8,Tortas ahogadas felipe,20.72903,-103.38206,,,,,,,,MX,2012-08-30,2021-08-19,,,,,,,,['4bf58dd8d48988d151941735'],['Dining and Drinking > Restaurant > Mexican Restaurant > Taco Restaurant'],b'\x00\x00\x00\x00\x01\xc0Y\xd8s\xab\xc9G\x06@4\xba\xa1\xb5\xc7\xcd\x8a',"{'xmin': -103.38206, 'ymin': 20.72903, 'xmax': -103.38206, 'ymax': 20.72903}",dining and drinking > restaurant > mexican restaurant > taco restaurant,1
4fb9252be4b021353c67ad1a,Tacos de barbacoa “El Lolo”,20.694778714376785,-103.29511662122516,,,,,,,,MX,2012-05-20,2021-08-13,,,,,,,,['4bf58dd8d48988d151941735'],['Dining and Drinking > Restaurant > Mexican Restaurant > Taco Restaurant'],b'\x00\x00\x00\x00\x01\xc0Y\xd2\xe30\xd3*\xc2@4\xb1\xdd\x04\x904\x89',"{'xmin': -103.29511662122516, 'ymin': 20.694778714376785, 'xmax': -103.29511662122516, 'ymax': 20.694778714376785}",dining and drinking > restaurant > mexican restaurant > taco restaurant,1
4eeaea942c5beea61fe1d86e,Tacos El Hidalguense,19.276779885699437,-99.67754001849131,,,,,,,,MX,2011-12-16,2021-08-15,,,,,,,,['4bf58dd8d48988d151941735'],['Dining and Drinking > Restaurant > Mexican Restaurant > Taco Restaurant'],b'\x00\x00\x00\x00\x01\xc0X\xeb\\\xd0\xcfI\xb1@3F\xdb\x0b\xedE\x0b',"{'xmin': -99.67754001849131, 'ymin': 19.276779885699437, 'xmax': -99.67754001849131, 'ymax': 19.276779885699437}",dining and drinking > restaurant > mexican restaurant > taco restaurant,1
4f83bc54e4b005970555e287,Los Enriques!,19.260488507317973,-99.64322943668029,,,,,,,,MX,2012-04-10,2020-11-23,,,,,,,,['4bf58dd8d48988d151941735'],['Dining and Drinking > Restaurant > Mexican Restaurant > Taco Restaurant'],b'\x00\x00\x00\x00\x01\xc0X\xe9*\xab\xcc\x97r@3B\xaf_\xf3\xea ',"{'xmin': -99.64322943668029, 'ymin': 19.260488507317973, 'xmax': -99.64322943668029, 'ymax': 19.260488507317973}",dining and drinking > restaurant > mexican restaurant > taco restaurant,1
61d1d51f9f7c8305832e7e8e,Tacos El Cache,20.55199,-103.44404,Ocampo,Santa Anita,Jalisco,45600,,,,MX,2022-01-02,2022-01-02,,,,,,,,['4bf58dd8d48988d151941735'],['Dining and Drinking > Restaurant > Mexican Restaurant > Taco Restaurant'],b'\x00\x00\x00\x00\x01\xc0Y\xdck&\xbf\x87j@4\x8dO7u\xb8\x13',"{'xmin': -103.44404, 'ymin': 20.55199, 'xmax': -103.44404, 'ymax': 20.55199}",dining and drinking > restaurant > mexican restaurant > taco restaurant,1
50fc2575e4b0d5fd0bdc45f5,Tortillas Hechas A Mano,18.951970373191923,-99.23011547539035,,,,,,,,MX,2013-01-20,2021-08-13,,,,,,,,['4bf58dd8d48988d151941735'],['Dining and Drinking > Restaurant > Mexican Restaurant > Taco Restaurant'],b'\x00\x00\x00\x00\x01\xc0X\xce\xba6BF\xb9@2\xf3\xb4T\x93\x9e\xc7',"{'xmin': -99.23011547539035, 'ymin': 18.951970373191923, 'xmax': -99.23011547539035, 'ymax': 18.951970373191923}",dining and drinking > restaurant > mexican restaurant > taco restaurant,1
5345de3c498e096251607763,Fundidora House Taco Company,19.26130631602492,-99.61783398538574,Plaza Mayor,Metepec,México,,,,,MX,2014-04-09,2020-11-24,,,,,,,,['4bf58dd8d48988d151941735'],['Dining and Drinking > Restaurant > Mexican Restaurant > Taco Restaurant'],b'\x00\x00\x00\x00\x01\xc0X\xe7\x8a\x97\x8ee\xb4@3B\xe4\xf8\x81\x90\xb6',"{'xmin': -99.61783398538574, 'ymin': 19.26130631602492, 'xmax': -99.61783398538574, 'ymax': 19.26130631602492}",dining and drinking > restaurant > mexican restaurant > taco restaurant,1
54d57784498e64e312b3017c,Cenaduría de Doña Sarita,17.045247,-96.720714,,,,,,,,MX,2015-02-07,2021-08-13,,,,,,,,['4bf58dd8d48988d151941735'],['Dining and Drinking > Restaurant > Mexican Restaurant > Taco Restaurant'],b'\x00\x00\x00\x00\x01\xc0X. -\x9c\xf1=@1\x0b\x95N\xb1=\xfb',"{'xmin': -96.720714, 'ymin': 17.045247, 'xmax': -96.720714, 'ymax': 17.045247}",dining and drinking > restaurant > mexican restaurant > taco restaurant,1
5c670ba69cadd9002c4ba580,Carnitas Los Hijos De Jesús,18.467882,-97.41945,,Tehuacán,Puebla,,,,,MX,2019-02-15,2020-11-30,,,,,,,,['4bf58dd8d48988d151941735'],['Dining and Drinking > Restaurant > Mexican Restaurant > Taco Restaurant'],b'\x00\x00\x00\x00\x01\xc0XZ\xd8D\xd0\x13\xa9@2w\xc7\x1d`c\x17',"{'xmin': -97.41945, 'ymin': 18.467882, 'xmax': -97.41945, 'ymax': 18.467882}",dining and drinking > restaurant > mexican restaurant > taco restaurant,1
5c15dfe69deb7d002c5c5c1a,Pollos Y Taqueria San Francisco,17.547712,-98.57169,,Tlapa,Guerrero,41300,,,,MX,2018-12-16,2020-11-23,,,,,,,,['4bf58dd8d48988d151941735'],['Dining and Drinking > Restaurant > Mexican Restaurant > Taco Restaurant'],b'\x00\x00\x00\x00\x01\xc0X\xa4\x96\x91\xa7\\\xd1@1\x8c6\xda\x87\xa0s',"{'xmin': -98.57169, 'ymin': 17.547712, 'xmax': -98.57169, 'ymax': 17.547712}",dining and drinking > restaurant > mexican restaurant > taco restaurant,1
53f6a425498e181563b761cf,Tacos la Justo,17.547378,-98.576616,,,,,,,,MX,2014-08-22,2021-08-15,,,,,,,,['4bf58dd8d48988d151941735'],['Dining and Drinking > Restaurant > Mexican Restaurant > Taco Restaurant'],b'\x00\x00\x00\x00\x01\xc0X\xa4\xe7F\xcb\x96l@1\x8c \xf6\xf0\x8c\xc5',"{'xmin': -98.576616, 'ymin': 17.547378, 'xmax': -98.576616, 'ymax': 17.547378}",dining and drinking > restaurant > mexican restaurant > taco restaurant,1
56493992498eb29ce0f995cb,cena de goya,19.16018,-101.918495,Iberica,,,,,,,MX,2015-11-16,2020-11-25,,,,,,,,['4bf58dd8d48988d151941735'],['Dining and Drinking > Restaurant > Mexican Restaurant > Taco Restaurant'],b'\x00\x00\x00\x00\x01\xc0Yz\xc8\x9f@\xa2\x87@3)\x01\x8euy)',"{'xmin': -101.918495, 'ymin': 19.16018, 'xmax': -101.918495, 'ymax': 19.16018}",dining and drinking > restaurant > mexican restaurant > taco restaurant,1
5829e98bbcf73e19ea8a7ced,De Pibil,19.188755,-96.134586,Uribe 1203,Veracruz,Veracruz,91700,,,,MX,2016-11-14,2020-11-30,,,,,,,,['4bf58dd8d48988d151941735'],['Dining and Drinking > Restaurant > Mexican Restaurant > Taco Restaurant'],b'\x00\x00\x00\x00\x01\xc0X\x08\x9d\x0e\x99\x1f\xf7@30R?g\xf4\xdc',"{'xmin': -96.134586, 'ymin': 19.188755, 'xmax': -96.134586, 'ymax': 19.188755}",dining and drinking > restaurant > mexican restaurant > taco restaurant,1
4fa5473ce4b0bcbb46e94e48,"Huaraches ""el rey de reyes""",19.251583,-99.119994,,,,,,,,MX,2012-05-05,2021-08-16,,,,,,,,['4bf58dd8d48988d151941735'],['Dining and Drinking > Restaurant > Mexican Restaurant > Taco Restaurant'],b'\x00\x00\x00\x00\x01\xc0X\xc7\xad\xfbPm\xd7@3@g\xbeU:\xc5',"{'xmin': -99.119994, 'ymin': 19.251583, 'xmax': -99.119994, 'ymax': 19.251583}",dining and drinking > restaurant > mexican restaurant > taco restaurant,1
588422b1a4367c40784d0803,Tacos Vargas,16.967203,-99.093987,,,,,,,,MX,2017-01-22,2020-11-25,,,,,,,,['4bf58dd8d48988d151941735'],['Dining and Drinking > Restaurant > Mexican Restaurant > Taco Restaurant'],b'\x00\x00\x00\x00\x01\xc0X\xc6\x03\xe2\x0c\xcf\xf2@0\xf7\x9a\x9d\xa5\x97\xd5',"{'xmin': -99.093987, 'ymin': 16.967203, 'xmax': -99.093987, 'ymax': 16.967203}",dining and drinking > restaurant > mexican restaurant > taco restaurant,1
5cf2e216b3d8e2002cde10a7,Taquería La Tamarinda,18.34057,-99.52218,,Iguala de la Independencia,Guerrero,,,,,MX,2019-06-01,2020-11-24,,,,,,,,['4bf58dd8d48988d151941735'],['Dining and Drinking > Restaurant > Mexican Restaurant > Taco Restaurant'],b'\x00\x00\x00\x00\x01\xc0X\xe1ke\xa9\xa8\x05@2W/\x98s\xff\xac',"{'xmin': -99.52218, 'ymin': 18.34057, 'xmax': -99.52218, 'ymax': 18.34057}",dining and drinking > restaurant > mexican restaurant > taco restaurant,1
51278a2ee4b06550968fc7f0,Taqueria Alfredo,17.959874093579675,-102.19301702676415,Calle Allende 491,Lázaro Cárdenas,Mich,60950,,,,MX,2013-02-22,2020-11-24,,,,,,,,['4bf58dd8d48988d151941735'],['Dining and Drinking > Restaurant > Mexican Restaurant > Taco Restaurant'],b'\x00\x00\x00\x00\x01\xc0Y\x8cZd\x16a|@1\xf5\xbaO\x003\xcd',"{'xmin': -102.19301702676415, 'ymin': 17.959874093579675, 'xmax': -102.19301702676415, 'ymax': 17.959874093579675}",dining and drinking > restaurant > mexican restaurant > taco restaurant,1
5104a55ce4b00784623615d3,Taquería Emanuel,15.77476978302002,-96.13904571533203,,,,,,,,MX,2013-01-27,2020-11-20,,,,,,,,['4bf58dd8d48988d151941735'],['Dining and Drinking > Restaurant > Mexican Restaurant > Taco Restaurant'],b'\x00\x00\x00\x00\x01\xc0X\x08\xe6 \x00\x00\x00@/\x8c\xae\xa0\x00\x00\x00',"{'xmin': -96.13904571533203, 'ymin': 15.77476978302002, 'xmax': -96.13904571533203, 'ymax': 15.77476978302002}",dining and drinking > restaurant > mexican restaurant > taco restaurant,1
5789a766498ed21e61a318c2,Cenaduría La Tía De Misa,17.046835,-96.71799,,Oaxaca,Oaxaca,,,,,MX,2016-07-16,2020-11-25,,,,,,,,['4bf58dd8d48988d151941735'],['Dining and Drinking > Restaurant > Mexican Restaurant > Taco Restaurant'],b'\x00\x00\x00\x00\x01\xc0X-\xf3\x8cT6\xb9@1\x0b\xfd`\xe9N\xe4',"{'xmin': -96.71799, 'ymin': 17.046835, 'xmax': -96.71799, 'ymax': 17.046835}",dining and drinking > restaurant > mexican restaurant > taco restaurant,1
4f60cb68e4b071d8a243d2cd,"IBkekas, IBt UNAM",18.98293710266896,-99.23471468503148,,,,,,,,MX,2012-03-14,2021-08-16,,,,,,,,['4bf58dd8d48988d151941735'],['Dining and Drinking > Restaurant > Mexican Restaurant > Taco Restaurant'],b'\x00\x00\x00\x00\x01\xc0X\xcf\x05\x90\xbe\x06y@2\xfb\xa1\xc4\x15\xfc\xf9',"{'xmin': -99.23471468503148, 'ymin': 18.98293710266896, 'xmax': -99.23471468503148, 'ymax': 18.98293710266896}",dining and drinking > restaurant > mexican restaurant > taco restaurant,1
5895321f0a3d54567e24fffc,tacos estilo iguala,17.55479,-99.522745,,,,,,,,MX,2017-02-04,2021-08-16,,,,,,,,['4bf58dd8d48988d151941735'],['Dining and Drinking > Restaurant > Mexican Restaurant > Taco Restaurant'],b'\x00\x00\x00\x00\x01\xc0X\xe1t\xa7q\xc9q@1\x8e\x06\xb7\xaa%\xd9',"{'xmin': -99.522745, 'ymin': 17.55479, 'xmax': -99.522745, 'ymax': 17.55479}",dining and drinking > restaurant > mexican restaurant > taco restaurant,1
515d05bde4b00e3f7e14e08a,taqueria la veracruzana,19.171960392182122,-96.21597353466194,Tejeria,,,,,,,MX,2013-04-04,2020-11-22,,,,,,,,['4bf58dd8d48988d151941735'],['Dining and Drinking > Restaurant > Mexican Restaurant > Taco Restaurant'],"b'\x00\x00\x00\x00\x01\xc0X\r\xd2\x82\xa9\x0b,@3,\x05\x98\xa4\xa1*'","{'xmin': -96.21597353466194, 'ymin': 19.171960392182122, 'xmax': -96.21597353466194, 'ymax': 19.171960392182122}",dining and drinking > restaurant > mexican restaurant > taco restaurant,1
596844533b4e003a5cb8d0f3,Los Chilanguines Tapachula,14.894203,-92.27708,Décima Sur,Tapachula,Chiapas,,,,,MX,2017-07-14,2023-09-12,,,,,,,,['4bf58dd8d48988d151941735'],['Dining and Drinking > Restaurant > Mexican Restaurant > Taco Restaurant'],b'\x00\x00\x00\x00\x01\xc0W\x11\xbb\xad\xc0\x98\x0b@-\xc9\xd4\xf9\xc1\xf8]',"{'xmin': -92.27708, 'ymin': 14.894203, 'xmax': -92.27708, 'ymax': 14.894203}",dining and drinking > restaurant > mexican restaurant > taco restaurant,1
5193b97d498e02ec985ffd8b,Tacos Beto,19.284332,-99.23012,,,,,,,,MX,2013-05-15,2021-08-17,,,,,,,,['4bf58dd8d48988d151941735'],['Dining and Drinking > Restaurant > Mexican Restaurant > Taco Restaurant'],b'\x00\x00\x00\x00\x01\xc0X\xce\xbaI<\x89\xf4@3H\xc9\xfba4\xce',"{'xmin': -99.23012, 'ymin': 19.284332, 'xmax': -99.23012, 'ymax': 19.284332}",dining and drinking > restaurant > mexican restaurant > taco restaurant,1
4deef90dc65bf3f03e8bfd12,Tacos San Pedro,18.34318630845561,-99.53419975608206,Celestino Negrete 7,Iguala de La Independencia,Guerrero,,,,,MX,2011-06-08,2020-11-22,,,,,,,,['4bf58dd8d48988d151941735'],['Dining and Drinking > Restaurant > Mexican Restaurant > Taco Restaurant'],"b'\x00\x00\x00\x00\x01\xc0X\xe20T,y\xd5@2W\xdb\x0e\xd3@w'","{'xmin': -99.53419975608206, 'ymin': 18.34318630845561, 'xmax': -99.53419975608206, 'ymax': 18.34318630845561}",dining and drinking > restaurant > mexican restaurant > taco restaurant,1
4bc90eef68f976b0fdb35c83,"Taqueria ""El Reposo""",18.08400041598219,-96.12405229197692,,,,,,,,MX,2010-04-17,2021-08-14,,,,,,,,['4bf58dd8d48988d151941735'],['Dining and Drinking > Restaurant > Mexican Restaurant > Taco Restaurant'],b'\x00\x00\x00\x00\x01\xc0X\x07\xf0y\x06B9@2\x15\x81\r\x1f~p',"{'xmin': -96.12405229197692, 'ymin': 18.08400041598219, 'xmax': -96.12405229197692, 'ymax': 18.08400041598219}",dining and drinking > restaurant > mexican restaurant > taco restaurant,1
51d8e49c498e54c6b1bf90f0,El Paisa Chilaquil,19.337212021075246,-99.10897976761646,Av Tláhuac,Iztapalapa,CDMX,,,,,MX,2013-07-07,2020-11-25,,,,,,,,['4bf58dd8d48988d151941735'],['Dining and Drinking > Restaurant > Mexican Restaurant > Taco Restaurant'],b'\x00\x00\x00\x00\x01\xc0X\xc6\xf9\x86Fu\xa8@3VS\x86\xeaV\x14',"{'xmin': -99.10897976761646, 'ymin': 19.337212021075246, 'xmax': -99.10897976761646, 'ymax': 19.337212021075246}",dining and drinking > restaurant > mexican restaurant > taco restaurant,1
5510c2cf498ec5efacb5c88f,Taquíssimo,19.181974,-96.144309,,,,,,,,MX,2015-03-24,2021-08-12,,,,,,,,['4bf58dd8d48988d151941735'],['Dining and Drinking > Restaurant > Mexican Restaurant > Taco Restaurant'],b'\x00\x00\x00\x00\x01\xc0X\t<[\xd0\xe1/@3.\x95\xd9\x1a\xb8\xe9',"{'xmin': -96.144309, 'ymin': 19.181974, 'xmax': -96.144309, 'ymax': 19.181974}",dining and drinking > restaurant > mexican restaurant > taco restaurant,1
4f5b800de4b0838067652f50,El Borreguito De Oro,18.926039484454005,-99.23270723306433,Mercado Adolfo Lopez Mateos,,,,,,,MX,2012-03-10,2021-08-14,,,,,,,,['4bf58dd8d48988d151941735'],['Dining and Drinking > Restaurant > Mexican Restaurant > Taco Restaurant'],b'\x00\x00\x00\x00\x01\xc0X\xce\xe4\xac\xe0\xe3t@2\xed\x10\xect\x88\xdf',"{'xmin': -99.23270723306433, 'ymin': 18.926039484454005, 'xmax': -99.23270723306433, 'ymax': 18.926039484454005}",dining and drinking > restaurant > mexican restaurant > taco restaurant,1
549b851c498e59f586295519,Taqueria 2 X 1,19.29230406725458,-99.21782334544304,,,,,,,,MX,2014-12-25,2021-08-11,,,,,,,,['4bf58dd8d48988d151941735'],['Dining and Drinking > Restaurant > Mexican Restaurant > Taco Restaurant'],b'\x00\x00\x00\x00\x01\xc0X\xcd\xf0\xd1T>\xec@3J\xd4pyX\xa1',"{'xmin': -99.21782334544304, 'ymin': 19.29230406725458, 'xmax': -99.21782334544304, 'ymax': 19.29230406725458}",dining and drinking > restaurant > mexican restaurant > taco restaurant,1
50f8c5dce4b0dbf5101adae8,Taqueria Don Lupe,20.547887077610756,-103.36908906635367,,,,,,,,MX,2013-01-18,2020-11-24,,,,,,,,['4bf58dd8d48988d151941735'],['Dining and Drinking > Restaurant > Mexican Restaurant > Taco Restaurant'],"b""\x00\x00\x00\x00\x01\xc0Y\xd7\x9f'\xbfS6@4\x8cBS\xd8==""","{'xmin': -103.36908906635367, 'ymin': 20.547887077610756, 'xmax': -103.36908906635367, 'ymax': 20.547887077610756}",dining and drinking > restaurant > mexican restaurant > taco restaurant,1
5cfffc94c4df1d002ce2cfbd,Real De Pastor,19.138936,-96.102083,,Boca del Río,VER,94298,,,,MX,2019-06-11,2020-11-24,,,,,,,,['4bf58dd8d48988d151941735'],['Dining and Drinking > Restaurant > Mexican Restaurant > Taco Restaurant'],"b'\x00\x00\x00\x00\x01\xc0X\x06\x88\x87""\x9e\x90@3#\x91OH<\xb0'","{'xmin': -96.102083, 'ymin': 19.138936, 'xmax': -96.102083, 'ymax': 19.138936}",dining and drinking > restaurant > mexican restaurant > taco restaurant,1
5208f6ce498e9382313a509b,Tacos De Martin,19.295547649336655,-99.11957552895885,,,,,,,,MX,2013-08-12,2021-08-16,,,,,,,,['4bf58dd8d48988d151941735'],['Dining and Drinking > Restaurant > Mexican Restaurant > Taco Restaurant'],b'\x00\x00\x00\x00\x01\xc0X\xc7\xa7 \x1e\x91\xee@3K\xa9\x02\xc0O\x84',"{'xmin': -99.11957552895885, 'ymin': 19.295547649336655, 'xmax': -99.11957552895885, 'ymax': 19.295547649336655}",dining and drinking > restaurant > mexican restaurant > taco restaurant,1
61d09e123300f43e6888333e,Comida Casera Aurrera,19.885157,-102.20014,,Tangancícuaro de Arista,Michoacán,59750,,,,MX,2022-01-01,2022-01-01,,,,,,,,['4bf58dd8d48988d151941735'],['Dining and Drinking > Restaurant > Mexican Restaurant > Taco Restaurant'],b'\x00\x00\x00\x00\x01\xc0Y\x8c\xcf\x18\x00\xa7\xc6@3\xe2\x99\xa6.\xd3R',"{'xmin': -102.20014, 'ymin': 19.885157, 'xmax': -102.20014, 'ymax': 19.885157}",dining and drinking > restaurant > mexican restaurant > taco restaurant,1
4e7bd98f7d8be4806602f034,El Pastorcito,18.95743908404327,-99.26355135930054,,Cuernavaca,Morelos,,,,,MX,2011-09-23,2020-11-17,,,,,,,,['4bf58dd8d48988d151941735'],['Dining and Drinking > Restaurant > Mexican Restaurant > Taco Restaurant'],b'\x00\x00\x00\x00\x01\xc0X\xd0\xde\x06\x85@\xc7@2\xf5\x1a\xbaQ\xe0\xc7',"{'xmin': -99.26355135930054, 'ymin': 18.95743908404327, 'xmax': -99.26355135930054, 'ymax': 18.95743908404327}",dining and drinking > restaurant > mexican restaurant > taco restaurant,1
52abadbf11d28fabb7ef71e5,La iguana loca,19.314462,-99.110618,,,,,,,,MX,2013-12-14,2021-08-12,,,,,,,,['4bf58dd8d48988d151941735'],['Dining and Drinking > Restaurant > Mexican Restaurant > Taco Restaurant'],b'\x00\x00\x00\x00\x01\xc0X\xc7\x14]\x85\x16U@3P\x80\x94\xe5\xd5\xb2',"{'xmin': -99.110618, 'ymin': 19.314462, 'xmax': -99.110618, 'ymax': 19.314462}",dining and drinking > restaurant > mexican restaurant > taco restaurant,1
4d4b86f87a45721eb3fdba54,Taquería San Guillermo,19.30923863035661,-99.16327527469913,Av. San Guillermo,Mexico City,Distrito Federal,,,,,MX,2011-02-04,2020-11-30,,,,,,,,['4bf58dd8d48988d151941735'],['Dining and Drinking > Restaurant > Mexican Restaurant > Taco Restaurant'],b'\x00\x00\x00\x00\x01\xc0X\xcas\x1a#E\x01@3O*CL\n\x9e',"{'xmin': -99.16327527469913, 'ymin': 19.30923863035661, 'xmax': -99.16327527469913, 'ymax': 19.30923863035661}",dining and drinking > restaurant > mexican restaurant > taco restaurant,1
584b8ae96ad73d05c600eb6a,Taco Bongo (Tacos & Chelas),16.857712,-99.86843,Miguel Alemán,Acapulco,Guerrero,,,,,MX,2016-12-10,2023-12-20,,722 431 1258,,,,,,['4bf58dd8d48988d151941735'],['Dining and Drinking > Restaurant > Mexican Restaurant > Taco Restaurant'],b'\x00\x00\x00\x00\x01\xc0X\xf7\x94[l7a@0\xdb\x93\x03}c\x02',"{'xmin': -99.86843, 'ymin': 16.857712, 'xmax': -99.86843, 'ymax': 16.857712}",dining and drinking > restaurant > mexican restaurant > taco restaurant,1
4d69a4442acd6ea864db3cc0,Los Tarascos,17.53366982962307,-99.49522536864997,Unidos Por Guerrero,Chilpancingo,Guerrero,,,,,MX,2011-02-27,2024-01-04,,747 491 6127,http://lostarascos.com.mx,,,,,['4bf58dd8d48988d151941735'],['Dining and Drinking > Restaurant > Mexican Restaurant > Taco Restaurant'],b'\x00\x00\x00\x00\x01\xc0X\xdf\xb1\xc5\xbe\xa0\x13@1\x88\x9e\x96\x01\x17\xcd',"{'xmin': -99.49522536864997, 'ymin': 17.53366982962307, 'xmax': -99.49522536864997, 'ymax': 17.53366982962307}",dining and drinking > restaurant > mexican restaurant > taco restaurant,1
5a19fa720fe7a05b6ec5a2ac,Carnitas Jock,19.281207,-99.223538,,Ciudad de México,CDMX,14200,,,,MX,2017-11-25,2020-11-30,,,,,,,,['4bf58dd8d48988d151941735'],['Dining and Drinking > Restaurant > Mexican Restaurant > Taco Restaurant'],b'\x00\x00\x00\x00\x01\xc0X\xceNrS\xdas@3G\xfd.\x94h\x01',"{'xmin': -99.223538, 'ymin': 19.281207, 'xmax': -99.223538, 'ymax': 19.281207}",dining and drinking > restaurant > mexican restaurant > taco restaurant,1
56520991498e84bcd8e0e224,Dom' Taco,18.45909145410702,-99.41086560475814,"Ferrocarril, Av. Principal",Buenavista de Cuéllar,Guerrero,40330,,,,MX,2015-11-22,2020-11-24,,,,,,,,['4bf58dd8d48988d151941735'],['Dining and Drinking > Restaurant > Mexican Restaurant > Taco Restaurant'],b'\x00\x00\x00\x00\x01\xc0X\xdaK\x9f?\xdf3@2u\x87\x04}CC',"{'xmin': -99.41086560475814, 'ymin': 18.45909145410702, 'xmax': -99.41086560475814, 'ymax': 18.45909145410702}",dining and drinking > restaurant > mexican restaurant > taco restaurant,1
59dbabb1f5e9d76b4a927fb1,Dobladas de Walmart,18.837435,-99.213819,,Temixco,MOR,,,,,MX,2017-10-09,2023-12-19,,777 325 1518,,,,,,['4bf58dd8d48988d151941735'],['Dining and Drinking > Restaurant > Mexican Restaurant > Taco Restaurant'],b'\x00\x00\x00\x00\x01\xc0X\xcd\xaf5\xe3\x10\xdc@2\xd6b#\xe1\x86\x98',"{'xmin': -99.213819, 'ymin': 18.837435, 'xmax': -99.213819, 'ymax': 18.837435}",dining and drinking > restaurant > mexican restaurant > taco restaurant,1
5545a96a498e0032a36944d7,Tacos liverpool,17.515176,-99.482341,,,,,,,,MX,2015-05-03,2021-08-12,,,,,,,,['4bf58dd8d48988d151941735'],['Dining and Drinking > Restaurant > Mexican Restaurant > Taco Restaurant'],b'\x00\x00\x00\x00\x01\xc0X\xde\xde\xac\xc9!G@1\x83\xe2\x93\x07\xaf!',"{'xmin': -99.482341, 'ymin': 17.515176, 'xmax': -99.482341, 'ymax': 17.515176}",dining and drinking > restaurant > mexican restaurant > taco restaurant,1
4f0a3a69e4b06fab1b03d735,Tacos Navarro,18.909351534229778,-103.87304714729623,,,,,,,,MX,2012-01-09,2021-08-17,,,,,,,,['4bf58dd8d48988d151941735'],['Dining and Drinking > Restaurant > Mexican Restaurant > Taco Restaurant'],b'\x00\x00\x00\x00\x01\xc0Y\xf7\xe0\x01$`8@2\xe8\xcbC\x1c\x15\x96',"{'xmin': -103.87304714729623, 'ymin': 18.909351534229778, 'xmax': -103.87304714729623, 'ymax': 18.909351534229778}",dining and drinking > restaurant > mexican restaurant > taco restaurant,1
5ca41385e0c0c90039b16f98,Taquería El Morelense,18.935455,-99.203094,Av Diana 105,Cuernavaca,Morelos,62330,,,,MX,2019-04-03,2023-12-20,,777 331 1014,,,,,,['4bf58dd8d48988d151941735'],['Dining and Drinking > Restaurant > Mexican Restaurant > Taco Restaurant'],b'\x00\x00\x00\x00\x01\xc0X\xcc\xff}\xfa\x00\xe2@2\xefy\xfa\x97\xe13',"{'xmin': -99.203094, 'ymin': 18.935455, 'xmax': -99.203094, 'ymax': 18.935455}",dining and drinking > restaurant > mexican restaurant > taco restaurant,1
52ee8b3a498e96b5e6050460,gorditas doña Mode,18.803966860527403,-99.66929737376134,,,,,,,,MX,2014-02-02,2021-08-17,,,,,,,,['4bf58dd8d48988d151941735'],['Dining and Drinking > Restaurant > Mexican Restaurant > Taco Restaurant'],b'\x00\x00\x00\x00\x01\xc0X\xea\xd5\xc4\xa6\xe6\xa2@2\xcd\xd0\xc5\xad\x08r',"{'xmin': -99.66929737376134, 'ymin': 18.803966860527403, 'xmax': -99.66929737376134, 'ymax': 18.803966860527403}",dining and drinking > restaurant > mexican restaurant > taco restaurant,1
516b5fc6e4b03c75378cfa2a,"Tacos de Pollo ""Los Habaneros""",17.552309278917278,-99.49483453440163,,,,,,,,MX,2013-04-15,2021-08-16,,,,,,,,['4bf58dd8d48988d151941735'],['Dining and Drinking > Restaurant > Mexican Restaurant > Taco Restaurant'],b'\x00\x00\x00\x00\x01\xc0X\xdf\xab^w\x8b\xee@1\x8dd$\x12: ',"{'xmin': -99.49483453440163, 'ymin': 17.552309278917278, 'xmax': -99.49483453440163, 'ymax': 17.552309278917278}",dining and drinking > restaurant > mexican restaurant > taco restaurant,1
4f47b1afe4b0a644ebd4c708,Las Quecas de Doña Pelos,19.253625457621894,-99.11122796693397,Maíz 49,Mexico City,DF,,,,,MX,2012-02-24,2020-11-25,,,,,,,,['4bf58dd8d48988d151941735'],['Dining and Drinking > Restaurant > Mexican Restaurant > Taco Restaurant'],b'\x00\x00\x00\x00\x01\xc0X\xc7\x1e[\xe8\x18r@3@\xed\x99\x15\xebH',"{'xmin': -99.11122796693397, 'ymin': 19.253625457621894, 'xmax': -99.11122796693397, 'ymax': 19.253625457621894}",dining and drinking > restaurant > mexican restaurant > taco restaurant,1
514bcbbde4b0f4bc29852b44,Tacos Cuautla,19.701642708291946,-101.20018416271468,,,,,,,,MX,2013-03-22,2021-08-13,,,,,,,,['4bf58dd8d48988d151941735'],['Dining and Drinking > Restaurant > Mexican Restaurant > Taco Restaurant'],b'\x00\x00\x00\x00\x01\xc0YL\xcf\xd1<\x02Y@3\xb3\x9e\xdbE\x97=',"{'xmin': -101.20018416271468, 'ymin': 19.701642708291946, 'xmax': -101.20018416271468, 'ymax': 19.701642708291946}",dining and drinking > restaurant > mexican restaurant > taco restaurant,1
52c0d019498ec518cf2c9814,tacos el king kong,19.288651,-99.22832,,,,,,,,MX,2013-12-30,2021-08-11,,,,,,,,['4bf58dd8d48988d151941735'],['Dining and Drinking > Restaurant > Mexican Restaurant > Taco Restaurant'],"b'\x00\x00\x00\x00\x01\xc0X\xce\x9c\xcb}At@3I\xe5\x08,\xf5,'","{'xmin': -99.22832, 'ymin': 19.288651, 'xmax': -99.22832, 'ymax': 19.288651}",dining and drinking > restaurant > mexican restaurant > taco restaurant,1
57fd40e6498e21a429291b4d,Tacos Gigantes,19.334608,-99.17799,,Ciudad de México,Ciudad de México,,,,,MX,2016-10-11,2020-11-22,,,,,,,,['4bf58dd8d48988d151941735'],['Dining and Drinking > Restaurant > Mexican Restaurant > Taco Restaurant'],b'\x00\x00\x00\x00\x01\xc0X\xcbd0+@\xf6@3U\xa8\xde\xb0\xfa\xdf',"{'xmin': -99.17799, 'ymin': 19.334608, 'xmax': -99.17799, 'ymax': 19.334608}",dining and drinking > restaurant > mexican restaurant > taco restaurant,1
594e93fed1a40209d01641d2,Taquería Joel Junior,19.250734,-99.121445,Constitución #60 BIS A,Ciudad de México,Ciudad de México,16200,,,,MX,2017-06-24,2020-11-23,,,,,,,,['4bf58dd8d48988d151941735'],['Dining and Drinking > Restaurant > Mexican Restaurant > Taco Restaurant'],b'\x00\x00\x00\x00\x01\xc0X\xc7\xc5\xc1?\xd0\xd0@3@0\x1ay\xfe\xca',"{'xmin': -99.121445, 'ymin': 19.250734, 'xmax': -99.121445, 'ymax': 19.250734}",dining and drinking > restaurant > mexican restaurant > taco restaurant,1
4ca8ea2576d3a0936dc31a6b,EL CANTO de los grillos,19.25088735100952,-99.60509777069092,Avenida Estado de México no. 221,Metepec,Mexico,,,,,MX,2010-10-03,2023-12-19,,722 232 8241,,,,,,['4bf58dd8d48988d151941735'],['Dining and Drinking > Restaurant > Mexican Restaurant > Taco Restaurant'],"b""\x00\x00\x00\x00\x01\xc0X\xe6\xb9\xec\x00\x00\x00@3@:'G\x90\xe3""","{'xmin': -99.60509777069092, 'ymin': 19.25088735100952, 'xmax': -99.60509777069092, 'ymax': 19.25088735100952}",dining and drinking > restaurant > mexican restaurant > taco restaurant,1
53a2426c498e2e86787e7566,Conde,18.43437910444356,-97.40546841659015,,,,,,,,MX,2014-06-19,2024-01-03,,,http://www.cntraveller.com,,,,,['4bf58dd8d48988d151941735'],['Dining and Drinking > Restaurant > Mexican Restaurant > Taco Restaurant'],b'\x00\x00\x00\x00\x01\xc0XY\xf31\xcd43@2o3x\x0f\xa6\x9f',"{'xmin': -97.40546841659015, 'ymin': 18.43437910444356, 'xmax': -97.40546841659015, 'ymax': 18.43437910444356}",dining and drinking > restaurant > mexican restaurant > taco restaurant,1
527110ea11d2ef6b8931e7a7,Tacos El Chilango,14.905129,-92.25853,,,,,,,,MX,2013-10-30,2023-12-19,,871 730 3344,,,,,,['4bf58dd8d48988d151941735'],['Dining and Drinking > Restaurant > Mexican Restaurant > Taco Restaurant'],b'\x00\x00\x00\x00\x01\xc0W\x10\x8b\xc1i\xc2;@-\xcfm\x11{R\x87',"{'xmin': -92.25853, 'ymin': 14.905129, 'xmax': -92.25853, 'ymax': 14.905129}",dining and drinking > restaurant > mexican restaurant > taco restaurant,1
511c4bffe4b09918d0c41646,El Matador,14.898766,-92.272381,,,,,,,,MX,2013-02-14,2021-08-16,,,,,,,,['4bf58dd8d48988d151941735'],['Dining and Drinking > Restaurant > Mexican Restaurant > Taco Restaurant'],b'\x00\x00\x00\x00\x01\xc0W\x11n\xb0\xb7\xc3P@-\xcc+\x0e\xa1\x83s',"{'xmin': -92.272381, 'ymin': 14.898766, 'xmax': -92.272381, 'ymax': 14.898766}",dining and drinking > restaurant > mexican restaurant > taco restaurant,1
52a2a29911d294e4c8826a96,La Abuela Grillo,19.261635,-99.09896,,,,,,,,MX,2013-12-07,2021-08-11,,,,,,,,['4bf58dd8d48988d151941735'],['Dining and Drinking > Restaurant > Mexican Restaurant > Taco Restaurant'],"b'\x00\x00\x00\x00\x01\xc0X\xc6U\\R\xe7.@3B\xfa\x82\xe8},'","{'xmin': -99.09896, 'ymin': 19.261635, 'xmax': -99.09896, 'ymax': 19.261635}",dining and drinking > restaurant > mexican restaurant > taco restaurant,1
