fsq_place_id,name,latitude,longitude,address,locality,region,postcode,admin_region,post_town,po_box,country,date_created,date_refreshed,date_closed,tel,website,email,facebook_id,instagram,twitter,fsq_category_ids,fsq_category_labels,geom,bbox,labels_str,taco_restaurant
603a88832127f6616d820208,Birrieria Aguilar Jr.,32.455748,-114.780708,,San Luis Río Colorado,SON,83440,,,,MX,2021-02-27,2021-02-27,,,,,,,,['4bf58dd8d48988d151941735'],['Dining and Drinking > Restaurant > Mexican Restaurant > Taco Restaurant'],b'\x00\x00\x00\x00\x01\xc0\\\xb1\xf7\x1e\xaf\xeep@@:U\xf3Q\x9b\xd4',"{'xmin': -114.780708, 'ymin': 32.455748, 'xmax': -114.780708, 'ymax': 32.455748}",dining and drinking > restaurant > mexican restaurant > taco restaurant,1
50e88033e4b0f0d9e1c69ce4,"Tacos De Borrego ""Kikos""",32.6533865650991,-115.50581169284159,,,,,,,,MX,2013-01-05,2021-08-11,,,,,,,,['4bf58dd8d48988d151941735'],['Dining and Drinking > Restaurant > Mexican Restaurant > Taco Restaurant'],b'\x00\x00\x00\x00\x01\xc0\\\xe0_8\x01\xac\x19@@S\xa2+\xc4_\x8a',"{'xmin': -115.50581169284159, 'ymin': 32.6533865650991, 'xmax': -115.50581169284159, 'ymax': 32.6533865650991}",dining and drinking > restaurant > mexican restaurant > taco restaurant,1
65fd0acd6ae7495222a16d6d,Señor Rogelio,32.663517,-115.452126,,Mexicali,BN,,,,,MX,2024-03-22,2024-03-22,,,,,,,,['4bf58dd8d48988d151941735'],['Dining and Drinking > Restaurant > Mexican Restaurant > Taco Restaurant'],b'\x00\x00\x00\x00\x01\xc0\\\xdc\xef\xa1\xe3\xea\xf7@@T\xee \x03\xab\x86',"{'xmin': -115.452126, 'ymin': 32.663517, 'xmax': -115.452126, 'ymax': 32.663517}",dining and drinking > restaurant > mexican restaurant > taco restaurant,1
4f0c7a16e4b0b63c752cb8ae,La Enramada,32.51182310394356,-116.99153408081348,20 De Noviembre,Tijuana,Baja California,,,,,MX,2012-01-10,2020-11-23,,,,,,,,['4bf58dd8d48988d151941735'],['Dining and Drinking > Restaurant > Mexican Restaurant > Taco Restaurant'],b'\x00\x00\x00\x00\x01\xc0]?uK\\}\xa7@@A\x83kbc-',"{'xmin': -116.99153408081348, 'ymin': 32.51182310394356, 'xmax': -116.99153408081348, 'ymax': 32.51182310394356}",dining and drinking > restaurant > mexican restaurant > taco restaurant,1
4fa09c1fe4b0f3072690404e,Tacos Guanajuato,32.524739,-117.028792,,Tijuana,Baja California,,,,,MX,2012-05-02,2022-10-22,,,,,,,,['4bf58dd8d48988d151941735'],['Dining and Drinking > Restaurant > Mexican Restaurant > Taco Restaurant'],b'\x00\x00\x00\x00\x01\xc0]A\xd7\xbaf\x98\xbb@@C*\xa5\xc5\xf7\xc6',"{'xmin': -117.028792, 'ymin': 32.524739, 'xmax': -117.028792, 'ymax': 32.524739}",dining and drinking > restaurant > mexican restaurant > taco restaurant,1
4ec7ef1c5c5ce271be1bc293,Tacos De Guisado Tere,32.29353827654627,-115.09414055910548,,Guadalupe Victoria,Baja California,,,,,MX,2011-11-19,2020-11-30,,,,,,,,['4bf58dd8d48988d151941735'],['Dining and Drinking > Restaurant > Mexican Restaurant > Taco Restaurant'],b'\x00\x00\x00\x00\x01\xc0\\\xc6\x06f\x1f\xa5t@@%\x92\xa9\x88\xf1\xfa',"{'xmin': -115.09414055910548, 'ymin': 32.29353827654627, 'xmax': -115.09414055910548, 'ymax': 32.29353827654627}",dining and drinking > restaurant > mexican restaurant > taco restaurant,1
536fda88498e6a39d501f54a,"tacos de barbacoa ""Mony""",32.456359,-116.827406,,,,,,,,MX,2014-05-11,2020-11-25,,,,,,,,['4bf58dd8d48988d151941735'],['Dining and Drinking > Restaurant > Mexican Restaurant > Taco Restaurant'],b'\x00\x00\x00\x00\x01\xc0]4\xf48K\xa0\xe8@@:i\xf8\xc2\x1e\x1d',"{'xmin': -116.827406, 'ymin': 32.456359, 'xmax': -116.827406, 'ymax': 32.456359}",dining and drinking > restaurant > mexican restaurant > taco restaurant,1
51ae3d9f498e7f759bd52e0f,Tacos de Birria La Morena,32.457532492793476,-116.82699871737253,,,,,,,,MX,2013-06-04,2020-11-23,,,,,,,,['4bf58dd8d48988d151941735'],['Dining and Drinking > Restaurant > Mexican Restaurant > Taco Restaurant'],b'\x00\x00\x00\x00\x01\xc0]4\xed\x8c\x07<\xbc@@:\x90l\xba\xb3\xe2',"{'xmin': -116.82699871737253, 'ymin': 32.457532492793476, 'xmax': -116.82699871737253, 'ymax': 32.457532492793476}",dining and drinking > restaurant > mexican restaurant > taco restaurant,1
4cddbba6aba88cfa8c9c3cd7,"Tacos El PIOLIN, varios",32.52132233807933,-117.01273943454495,,,,,,,,MX,2010-11-12,2021-08-14,,,,,,,,['4bf58dd8d48988d151941735'],['Dining and Drinking > Restaurant > Mexican Restaurant > Taco Restaurant'],b'\x00\x00\x00\x00\x01\xc0]@\xd0\xb9\x0f\xaf^@@B\xba\xb0\xbc\\\xcc',"{'xmin': -117.01273943454495, 'ymin': 32.52132233807933, 'xmax': -117.01273943454495, 'ymax': 32.52132233807933}",dining and drinking > restaurant > mexican restaurant > taco restaurant,1
171838ca12544f911e302e8f,Tacos Aranda,21.102504,-101.718576,La Picina 1017,Guanajuato,Guanajuato,,,,,MX,2014-11-28,2023-12-08,,477 271 0706,,,,,,['4bf58dd8d48988d151941735'],['Dining and Drinking > Restaurant > Mexican Restaurant > Taco Restaurant'],b'\x00\x00\x00\x00\x01\xc0Ym\xfd&0\xec1@5\x1a=\xb3\xbf\xb5\x8d',"{'xmin': -101.718576, 'ymin': 21.102504, 'xmax': -101.718576, 'ymax': 21.102504}",dining and drinking > restaurant > mexican restaurant > taco restaurant,1
510d36f7e4b0607ce895ef79,Tacos de birria de Fernando,19.671519146190782,-101.19242307405123,Ramón lópez Velarde,,,58090,,,,MX,2013-02-02,2021-08-10,,,,,,,,['4bf58dd8d48988d151941735'],['Dining and Drinking > Restaurant > Mexican Restaurant > Taco Restaurant'],b'\x00\x00\x00\x00\x01\xc0YLP\xa8\xde\x82\xef@3\xab\xe8\xad\xc3\x86\xfa',"{'xmin': -101.19242307405123, 'ymin': 19.671519146190782, 'xmax': -101.19242307405123, 'ymax': 19.671519146190782}",dining and drinking > restaurant > mexican restaurant > taco restaurant,1
4d2bdfb0b818a35d96cab38a,Tacos Don Juanito,22.12936181966258,-100.93253301824133,Av. Dalias # 600 A-B,San Luis Potosi,San Luis Potosi,78399,,,,MX,2011-01-11,2021-12-20,,,,,,,,['4bf58dd8d48988d151941735' '4bf58dd8d48988d1c1941735'],"['Dining and Drinking > Restaurant > Mexican Restaurant > Taco Restaurant'
 'Dining and Drinking > Restaurant > Mexican Restaurant']",b'\x00\x00\x00\x00\x01\xc0Y;\xae\x9e\xf7\xf2Y@6!\x1d\xdb0\xcdE',"{'xmin': -100.93253301824133, 'ymin': 22.12936181966258, 'xmax': -100.93253301824133, 'ymax': 22.12936181966258}","dining and drinking > restaurant > mexican restaurant > taco restaurant, dining and drinking > restaurant > mexican restaurant",1
535494f2498ef17c75f5e555,Taqueria Juarez,19.248169,-103.74662,Avenida Benito Juárez,Villa De Álvarez,Colima,,,,,MX,2014-04-21,2020-11-30,,,,,,,,['4bf58dd8d48988d151941735'],['Dining and Drinking > Restaurant > Mexican Restaurant > Taco Restaurant'],b'\x00\x00\x00\x00\x01\xc0Y\xef\xc8\x9f@\xa2\x87@3?\x88\x00\xea\xe1\x8b',"{'xmin': -103.74662, 'ymin': 19.248169, 'xmax': -103.74662, 'ymax': 19.248169}",dining and drinking > restaurant > mexican restaurant > taco restaurant,1
62faf67758d365519e9a337d,Taquería Mezquite,20.693087,-103.367516,Andrés Teran #1985,Guadalajara,Jalisco,44600,,,,MX,2022-08-16,2022-08-16,,,,,,,,['4bf58dd8d48988d151941735'],['Dining and Drinking > Restaurant > Mexican Restaurant > Taco Restaurant'],b'\x00\x00\x00\x00\x01\xc0Y\xd7\x85a\xd40n@4\xb1n&NHb',"{'xmin': -103.367516, 'ymin': 20.693087, 'xmax': -103.367516, 'ymax': 20.693087}",dining and drinking > restaurant > mexican restaurant > taco restaurant,1
50bade17e4b0fb1ae3f99a1b,El Rey Del Taco,20.541477,-100.806091,,,,,,,,MX,2012-12-02,2021-08-13,,,,,,,,['4bf58dd8d48988d151941735'],['Dining and Drinking > Restaurant > Mexican Restaurant > Taco Restaurant'],b'\x00\x00\x00\x00\x01\xc0Y3\x96\xfe\xb4\xa6e@4\x8a\x9e<\x96\x89D',"{'xmin': -100.806091, 'ymin': 20.541477, 'xmax': -100.806091, 'ymax': 20.541477}",dining and drinking > restaurant > mexican restaurant > taco restaurant,1
4f10fc1ae4b067841052a2c6,tacos Doña Marta,21.50227165222168,-104.9015884399414,,,,,,,,MX,2012-01-14,2021-08-16,,,,,,,,['4bf58dd8d48988d151941735'],['Dining and Drinking > Restaurant > Mexican Restaurant > Taco Restaurant'],b'\x00\x00\x00\x00\x01\xc0Z9\xb3\xa0\x00\x00\x00@5\x80\x94\xe0\x00\x00\x00',"{'xmin': -104.9015884399414, 'ymin': 21.50227165222168, 'xmax': -104.9015884399414, 'ymax': 21.50227165222168}",dining and drinking > restaurant > mexican restaurant > taco restaurant,1
569e71a038fac0b904cff468,Tacos el Chochis,21.149712,-101.683975,Juan Nepomuceno,Leon,Guanajuato,,,,,MX,2016-01-19,2020-11-26,,,,,,,,['4bf58dd8d48988d151941735'],['Dining and Drinking > Restaurant > Mexican Restaurant > Taco Restaurant'],b'\x00\x00\x00\x00\x01\xc0Yk\xc6?\x14\x12\x06@5&S\x86\x8f\xd1\x9a',"{'xmin': -101.683975, 'ymin': 21.149712, 'xmax': -101.683975, 'ymax': 21.149712}",dining and drinking > restaurant > mexican restaurant > taco restaurant,1
4e6f7cbde4cdd9916237efcc,Tacos Paveles,20.626766242226225,-103.41805968187849,Rio Santiago 5599,Zapopan,Jalisco,45070,,,,MX,2011-09-13,2020-11-30,,,,,,,,['4bf58dd8d48988d151941735'],['Dining and Drinking > Restaurant > Mexican Restaurant > Taco Restaurant'],b'\x00\x00\x00\x00\x01\xc0Y\xda\xc1}e\\o@4\xa0s\xc0\xa0\x994',"{'xmin': -103.41805968187849, 'ymin': 20.626766242226225, 'xmax': -103.41805968187849, 'ymax': 20.626766242226225}",dining and drinking > restaurant > mexican restaurant > taco restaurant,1
4d7f1aca6174a35d7cab9403,Asada,20.61884165,-103.3528803,Av patria 481,Guadalajara,JAL,44970,,,,MX,2011-03-15,2021-08-14,,,,,,,,['4bf58dd8d48988d151941735'],['Dining and Drinking > Restaurant > Mexican Restaurant > Taco Restaurant'],"b""\x00\x00\x00\x00\x01\xc0Y\xd6\x95\x97@\xf9\xc5@4\x9elh\x08'\x16""","{'xmin': -103.3528803, 'ymin': 20.61884165, 'xmax': -103.3528803, 'ymax': 20.61884165}",dining and drinking > restaurant > mexican restaurant > taco restaurant,1
5b569c3b2aff310039b56fac,Taqueria “Los Primos”,20.982705,-101.283882,,Guanajuato,GTO,36256,,,,MX,2018-07-24,2020-11-21,,,,,,,,['4bf58dd8d48988d151941735'],['Dining and Drinking > Restaurant > Mexican Restaurant > Taco Restaurant'],b'\x00\x00\x00\x00\x01\xc0YR+\x1fh{\x14@4\xfb\x92\x8e\x0c\x9d\x9d',"{'xmin': -101.283882, 'ymin': 20.982705, 'xmax': -101.283882, 'ymax': 20.982705}",dining and drinking > restaurant > mexican restaurant > taco restaurant,1
561d08bc498e81a71e38adbe,Cafeteria America Latina,20.69329818806382,-103.41537521098131,,,,,,,,MX,2015-10-13,2021-08-13,,,,,,,,['4bf58dd8d48988d151941735'],['Dining and Drinking > Restaurant > Mexican Restaurant > Taco Restaurant'],b'\x00\x00\x00\x00\x01\xc0Y\xda\x95\x81\xe8\xae\xf7@4\xb1{\xfdt\x1c4',"{'xmin': -103.41537521098131, 'ymin': 20.69329818806382, 'xmax': -103.41537521098131, 'ymax': 20.69329818806382}",dining and drinking > restaurant > mexican restaurant > taco restaurant,1
578995ae498e0fd052b80518,El Tacazo,20.995193,-101.29097,,,,,,,,MX,2016-07-16,2021-08-13,,,,,,,,['4bf58dd8d48988d151941735'],['Dining and Drinking > Restaurant > Mexican Restaurant > Taco Restaurant'],b'\x00\x00\x00\x00\x01\xc0YR\x9f@\xa2\x87\x7f@4\xfe\xc4\xf7\xec5H',"{'xmin': -101.29097, 'ymin': 20.995193, 'xmax': -101.29097, 'ymax': 20.995193}",dining and drinking > restaurant > mexican restaurant > taco restaurant,1
610f43425fe12b076564a186,Taqueria Nenitha,21.024874,-105.28704,,Los Ayala,NAY,63724,,,,MX,2021-08-08,2021-08-08,,,,,,,,['4bf58dd8d48988d151941735'],['Dining and Drinking > Restaurant > Mexican Restaurant > Taco Restaurant'],b'\x00\x00\x00\x00\x01\xc0ZR^\xdd\x05)5@5\x06^$x\x85M',"{'xmin': -105.28704, 'ymin': 21.024874, 'xmax': -105.28704, 'ymax': 21.024874}",dining and drinking > restaurant > mexican restaurant > taco restaurant,1
4d010ac5b10ea0905d182c4e,Tacos el chino food truck,20.51966429895475,-100.79627752304077,Boulevard,Celaya,GTO,,,,,MX,2010-12-09,2020-11-26,,,,,,,,['4bf58dd8d48988d151941735'],['Dining and Drinking > Restaurant > Mexican Restaurant > Taco Restaurant'],b'\x00\x00\x00\x00\x01\xc0Y2\xf66\x00\x00\x00@4\x85\x08\xb80\xe8\xd0',"{'xmin': -100.79627752304077, 'ymin': 20.51966429895475, 'xmax': -100.79627752304077, 'ymax': 20.51966429895475}",dining and drinking > restaurant > mexican restaurant > taco restaurant,1
4d40e6f41bd2a1438a37f87c,Tacos Oscar El Gordo,19.264263977996436,-103.74705007513042,Pablo Silva. 295,,,,,,,MX,2011-01-27,2021-08-10,,,,,,,,['4bf58dd8d48988d151941735'],['Dining and Drinking > Restaurant > Mexican Restaurant > Taco Restaurant'],b'\x00\x00\x00\x00\x01\xc0Y\xef\xcf\xab\x1eJ5@3C\xa6\xcd\xd7\x01l',"{'xmin': -103.74705007513042, 'ymin': 19.264263977996436, 'xmax': -103.74705007513042, 'ymax': 19.264263977996436}",dining and drinking > restaurant > mexican restaurant > taco restaurant,1
4ee02e8761aff915751d2143,Taquería Cruz del Sur,20.649696814973353,-103.37500691413878,Av. Cruz del Sur 221,Guadalajara,Jalisco,,,,,MX,2011-12-08,2021-08-10,,,,,,,,['4bf58dd8d48988d151941735'],['Dining and Drinking > Restaurant > Mexican Restaurant > Taco Restaurant'],b'\x00\x00\x00\x00\x01\xc0Y\xd8\x00\x1c\xff\xff\xff@4\xa6R\x87\xcc\xa0<',"{'xmin': -103.37500691413878, 'ymin': 20.649696814973353, 'xmax': -103.37500691413878, 'ymax': 20.649696814973353}",dining and drinking > restaurant > mexican restaurant > taco restaurant,1
51463119e4b0d3269dcc7b6e,Tacos Charly,20.618630519423295,-103.25005323271532,,Tonalá,Jalisco,45400,,,,MX,2013-03-17,2020-11-23,,,,,,,,['4bf58dd8d48988d151941735'],['Dining and Drinking > Restaurant > Mexican Restaurant > Taco Restaurant'],b'\x00\x00\x00\x00\x01\xc0Y\xd0\x00\xdfF1^@4\x9e^\x91\xd9;\x05',"{'xmin': -103.25005323271532, 'ymin': 20.618630519423295, 'xmax': -103.25005323271532, 'ymax': 20.618630519423295}",dining and drinking > restaurant > mexican restaurant > taco restaurant,1
5074df30e4b0aadb12cc5526,Master burger,20.0148055,-100.7391168,,Acambaro,Guanajuato,,,,,MX,2012-10-10,2020-11-23,,,,,,,,['4bf58dd8d48988d151941735'],['Dining and Drinking > Restaurant > Mexican Restaurant > Taco Restaurant'],b'\x00\x00\x00\x00\x01\xc0Y/M\xb0\x8c\xfb&@4\x03\xcaK\x12M\n',"{'xmin': -100.7391168, 'ymin': 20.0148055, 'xmax': -100.7391168, 'ymax': 20.0148055}",dining and drinking > restaurant > mexican restaurant > taco restaurant,1
4ff79fa0e4b0aeae9ea39845,Taqueria El Lago De Las Ranas,20.943288734861905,-101.42491252525443,5 De Mayo,Silao,Guanajuato,36100,,,,MX,2012-07-07,2020-11-30,,,,,,,,['4bf58dd8d48988d151941735'],['Dining and Drinking > Restaurant > Mexican Restaurant > Taco Restaurant'],b'\x00\x00\x00\x00\x01\xc0Y[1\xc4M\xe8:@4\xf1{^\xda\xea\xc7',"{'xmin': -101.42491252525443, 'ymin': 20.943288734861905, 'xmax': -101.42491252525443, 'ymax': 20.943288734861905}",dining and drinking > restaurant > mexican restaurant > taco restaurant,1
4b3abde2f964a520b26d25e3,sayulita fish taco,20.8687768283498,-105.44053927843144,Center Square,Sayulita,Jalisco,,,,,MX,2009-12-30,2020-11-30,2018-04-27,,,,,,,['4bf58dd8d48988d151941735' '4bf58dd8d48988d1c1941735'],"['Dining and Drinking > Restaurant > Mexican Restaurant > Taco Restaurant'
 'Dining and Drinking > Restaurant > Mexican Restaurant']",b'\x00\x00\x00\x00\x01\xc0Z\\1\xcb\xa8]\xdb@4\xdeh(\x81H\xf6',"{'xmin': -105.44053927843144, 'ymin': 20.8687768283498, 'xmax': -105.44053927843144, 'ymax': 20.8687768283498}","dining and drinking > restaurant > mexican restaurant > taco restaurant, dining and drinking > restaurant > mexican restaurant",1
672ceeea62317605ae839889,Taqueria El Guero Vargas,20.603461,-105.234941,,Puerto Vallarta,Jal.,48380,,,,MX,2024-11-07,2024-11-17,,,,,,,,['4bf58dd8d48988d151941735'],['Dining and Drinking > Restaurant > Mexican Restaurant > Taco Restaurant'],b'\x00\x00\x00\x00\x01\xc0ZO\tE\xf9\xdfU@4\x9a|k\x8biU',"{'xmin': -105.234941, 'ymin': 20.603461, 'xmax': -105.234941, 'ymax': 20.603461}",dining and drinking > restaurant > mexican restaurant > taco restaurant,1
52ad130411d279cc6b0a8091,Tacos el Chino,19.10354995727539,-104.30606079101562,,Manzanillo,COL,,,,,MX,2013-12-15,2020-11-21,,,,,,,,['4bf58dd8d48988d151941735'],['Dining and Drinking > Restaurant > Mexican Restaurant > Taco Restaurant'],b'\x00\x00\x00\x00\x01\xc0Z\x13\x96\x80\x00\x00\x00@3\x1a\x82@\x00\x00\x00',"{'xmin': -104.30606079101562, 'ymin': 19.10354995727539, 'xmax': -104.30606079101562, 'ymax': 19.10354995727539}",dining and drinking > restaurant > mexican restaurant > taco restaurant,1
4dd6815ad1647fcf3e32cdc8,Carnes Asadas Pepe's,21.840479957198138,-102.29331562958552,Mahatma Ghandi,Aguascalientes,AGS,,,,,MX,2011-05-20,2020-11-30,,,,,,,,['4bf58dd8d48988d151941735'],['Dining and Drinking > Restaurant > Mexican Restaurant > Taco Restaurant'],b'\x00\x00\x00\x00\x01\xc0Y\x92\xc5\xae\xeb\x1en@5\xd7)\xb1\xc9\x1c\x07',"{'xmin': -102.29331562958552, 'ymin': 21.840479957198138, 'xmax': -102.29331562958552, 'ymax': 21.840479957198138}",dining and drinking > restaurant > mexican restaurant > taco restaurant,1
5661b589498e91cb47822e38,Al - Gerdin Cocina,19.69328498840332,-101.17743682861328,,,,,,,,MX,2015-12-04,2021-08-16,,,,,,,,['4bf58dd8d48988d151941735'],['Dining and Drinking > Restaurant > Mexican Restaurant > Taco Restaurant'],b'\x00\x00\x00\x00\x01\xc0YK[ \x00\x00\x00@3\xb1{ \x00\x00\x00',"{'xmin': -101.17743682861328, 'ymin': 19.69328498840332, 'xmax': -101.17743682861328, 'ymax': 19.69328498840332}",dining and drinking > restaurant > mexican restaurant > taco restaurant,1
50b13490e4b0708d8a660e1c,TiTaco,20.686243,-103.367069,,Guadalajara,Jalisco,,,,,MX,2012-11-24,2021-08-16,,,,,,,,['4bf58dd8d48988d151941735'],['Dining and Drinking > Restaurant > Mexican Restaurant > Taco Restaurant'],b'\x00\x00\x00\x00\x01\xc0Y\xd7~\x0e\xf9\x98\x07@4\xaf\xad\x9f\n\x1b\xe3',"{'xmin': -103.367069, 'ymin': 20.686243, 'xmax': -103.367069, 'ymax': 20.686243}",dining and drinking > restaurant > mexican restaurant > taco restaurant,1
555e8aaf498ec5aeddd11b88,Taquería Romero's,20.57391,-103.359405,,,,,,,,MX,2015-05-22,2021-08-13,,,,,,,,['4bf58dd8d48988d151941735'],['Dining and Drinking > Restaurant > Mexican Restaurant > Taco Restaurant'],b'\x00\x00\x00\x00\x01\xc0Y\xd7\x00}\xd4A5@4\x92\xeb\xc4\x08\xd8\xed',"{'xmin': -103.359405, 'ymin': 20.57391, 'xmax': -103.359405, 'ymax': 20.57391}",dining and drinking > restaurant > mexican restaurant > taco restaurant,1
4e21032b62e1964dbb634eac,Tacos El Parque,20.713673167531393,-103.32469575372937,Flora,Guadalajara,Jalisco,,,,,MX,2011-07-16,2021-08-15,,,,,,,,['4bf58dd8d48988d151941735' '4bf58dd8d48988d1cb941735'],"['Dining and Drinking > Restaurant > Mexican Restaurant > Taco Restaurant'
 'Dining and Drinking > Food Truck']",b'\x00\x00\x00\x00\x01\xc0Y\xd4\xc7\xd0\xb2\xda\xbc@4\xb6\xb3H\xe2\x94\x7f',"{'xmin': -103.32469575372937, 'ymin': 20.713673167531393, 'xmax': -103.32469575372937, 'ymax': 20.713673167531393}","dining and drinking > restaurant > mexican restaurant > taco restaurant, dining and drinking > food truck",1
5192b05b498e450a3b88f3d3,Carnitas Estilo Michoacan,20.68136466399081,-103.3562497921943,Jesus 321,Guadalajara,Jalisco,,,,,MX,2013-05-14,2021-08-15,,33 1610 4776,,,,,,['4bf58dd8d48988d151941735'],['Dining and Drinking > Restaurant > Mexican Restaurant > Taco Restaurant'],b'\x00\x00\x00\x00\x01\xc0Y\xd6\xcc\xcb\xed\xab\x9b@4\xaem\xea$}\x95',"{'xmin': -103.3562497921943, 'ymin': 20.68136466399081, 'xmax': -103.3562497921943, 'ymax': 20.68136466399081}",dining and drinking > restaurant > mexican restaurant > taco restaurant,1
538e9465498ed2e9e768abbc,tacos la lomita,20.62944984436035,-103.42247009277344,,,,,,,,MX,2014-06-04,2021-08-16,,,,,,,,['4bf58dd8d48988d151941735'],['Dining and Drinking > Restaurant > Mexican Restaurant > Taco Restaurant'],b'\x00\x00\x00\x00\x01\xc0Y\xdb\t\xc0\x00\x00\x00@4\xa1#\xa0\x00\x00\x00',"{'xmin': -103.42247009277344, 'ymin': 20.62944984436035, 'xmax': -103.42247009277344, 'ymax': 20.62944984436035}",dining and drinking > restaurant > mexican restaurant > taco restaurant,1
5a0283fd48b04e01b803b0ed,Señor Taco,19.235489,-103.680559,,Colima,COL,28047,,,,MX,2017-11-08,2020-11-23,,,,,,,,['4bf58dd8d48988d151941735'],['Dining and Drinking > Restaurant > Mexican Restaurant > Taco Restaurant'],b'\x00\x00\x00\x00\x01\xc0Y\xeb\x8eGU\xff\xe7@3<I\x01\xd1\x91X',"{'xmin': -103.680559, 'ymin': 19.235489, 'xmax': -103.680559, 'ymax': 19.235489}",dining and drinking > restaurant > mexican restaurant > taco restaurant,1
5136bda5e4b0e8f23cb84059,Carniceria Y Taqueria Gascon,19.69213,-101.201051,Martin Castrejon,Morelia,Michoacan,58250,,,,MX,2013-03-06,2020-11-25,,,,,,,,['4bf58dd8d48988d151941735'],['Dining and Drinking > Restaurant > Mexican Restaurant > Taco Restaurant'],b'\x00\x00\x00\x00\x01\xc0YL\xde\x05\x03u\x00@3\xb1/n\x82\x94\x9a',"{'xmin': -101.201051, 'ymin': 19.69213, 'xmax': -101.201051, 'ymax': 19.69213}",dining and drinking > restaurant > mexican restaurant > taco restaurant,1
2bba19ab41cf4f054d0eb5cc,Fonda Vanessa,21.122385,-101.687126,Belisario Dominguez 522,Guanajuato,Guanajuato,37000,,,,MX,2013-05-03,2023-12-08,,477 716 9259,,,,,,['4bf58dd8d48988d151941735'],['Dining and Drinking > Restaurant > Mexican Restaurant > Taco Restaurant'],b'\x00\x00\x00\x00\x01\xc0Yk\xf9\xdfT\x8e\xce@5\x1fT\x9f\x94\x85^',"{'xmin': -101.687126, 'ymin': 21.122385, 'xmax': -101.687126, 'ymax': 21.122385}",dining and drinking > restaurant > mexican restaurant > taco restaurant,1
54683b88498e495aee98cd85,El Buen Taco,22.16288185119629,-100.97438049316406,Ponciano Arriaga,"San Luis Potosí, SLP",,,,,,MX,2014-11-16,2020-11-26,,,,,,,,['4bf58dd8d48988d151941735'],['Dining and Drinking > Restaurant > Mexican Restaurant > Taco Restaurant'],b'\x00\x00\x00\x00\x01\xc0Y>\\@\x00\x00\x00@6)\xb2\xa0\x00\x00\x00',"{'xmin': -100.97438049316406, 'ymin': 22.16288185119629, 'xmax': -100.97438049316406, 'ymax': 22.16288185119629}",dining and drinking > restaurant > mexican restaurant > taco restaurant,1
5b261ea3270ee7002ca5491b,Tacos Los Jefes,20.611773,-105.233643,,Puerto Vallarta,JAL,48300,,,,MX,2018-06-17,2021-09-17,,,,,,,,['4bf58dd8d48988d151941735'],['Dining and Drinking > Restaurant > Mexican Restaurant > Taco Restaurant'],"b""\x00\x00\x00\x00\x01\xc0ZN\xf4\x01\xc4\xfc\x1e@4\x9c\x9d'\xc3\x93h""","{'xmin': -105.233643, 'ymin': 20.611773, 'xmax': -105.233643, 'ymax': 20.611773}",dining and drinking > restaurant > mexican restaurant > taco restaurant,1
4ff639c3e4b0211bc24a0586,Tacos El guero,20.728692,-103.408315,,,,,,,,MX,2012-07-06,2021-08-14,,,,,,,,['4bf58dd8d48988d151941735'],['Dining and Drinking > Restaurant > Mexican Restaurant > Taco Restaurant'],b'\x00\x00\x00\x00\x01\xc0Y\xda!\xd5<\xdd\xd7@4\xba\x8b\x8f\x14\xdbY',"{'xmin': -103.408315, 'ymin': 20.728692, 'xmax': -103.408315, 'ymax': 20.728692}",dining and drinking > restaurant > mexican restaurant > taco restaurant,1
5a60f5285ba046260be3b2db,Vallartacos,20.676356,-103.431293,,Zapopan,JAL,45020,,,,MX,2018-01-18,2020-11-25,,,,,,,,['4bf58dd8d48988d151941735'],['Dining and Drinking > Restaurant > Mexican Restaurant > Taco Restaurant'],b'\x00\x00\x00\x00\x01\xc0Y\xdb\x9aM\xf4\x7f\x99@4\xad%\xaa\xb4t\x10',"{'xmin': -103.431293, 'ymin': 20.676356, 'xmax': -103.431293, 'ymax': 20.676356}",dining and drinking > restaurant > mexican restaurant > taco restaurant,1
5ce6c530cabcff002ca24ebe,La Vaquita,19.768284,-104.36023,Constitución,Autlán de Navarro,Jalisco,48900,,,,MX,2019-05-23,2020-11-25,,,,,,,,['4bf58dd8d48988d151941735'],['Dining and Drinking > Restaurant > Mexican Restaurant > Taco Restaurant'],b'\x00\x00\x00\x00\x01\xc0Z\x17\x0e\x02!Bp@3\xc4\xaeB\x9e\nB',"{'xmin': -104.36023, 'ymin': 19.768284, 'xmax': -104.36023, 'ymax': 19.768284}",dining and drinking > restaurant > mexican restaurant > taco restaurant,1
580ac4f938fa624bb57cf103,Arrosto Meat&Tacos,20.683672,-101.377381,,,,,,,,MX,2016-10-22,2021-08-17,,,,,,,,['4bf58dd8d48988d151941735'],['Dining and Drinking > Restaurant > Mexican Restaurant > Taco Restaurant'],"b""\x00\x00\x00\x00\x01\xc0YX'\x02\xa3Ho@4\xaf\x05 \xd10\xe0""","{'xmin': -101.377381, 'ymin': 20.683672, 'xmax': -101.377381, 'ymax': 20.683672}",dining and drinking > restaurant > mexican restaurant > taco restaurant,1
5a5aa5c9a35dce4a8086459a,Taqueria Reyes,20.528508,-100.838401,,Celaya,GTO,38020,,,,MX,2018-01-14,2020-11-24,,,,,,,,['4bf58dd8d48988d151941735'],['Dining and Drinking > Restaurant > Mexican Restaurant > Taco Restaurant'],b'\x00\x00\x00\x00\x01\xc0Y5\xa8\\\xaa\xfb\xc2@4\x87LL\xdf\xac\xa3',"{'xmin': -100.838401, 'ymin': 20.528508, 'xmax': -100.838401, 'ymax': 20.528508}",dining and drinking > restaurant > mexican restaurant > taco restaurant,1
5296976b11d2662a9f311762,Los Güeros,20.56787106250166,-101.22405244885086,Blvd. Rinconada de San Pedro,Salamanca,Guanajuato,36740,,,,MX,2013-11-28,2021-12-17,,,,,,,,['4bf58dd8d48988d151941735'],['Dining and Drinking > Restaurant > Mexican Restaurant > Taco Restaurant'],b'\x00\x00\x00\x00\x01\xc0YNV\xe0\x15\x19\xcd@4\x91_\xffy\xca\x16',"{'xmin': -101.22405244885086, 'ymin': 20.56787106250166, 'xmax': -101.22405244885086, 'ymax': 20.56787106250166}",dining and drinking > restaurant > mexican restaurant > taco restaurant,1
50f198b0e4b0e33ec450ae9f,Barbacoa Álvaro,20.523136360298057,-100.81866915178165,,,,,,,,MX,2013-01-12,2023-12-20,,461 174 1797,,,,,,"['4bf58dd8d48988d151941735' '4bf58dd8d48988d14f941735'
 '4bf58dd8d48988d115941735']","['Dining and Drinking > Restaurant > Mexican Restaurant > Taco Restaurant'
 'Dining and Drinking > Restaurant > Southern Food Restaurant'
 'Dining and Drinking > Restaurant > Middle Eastern Restaurant']",b'\x00\x00\x00\x00\x01\xc0Y4e\x13LI\\@4\x85\xecC\xb6\xd4!',"{'xmin': -100.81866915178165, 'ymin': 20.523136360298057, 'xmax': -100.81866915178165, 'ymax': 20.523136360298057}","dining and drinking > restaurant > mexican restaurant > taco restaurant, dining and drinking > restaurant > southern food restaurant, dining and drinking > restaurant > middle eastern restaurant",1
52ad40d6498e1390f77f5995,tacos,20.619268,-103.418662,,,,,,,,MX,2013-12-15,2021-08-13,,,,,,,,['4bf58dd8d48988d151941735'],['Dining and Drinking > Restaurant > Mexican Restaurant > Taco Restaurant'],b'\x00\x00\x00\x00\x01\xc0Y\xda\xcb[\xb3\x84\xfd@4\x9e\x88X\xffu\x97',"{'xmin': -103.418662, 'ymin': 20.619268, 'xmax': -103.418662, 'ymax': 20.619268}",dining and drinking > restaurant > mexican restaurant > taco restaurant,1
50577f75e4b0c21075f5092a,Taqueria Rubio 3 (Barbacoa De Res ),19.683976172412418,-101.21617320171268,Virgo 134 C,Morelia Mich.,michoacan,58050,,,,MX,2012-09-17,2020-11-23,,,,,,,,['4bf58dd8d48988d151941735'],['Dining and Drinking > Restaurant > Mexican Restaurant > Taco Restaurant'],b'\x00\x00\x00\x00\x01\xc0YM\xd5\xc8\x1f\xe8*@3\xaf\x19\x0f\xfb\xc1-',"{'xmin': -101.21617320171268, 'ymin': 19.683976172412418, 'xmax': -101.21617320171268, 'ymax': 19.683976172412418}",dining and drinking > restaurant > mexican restaurant > taco restaurant,1
55370af4498ee4b97e51edf9,Tacos Dani,20.394983604352845,-101.20489767759695,,,,,,,,MX,2015-04-22,2021-08-16,,,,,,,,['4bf58dd8d48988d151941735'],['Dining and Drinking > Restaurant > Mexican Restaurant > Taco Restaurant'],b'\x00\x00\x00\x00\x01\xc0YM\x1d\x0b&\x13\x89@4e\x1d\xa5?&\xd4',"{'xmin': -101.20489767759695, 'ymin': 20.394983604352845, 'xmax': -101.20489767759695, 'ymax': 20.394983604352845}",dining and drinking > restaurant > mexican restaurant > taco restaurant,1
523b613a498ed31e97685c5c,Taqueria El Tata,30.729482,-115.990521,,Vicente Guerrero,Baja California,22929,,,,MX,2013-09-19,2020-11-25,,,,,,,,['4bf58dd8d48988d151941735'],['Dining and Drinking > Restaurant > Mexican Restaurant > Taco Restaurant'],b'\x00\x00\x00\x00\x01\xc0\\\xffd\xb21@\x14@>\xba\xbfU\x15\x05K',"{'xmin': -115.990521, 'ymin': 30.729482, 'xmax': -115.990521, 'ymax': 30.729482}",dining and drinking > restaurant > mexican restaurant > taco restaurant,1
4debe272d164ef597d1129ea,El Tacote,20.63756526361412,-103.31542139210322,,Tlaquepaque,JAL,,,,,MX,2011-06-05,2020-11-24,,,,,,,,['4bf58dd8d48988d1c1941735' '4bf58dd8d48988d151941735'],"['Dining and Drinking > Restaurant > Mexican Restaurant'
 'Dining and Drinking > Restaurant > Mexican Restaurant > Taco Restaurant']",b'\x00\x00\x00\x00\x01\xc0Y\xd4/\xdd4\xe2\xb2@4\xa37z$I\xcc',"{'xmin': -103.31542139210322, 'ymin': 20.63756526361412, 'xmax': -103.31542139210322, 'ymax': 20.63756526361412}","dining and drinking > restaurant > mexican restaurant, dining and drinking > restaurant > mexican restaurant > taco restaurant",1
59b95d334186867ebe24cca6,Langostino's Taco Fish,22.140132,-100.990572,,San Luis Potosí,S.L.P.,78280,,,,MX,2017-09-13,2020-11-22,,,,,,,,['4bf58dd8d48988d151941735'],['Dining and Drinking > Restaurant > Mexican Restaurant > Taco Restaurant'],b'\x00\x00\x00\x00\x01\xc0Y?e\x88\x1a\x15U@6#\xdf\xb0\xd5\x1f\x82',"{'xmin': -100.990572, 'ymin': 22.140132, 'xmax': -100.990572, 'ymax': 22.140132}",dining and drinking > restaurant > mexican restaurant > taco restaurant,1
515313f7e4b02c28c6d3db9f,Tacos Paco,20.620763,-103.369734,,,,,,,,MX,2013-03-27,2021-08-15,,,,,,,,['4bf58dd8d48988d151941735'],['Dining and Drinking > Restaurant > Mexican Restaurant > Taco Restaurant'],b'\x00\x00\x00\x00\x01\xc0Y\xd7\xa9\xb8\xcb\x8e\x08@4\x9e\xeaR\xef\x91\x1d',"{'xmin': -103.369734, 'ymin': 20.620763, 'xmax': -103.369734, 'ymax': 20.620763}",dining and drinking > restaurant > mexican restaurant > taco restaurant,1
57032e3b498eda0b212db243,Tacos Muñoz,21.963444,-102.299375,Champaña,Jesús María,Aguascalientes,20907,,,,MX,2016-04-05,2020-11-24,,,,,,,,['4bf58dd8d48988d151941735'],['Dining and Drinking > Restaurant > Mexican Restaurant > Taco Restaurant'],b'\x00\x00\x00\x00\x01\xc0Y\x93(\xf5\xc2\x8f\\@5\xf6\xa4D\x17\x87\x05',"{'xmin': -102.299375, 'ymin': 21.963444, 'xmax': -102.299375, 'ymax': 21.963444}",dining and drinking > restaurant > mexican restaurant > taco restaurant,1
55370f97498e74621bd4f7a0,El Saborcito Mexicano,19.114602883478792,-104.32537514638983,,Manzanillo,Colima,,,,,MX,2015-04-22,2020-11-24,,,,,,,,['4bf58dd8d48988d151941735'],['Dining and Drinking > Restaurant > Mexican Restaurant > Taco Restaurant'],b'\x00\x00\x00\x00\x01\xc0Z\x14\xd2\xf2G+<@3\x1dV\x9dT\x91\x97',"{'xmin': -104.32537514638983, 'ymin': 19.114602883478792, 'xmax': -104.32537514638983, 'ymax': 19.114602883478792}",dining and drinking > restaurant > mexican restaurant > taco restaurant,1
4ee305c4a69d89905ab16779,Tacos 5x35,20.615684,-105.231804,,Vallarta,Jalisco,,,,,MX,2011-12-10,2021-08-13,,,,,,,,['4bf58dd8d48988d151941735'],['Dining and Drinking > Restaurant > Mexican Restaurant > Taco Restaurant'],b'\x00\x00\x00\x00\x01\xc0ZN\xd5\xe0q\xc5?@4\x9d\x9dwt\xab\xa4',"{'xmin': -105.231804, 'ymin': 20.615684, 'xmax': -105.231804, 'ymax': 20.615684}",dining and drinking > restaurant > mexican restaurant > taco restaurant,1
50e076dee4b0437c3bfda550,El Rinconcito,21.016031584586326,-101.85785124940097,,,,,,,,MX,2012-12-30,2021-08-12,,,,,,,,['4bf58dd8d48988d151941735'],['Dining and Drinking > Restaurant > Mexican Restaurant > Taco Restaurant'],b'\x00\x00\x00\x00\x01\xc0Yv\xe7\x08\xed@\xa2@5\x04\x1a\xa5[\x80W',"{'xmin': -101.85785124940097, 'ymin': 21.016031584586326, 'xmax': -101.85785124940097, 'ymax': 21.016031584586326}",dining and drinking > restaurant > mexican restaurant > taco restaurant,1
4ee1b3a49911340c36460ea0,Tacos El Molcajete Sopes Y Huaraches,31.32490390854338,-113.53343685720263,,Puerto Peñasco,Sonora,,,,,MX,2011-12-09,2020-11-24,,,,,,,,['4bf58dd8d48988d151941735'],['Dining and Drinking > Restaurant > Mexican Restaurant > Taco Restaurant'],"b'\x00\x00\x00\x00\x01\xc0\\b#\xd4X\n\xa5@?S,\xe7\r\x89Q'","{'xmin': -113.53343685720263, 'ymin': 31.32490390854338, 'xmax': -113.53343685720263, 'ymax': 31.32490390854338}",dining and drinking > restaurant > mexican restaurant > taco restaurant,1
569959f1498edbf635e12f55,Tortas Y Tacos HNOS. Mora,21.147279584597115,-101.7137099372024,,,,,,,,MX,2016-01-15,2021-08-12,,,,,,,,['4bf58dd8d48988d151941735'],['Dining and Drinking > Restaurant > Mexican Restaurant > Taco Restaurant'],b'\x00\x00\x00\x00\x01\xc0Ym\xadlq\xc7T@5%\xb4\x1dg6\x8c',"{'xmin': -101.7137099372024, 'ymin': 21.147279584597115, 'xmax': -101.7137099372024, 'ymax': 21.147279584597115}",dining and drinking > restaurant > mexican restaurant > taco restaurant,1
54a439c7498e66aeb0cf9a64,Tacos Y Tacos La Calzada,21.35622899556392,-101.92868084463058,,,,,,,,MX,2014-12-31,2021-08-11,,,,,,,,['4bf58dd8d48988d151941735'],['Dining and Drinking > Restaurant > Mexican Restaurant > Taco Restaurant'],b'\x00\x00\x00\x00\x01\xc0Y{o\x81\xc8\x07\n@5[1\xd2\xcd\xd5\x7f',"{'xmin': -101.92868084463058, 'ymin': 21.35622899556392, 'xmax': -101.92868084463058, 'ymax': 21.35622899556392}",dining and drinking > restaurant > mexican restaurant > taco restaurant,1
5c19b21ad905160025cb20ae,Taqueria Tovar,21.896906,-102.28644,Félix de la Paz 705,Aguascalientes,Aguascalientes,20030,,,,MX,2018-12-19,2020-11-24,,,,,,,,['4bf58dd8d48988d151941735'],['Dining and Drinking > Restaurant > Mexican Restaurant > Taco Restaurant'],b'\x00\x00\x00\x00\x01\xc0Y\x92U\x08p\x11\n@5\xe5\x9b\xa1\xb1\x96\x10',"{'xmin': -102.28644, 'ymin': 21.896906, 'xmax': -102.28644, 'ymax': 21.896906}",dining and drinking > restaurant > mexican restaurant > taco restaurant,1
570dcac1498e6041567d80e5,"Tacos ""Bryan""",21.01713521617021,-101.27163453470372,Pueblito De Rocha,Guanajuato,Guanajuato,,,,,MX,2016-04-13,2020-11-22,,,,,,,,['4bf58dd8d48988d151941735'],['Dining and Drinking > Restaurant > Mexican Restaurant > Taco Restaurant'],b'\x00\x00\x00\x00\x01\xc0YQbu\xd0\xc1\x11@5\x04b\xf99\x0f\x9a',"{'xmin': -101.27163453470372, 'ymin': 21.01713521617021, 'xmax': -101.27163453470372, 'ymax': 21.01713521617021}",dining and drinking > restaurant > mexican restaurant > taco restaurant,1
5434377c498e648f00f9232c,Q Papas y Tacos Luises,20.73039837414776,-103.41804027557373,Santa Margarita 337,Zapopan,Jalisco,45140,,,,MX,2014-10-07,2020-11-24,,33 1543 8735,,,,,,['4bf58dd8d48988d151941735'],['Dining and Drinking > Restaurant > Mexican Restaurant > Taco Restaurant'],"b'\x00\x00\x00\x00\x01\xc0Y\xda\xc1,\x00\x00\x00@4\xba\xfbcJ\x04&'","{'xmin': -103.41804027557373, 'ymin': 20.73039837414776, 'xmax': -103.41804027557373, 'ymax': 20.73039837414776}",dining and drinking > restaurant > mexican restaurant > taco restaurant,1
56ad04db498e8d1d1bdb016e,"Tacos de Barbacoa ""Vic""",20.682085976025405,-103.44537927054247,Calzada Norte,Guadalajara,Jalisco,,,,,MX,2016-01-30,2020-11-22,,,,,,,,['4bf58dd8d48988d151941735'],['Dining and Drinking > Restaurant > Mexican Restaurant > Taco Restaurant'],b'\x00\x00\x00\x00\x01\xc0Y\xdc\x81\x18\x0eR\xf6@4\xae\x9d/\xc0\x16\xe0',"{'xmin': -103.44537927054247, 'ymin': 20.682085976025405, 'xmax': -103.44537927054247, 'ymax': 20.682085976025405}",dining and drinking > restaurant > mexican restaurant > taco restaurant,1
4ffceaf1e4b09934759f617f,Taqueria México,21.522616,-102.229478,,,,,,,,MX,2012-07-11,2021-08-16,,,,,,,,['4bf58dd8d48988d151941735'],['Dining and Drinking > Restaurant > Mexican Restaurant > Taco Restaurant'],b'\x00\x00\x00\x00\x01\xc0Y\x8e\xaf\xc4~I\xb2@5\x85\xca)\x84]\xc8',"{'xmin': -102.229478, 'ymin': 21.522616, 'xmax': -102.229478, 'ymax': 21.522616}",dining and drinking > restaurant > mexican restaurant > taco restaurant,1
50135f26e4b0e259d2d3e084,"Tacos ""El Amigo""",21.15746307373047,-100.91915893554688,,,,,,,,MX,2012-07-28,2021-08-16,,,,,,,,['4bf58dd8d48988d151941735'],['Dining and Drinking > Restaurant > Mexican Restaurant > Taco Restaurant'],b'\x00\x00\x00\x00\x01\xc0Y:\xd3\x80\x00\x00\x00@5(O\x80\x00\x00\x00',"{'xmin': -100.91915893554688, 'ymin': 21.15746307373047, 'xmax': -100.91915893554688, 'ymax': 21.15746307373047}",dining and drinking > restaurant > mexican restaurant > taco restaurant,1
4e02101eaeb76b610989e7a9,Tacos Al Vapor El Jefe,20.612431,-103.42865,,Zapopan,JAL,,,,,MX,2011-06-22,2020-11-22,,,,,,,,['4bf58dd8d48988d151941735'],['Dining and Drinking > Restaurant > Mexican Restaurant > Taco Restaurant'],"b'\x00\x00\x00\x00\x01\xc0Y\xdbo\x00h\xdb\x8c@4\x9c\xc8G,\x0e|'","{'xmin': -103.42865, 'ymin': 20.612431, 'xmax': -103.42865, 'ymax': 20.612431}",dining and drinking > restaurant > mexican restaurant > taco restaurant,1
4c16efbb5e88c92819fb2466,Tacos El Toro Negro,20.74483,-103.42185,Federalistas 1223,Zapopan,Jalisco,,,,,MX,2010-06-15,2020-11-23,,,,,,,,['4bf58dd8d48988d151941735'],['Dining and Drinking > Restaurant > Mexican Restaurant > Taco Restaurant'],b'\x00\x00\x00\x00\x01\xc0Y\xda\xff\x97$tT@4\xbe\xad-\xcb\x14f',"{'xmin': -103.42185, 'ymin': 20.74483, 'xmax': -103.42185, 'ymax': 20.74483}",dining and drinking > restaurant > mexican restaurant > taco restaurant,1
546672f2498e0e0479e58bd3,Tacontento,20.69220319996702,-103.37661337514135,,,,,,,,MX,2014-11-14,2021-08-14,,,,,,,,['4bf58dd8d48988d151941735'],['Dining and Drinking > Restaurant > Mexican Restaurant > Taco Restaurant'],b'\x00\x00\x00\x00\x01\xc0Y\xd8\x1an\xfc]\xf8@4\xb14:\x9a\x0b\x7f',"{'xmin': -103.37661337514135, 'ymin': 20.69220319996702, 'xmax': -103.37661337514135, 'ymax': 20.69220319996702}",dining and drinking > restaurant > mexican restaurant > taco restaurant,1
4fabe689e4b006e8b380423d,Tacos la Morenita,19.2429763433947,-103.71986362817914,Aldama,Colima,colima,28000,,,,MX,2012-05-10,2020-11-25,,,,,,,,['4bf58dd8d48988d151941735'],['Dining and Drinking > Restaurant > Mexican Restaurant > Taco Restaurant'],b'\x00\x00\x00\x00\x01\xc0Y\xee\x12>\xe5&\xff@3>3\xb2\x98\x94\xf8',"{'xmin': -103.71986362817914, 'ymin': 19.2429763433947, 'xmax': -103.71986362817914, 'ymax': 19.2429763433947}",dining and drinking > restaurant > mexican restaurant > taco restaurant,1
4c26bc38db51952171752c3a,Tacos Villa Charra,21.871251010874477,-102.30654563816704,Ignacio T Chavez,Aguascalientes,AGS,,,,,MX,2010-06-27,2023-12-21,,449 915 6594,,,,,,['4bf58dd8d48988d151941735'],['Dining and Drinking > Restaurant > Mexican Restaurant > Taco Restaurant'],b'\x00\x00\x00\x00\x01\xc0Y\x93\x9eq\x98\xaa+@5\xdf\nNfP\x15',"{'xmin': -102.30654563816704, 'ymin': 21.871251010874477, 'xmax': -102.30654563816704, 'ymax': 21.871251010874477}",dining and drinking > restaurant > mexican restaurant > taco restaurant,1
50038c69e4b04c8e75ce7de1,Tacos Y Quesadillas EL Puente,21.473464965820312,-104.85755157470703,,,,,,,,MX,2012-07-16,2021-08-13,,,,,,,,['4bf58dd8d48988d151941735'],['Dining and Drinking > Restaurant > Mexican Restaurant > Taco Restaurant'],b'\x00\x00\x00\x00\x01\xc0Z6\xe2 \x00\x00\x00@5y5\x00\x00\x00\x00',"{'xmin': -104.85755157470703, 'ymin': 21.473464965820312, 'xmax': -104.85755157470703, 'ymax': 21.473464965820312}",dining and drinking > restaurant > mexican restaurant > taco restaurant,1
4cba842abac93704796aec7c,La Brasita,20.517784851206326,-100.82816044397953,Bosques de Chapultepec 110,Celaya,Guanajuato,38000,,,,MX,2010-10-17,2020-11-26,,,,,,,,['4bf58dd8d48988d151941735'],['Dining and Drinking > Restaurant > Mexican Restaurant > Taco Restaurant'],b'\x00\x00\x00\x00\x01\xc0Y5\x00\x94\xa9\xae\xe8@4\x84\x8d\x8cJK\x9f',"{'xmin': -100.82816044397953, 'ymin': 20.517784851206326, 'xmax': -100.82816044397953, 'ymax': 20.517784851206326}",dining and drinking > restaurant > mexican restaurant > taco restaurant,1
4f0a6561e4b000dd77746089,Taquería Contreras,19.058653,-104.282637,Benito Juárez 24,Guamúchil,Sinaloa,,,,,MX,2012-01-09,2021-08-11,,,,,,,,['4bf58dd8d48988d151941735'],['Dining and Drinking > Restaurant > Mexican Restaurant > Taco Restaurant'],b'\x00\x00\x00\x00\x01\xc0Z\x12\x16\xb9\x7f\xe8\xee@3\x0f\x03\xe2\x0c\xcf\xf2',"{'xmin': -104.282637, 'ymin': 19.058653, 'xmax': -104.282637, 'ymax': 19.058653}",dining and drinking > restaurant > mexican restaurant > taco restaurant,1
502941d6e4b0d9146660fca8,Carnitas Estilo Michoacan El Farolito,20.62150323356195,-103.32198316065254,,,,,,,,MX,2012-08-13,2021-08-12,,,,,,,,['4bf58dd8d48988d151941735'],['Dining and Drinking > Restaurant > Mexican Restaurant > Taco Restaurant'],b'\x00\x00\x00\x00\x01\xc0Y\xd4\x9b_B7b@4\x9f\x1a\xd5\xfe\x81\xbf',"{'xmin': -103.32198316065254, 'ymin': 20.62150323356195, 'xmax': -103.32198316065254, 'ymax': 20.62150323356195}",dining and drinking > restaurant > mexican restaurant > taco restaurant,1
50481688e4b00f91b9a168b1,Tacos San Juan,20.69726476923982,-101.36075137523157,,,,,,,,MX,2012-09-06,2021-08-11,2019-10-17,,,,,,,['4bf58dd8d48988d151941735'],['Dining and Drinking > Restaurant > Mexican Restaurant > Taco Restaurant'],b'\x00\x00\x00\x00\x01\xc0YW\x16\x8c\xef\xa6\xd3@4\xb2\x7f\xf1\xa4\x89\xbb',"{'xmin': -101.36075137523157, 'ymin': 20.69726476923982, 'xmax': -101.36075137523157, 'ymax': 20.69726476923982}",dining and drinking > restaurant > mexican restaurant > taco restaurant,1
4debdf9cfa76cc1b8b0aa068,Arriba el Norte,20.525893516666667,-100.82630086666667,Profesor Francisco Juárez 616,Celaya,Guanajuato,,,,,MX,2011-06-05,2024-03-10,,,,,103624546389124.0,,,['4bf58dd8d48988d151941735'],['Dining and Drinking > Restaurant > Mexican Restaurant > Taco Restaurant'],b'\x00\x00\x00\x00\x01\xc0Y4\xe2\x1d\x07\xbfY@4\x86\xa0\xf5\x1fC\x03',"{'xmin': -100.82630086666667, 'ymin': 20.525893516666667, 'xmax': -100.82630086666667, 'ymax': 20.525893516666667}",dining and drinking > restaurant > mexican restaurant > taco restaurant,1
5312a5c7498ec73fd28f956a,Ta'corte,20.68050402081979,-103.37388201470326,Garibaldi 1663,"Americana, Guadalajara, JAL",Jalisco,,,,,MX,2014-03-02,2021-08-12,,,,,,,,['4bf58dd8d48988d151941735'],['Dining and Drinking > Restaurant > Mexican Restaurant > Taco Restaurant'],b'\x00\x00\x00\x00\x01\xc0Y\xd7\xed\xae\xd4m\xa3@4\xae5\x82\xf27\xae',"{'xmin': -103.37388201470326, 'ymin': 20.68050402081979, 'xmax': -103.37388201470326, 'ymax': 20.68050402081979}",dining and drinking > restaurant > mexican restaurant > taco restaurant,1
5a6d69e035811b546e3ae4ab,Tacos De Piña “Arandas Free Way”,20.618621,-103.062521,Avila Camacho,Zapotlanejo,JAL,,,,,MX,2018-01-28,2020-11-23,,,,,,,,['4bf58dd8d48988d151941735'],['Dining and Drinking > Restaurant > Mexican Restaurant > Taco Restaurant'],b'\x00\x00\x00\x00\x01\xc0Y\xc4\x00X\x14\x94\x0c@4\x9e]\xf2#\x9ek',"{'xmin': -103.062521, 'ymin': 20.618621, 'xmax': -103.062521, 'ymax': 20.618621}",dining and drinking > restaurant > mexican restaurant > taco restaurant,1
54c0015b498ebfa050333925,Taqo,21.899438858032227,-102.29745483398438,,,,,,,,MX,2015-01-21,2021-08-15,,,,,,,,['4bf58dd8d48988d151941735'],['Dining and Drinking > Restaurant > Mexican Restaurant > Taco Restaurant'],b'\x00\x00\x00\x00\x01\xc0Y\x93\t\x80\x00\x00\x00@5\xe6A\xa0\x00\x00\x00',"{'xmin': -102.29745483398438, 'ymin': 21.899438858032227, 'xmax': -102.29745483398438, 'ymax': 21.899438858032227}",dining and drinking > restaurant > mexican restaurant > taco restaurant,1
58b320cd5804ea3b2a0e631d,Carnitas El Cerrito,22.222784,-101.062003,,,,,,,,MX,2017-02-26,2020-11-25,,,,,,,,['4bf58dd8d48988d151941735'],['Dining and Drinking > Restaurant > Mexican Restaurant > Taco Restaurant'],b'\x00\x00\x00\x00\x01\xc0YC\xf7\xdbnP@@69\x08_J\x12s',"{'xmin': -101.062003, 'ymin': 22.222784, 'xmax': -101.062003, 'ymax': 22.222784}",dining and drinking > restaurant > mexican restaurant > taco restaurant,1
4d8ad2d499c2a1cd512699d7,Tacos Que Vasooo?,20.62834497860029,-103.40947895152557,Cruz del Sur,Zapopan,Jalisco,45070,,,,MX,2011-03-24,2020-11-24,,,,,,,,['4bf58dd8d48988d151941735' '4bf58dd8d48988d1cb941735'],"['Dining and Drinking > Restaurant > Mexican Restaurant > Taco Restaurant'
 'Dining and Drinking > Food Truck']",b'\x00\x00\x00\x00\x01\xc0Y\xda4\xe74L\xf9@4\xa0\xdb7m\xb1\xae',"{'xmin': -103.40947895152557, 'ymin': 20.62834497860029, 'xmax': -103.40947895152557, 'ymax': 20.62834497860029}","dining and drinking > restaurant > mexican restaurant > taco restaurant, dining and drinking > food truck",1
52b67669498e94c7f276b4ff,tacos los gueros,21.844321,-102.26126,,,,,,,,MX,2013-12-22,2021-08-15,,,,,,,,['4bf58dd8d48988d151941735'],['Dining and Drinking > Restaurant > Mexican Restaurant > Taco Restaurant'],b'\x00\x00\x00\x00\x01\xc0Y\x90\xb8{\xdc\xf00@5\xd8%k\xcaSv',"{'xmin': -102.26126, 'ymin': 21.844321, 'xmax': -102.26126, 'ymax': 21.844321}",dining and drinking > restaurant > mexican restaurant > taco restaurant,1
5711a81a498eb520f54154b9,La Cenita de Doña Mary,20.717466,-103.300675,,,,,,,,MX,2016-04-16,2021-08-16,,,,,,,,['4bf58dd8d48988d151941735'],['Dining and Drinking > Restaurant > Mexican Restaurant > Taco Restaurant'],b'\x00\x00\x00\x00\x01\xc0Y\xd3>BZ\xeec@4\xb7\xab\xda\r\xfd\xf0',"{'xmin': -103.300675, 'ymin': 20.717466, 'xmax': -103.300675, 'ymax': 20.717466}",dining and drinking > restaurant > mexican restaurant > taco restaurant,1
64b4a587f163fd5e0d1ba396,Tacos Sonorita Versalles,20.638158,-105.225809,,Puerto Vallarta,JAL,48310,,,,MX,2023-07-17,2024-01-02,,322 259 0542,http://www.sonoritas.com.mx,,,,,['4bf58dd8d48988d151941735'],['Dining and Drinking > Restaurant > Mexican Restaurant > Taco Restaurant'],b'\x00\x00\x00\x00\x01\xc0ZNs\xa7\x97\x89\x1e@4\xa3^R\x9b\xaeG',"{'xmin': -105.225809, 'ymin': 20.638158, 'xmax': -105.225809, 'ymax': 20.638158}",dining and drinking > restaurant > mexican restaurant > taco restaurant,1
50920edae4b09489565b9017,Tacos El Güero,20.685756281523336,-103.42032792139933,,Zapopan,Jalisco,,,,,MX,2012-11-01,2020-11-30,,,,,,,,['4bf58dd8d48988d151941735'],['Dining and Drinking > Restaurant > Mexican Restaurant > Taco Restaurant'],b'\x00\x00\x00\x00\x01\xc0Y\xda\xe6\xa7\x15\x00_@4\xaf\x8d\xb9B+W',"{'xmin': -103.42032792139933, 'ymin': 20.685756281523336, 'xmax': -103.42032792139933, 'ymax': 20.685756281523336}",dining and drinking > restaurant > mexican restaurant > taco restaurant,1
4e8679be5503ef17e3207b40,Taqueria El Rincón de Gaona,21.100601755378225,-101.6466691159663,,,,,,,,MX,2011-10-01,2021-08-11,,,,,,,,['4bf58dd8d48988d151941735'],['Dining and Drinking > Restaurant > Mexican Restaurant > Taco Restaurant'],b'\x00\x00\x00\x00\x01\xc0Yic\x06\xdc\x1a%@5\x19\xc1\taE\t',"{'xmin': -101.6466691159663, 'ymin': 21.100601755378225, 'xmax': -101.6466691159663, 'ymax': 21.100601755378225}",dining and drinking > restaurant > mexican restaurant > taco restaurant,1
56a148b9498e4df205545794,Tacos Karla,20.67926831345779,-103.40300625707067,Av México,Plaza Bonita,Jalisco,44670,,,,MX,2016-01-21,2021-08-11,,,,,,,,['4bf58dd8d48988d151941735'],['Dining and Drinking > Restaurant > Mexican Restaurant > Taco Restaurant'],b'\x00\x00\x00\x00\x01\xc0Y\xd9\xca\xda\xc1\x8c\xec@4\xad\xe4\x877\x82\xa2',"{'xmin': -103.40300625707067, 'ymin': 20.67926831345779, 'xmax': -103.40300625707067, 'ymax': 20.67926831345779}",dining and drinking > restaurant > mexican restaurant > taco restaurant,1
4fd40a61e4b054c599a71c60,Tacos El Paisa 2,21.018075573151087,-101.25848091174652,Av. Juárez,Guanajuato,Guanajuato,36000,,,,MX,2012-06-10,2023-12-20,,473 732 1678,,,,,,['4bf58dd8d48988d151941735'],['Dining and Drinking > Restaurant > Mexican Restaurant > Taco Restaurant'],b'\x00\x00\x00\x00\x01\xc0YP\x8a\xf3\x85\xa5\xdc@5\x04\xa0\x99\xcb\x8aV',"{'xmin': -101.25848091174652, 'ymin': 21.018075573151087, 'xmax': -101.25848091174652, 'ymax': 21.018075573151087}",dining and drinking > restaurant > mexican restaurant > taco restaurant,1
4cc37e65c844721ec7a6e301,El Jacalito Taqueria,20.9031,-100.7491,Salida a Celaya #34,San Miguel de Allende,GTO,,,,,MX,2010-10-24,2020-11-23,,,,,,,,['4bf58dd8d48988d151941735'],['Dining and Drinking > Restaurant > Mexican Restaurant > Taco Restaurant'],b'\x00\x00\x00\x00\x01\xc0Y/\xf1A [\xc0@4\xe71\x8f\xc5\x04\x81',"{'xmin': -100.7491, 'ymin': 20.9031, 'xmax': -100.7491, 'ymax': 20.9031}",dining and drinking > restaurant > mexican restaurant > taco restaurant,1
4ff0ceb2e4b071c66959f9c0,Bantaco,21.86497078690358,-102.246060599639,,,,,,,,MX,2012-07-01,2021-08-15,,,,,,,,['4bf58dd8d48988d151941735'],['Dining and Drinking > Restaurant > Mexican Restaurant > Taco Restaurant'],"b""\x00\x00\x00\x00\x01\xc0Y\x8f\xbft\xf5\x12'@5\xddn\xb9\xb9\xbf\x0b""","{'xmin': -102.246060599639, 'ymin': 21.86497078690358, 'xmax': -102.246060599639, 'ymax': 21.86497078690358}",dining and drinking > restaurant > mexican restaurant > taco restaurant,1
4fd40f0de4b0cb311f0e478c,tacos california,20.67993500948092,-103.28646303521917,,,,,,,,MX,2012-06-10,2021-08-14,,,,,,,,['4bf58dd8d48988d151941735'],['Dining and Drinking > Restaurant > Mexican Restaurant > Taco Restaurant'],b'\x00\x00\x00\x00\x01\xc0Y\xd2Ui\r\xf1\xdf@4\xae\x108\x85 B',"{'xmin': -103.28646303521917, 'ymin': 20.67993500948092, 'xmax': -103.28646303521917, 'ymax': 20.67993500948092}",dining and drinking > restaurant > mexican restaurant > taco restaurant,1
4f02766a9911b33a135fea6b,Tacos Chory,20.67330406587929,-103.32448267965597,Esteban Loera,Guadalajara,Jalisco,,,,,MX,2012-01-03,2021-08-13,,,,,,,,['4bf58dd8d48988d151941735'],['Dining and Drinking > Restaurant > Mexican Restaurant > Taco Restaurant'],b'\x00\x00\x00\x00\x01\xc0Y\xd4\xc4S\x00Oj@4\xac]\xa7\xbf7#',"{'xmin': -103.32448267965597, 'ymin': 20.67330406587929, 'xmax': -103.32448267965597, 'ymax': 20.67330406587929}",dining and drinking > restaurant > mexican restaurant > taco restaurant,1
5daca10ff2b95a0008bbc749,Los Asadores,20.814951,-102.764421,Morelos 284,Tepatitlán de Morelos,JAL,47600,,,,MX,2019-10-20,2020-11-26,,378 781 0200,,,,,,"['4bf58dd8d48988d151941735' '4bf58dd8d48988d1c1941735'
 '4bf58dd8d48988d16d941735']","['Dining and Drinking > Restaurant > Mexican Restaurant > Taco Restaurant'
 'Dining and Drinking > Restaurant > Mexican Restaurant'
 'Dining and Drinking > Cafe, Coffee, and Tea House > Café']",b'\x00\x00\x00\x00\x01\xc0Y\xb0\xecF\x0e\xd8\n@4\xd0\xa0\xa0\xf4\xd7\xae',"{'xmin': -102.764421, 'ymin': 20.814951, 'xmax': -102.764421, 'ymax': 20.814951}","dining and drinking > restaurant > mexican restaurant > taco restaurant, dining and drinking > restaurant > mexican restaurant, dining and drinking > cafe, coffee, and tea house > café",1
5306b1b8498e337f9185cf0a,Taqueria El Inquieto,20.39243,-101.184661,,,,,,,,MX,2014-02-21,2021-08-17,,,,,,,,['4bf58dd8d48988d151941735'],['Dining and Drinking > Restaurant > Mexican Restaurant > Taco Restaurant'],b'\x00\x00\x00\x00\x01\xc0YK\xd1|^\xf60@4dvJ\xdf\xf8#',"{'xmin': -101.184661, 'ymin': 20.39243, 'xmax': -101.184661, 'ymax': 20.39243}",dining and drinking > restaurant > mexican restaurant > taco restaurant,1
58002741d67c1565b98e5401,Mikel's Burgers,21.061546,-101.57796,,León,Guanajuato,37672,,,,MX,2016-10-14,2020-11-24,,,,,,,,['4bf58dd8d48988d151941735'],['Dining and Drinking > Restaurant > Mexican Restaurant > Taco Restaurant'],b'\x00\x00\x00\x00\x01\xc0Yd\xfdK\xf0\x99[@5\x0f\xc1z\x893\x1a',"{'xmin': -101.57796, 'ymin': 21.061546, 'xmax': -101.57796, 'ymax': 21.061546}",dining and drinking > restaurant > mexican restaurant > taco restaurant,1
5cca3e1ba5a315002cbeee7f,La Casita De Las Quekas,20.646942,-103.304726,Av del Chamizal 791,Guadalajara,Jal.,44810,,,,MX,2019-05-02,2021-08-10,,,,,,,,['4bf58dd8d48988d151941735'],['Dining and Drinking > Restaurant > Mexican Restaurant > Taco Restaurant'],b'\x00\x00\x00\x00\x01\xc0Y\xd3\x80\xa1{\x0fk@4\xa5\x9d\xfd\xach\xa9',"{'xmin': -103.304726, 'ymin': 20.646942, 'xmax': -103.304726, 'ymax': 20.646942}",dining and drinking > restaurant > mexican restaurant > taco restaurant,1
551a0321498e38cf6fb84f78,Sahuaros Grill,19.080427950354093,-104.30619119162455,"Av. Lazaro Cardenas 1609, Las Brisas","Manzanillo, COL",,,,,,MX,2015-03-31,2020-11-30,2018-01-01,314 146 6637,http://sahuarosgrill.mx,,,,sahuaros_grill,['4bf58dd8d48988d151941735'],['Dining and Drinking > Restaurant > Mexican Restaurant > Taco Restaurant'],b'\x00\x00\x00\x00\x01\xc0Z\x13\x98\xa2\xf0\x96r@3\x14\x96\xed\x18t\x84',"{'xmin': -104.30619119162455, 'ymin': 19.080427950354093, 'xmax': -104.30619119162455, 'ymax': 19.080427950354093}",dining and drinking > restaurant > mexican restaurant > taco restaurant,1
5400d573498e9c5134ec0f39,Tacos Lalo,20.65140123858879,-103.32575702130173,,,,,,,,MX,2014-08-29,2021-08-12,,,,,,,,['4bf58dd8d48988d151941735'],['Dining and Drinking > Restaurant > Mexican Restaurant > Taco Restaurant'],b'\x00\x00\x00\x00\x01\xc0Y\xd4\xd93\xfa;\xbb@4\xa6\xc2;HP\x10',"{'xmin': -103.32575702130173, 'ymin': 20.65140123858879, 'xmax': -103.32575702130173, 'ymax': 20.65140123858879}",dining and drinking > restaurant > mexican restaurant > taco restaurant,1
4fced3a3e4b0bdc2b6fc7af1,Tacos y pellizcadas Santa Cecilia,20.53891956705576,-104.03330788124514,,Ameca,Jalisco,46600,,,,MX,2012-06-06,2020-11-22,,,,,,,,['4bf58dd8d48988d151941735'],['Dining and Drinking > Restaurant > Mexican Restaurant > Taco Restaurant'],b'\x00\x00\x00\x00\x01\xc0Z\x02!\xb7a)g@4\x89\xf6\xa1\xfb\xad\xd1',"{'xmin': -104.03330788124514, 'ymin': 20.53891956705576, 'xmax': -104.03330788124514, 'ymax': 20.53891956705576}",dining and drinking > restaurant > mexican restaurant > taco restaurant,1
538a8231498e5c4efdf3b118,taqueria la sonorense,20.732282638549805,-103.4210205078125,,,,,,,,MX,2014-06-01,2021-08-13,,,,,,,,['4bf58dd8d48988d151941735'],['Dining and Drinking > Restaurant > Mexican Restaurant > Taco Restaurant'],b'\x00\x00\x00\x00\x01\xc0Y\xda\xf2\x00\x00\x00\x00@4\xbbv\xe0\x00\x00\x00',"{'xmin': -103.4210205078125, 'ymin': 20.732282638549805, 'xmax': -103.4210205078125, 'ymax': 20.732282638549805}",dining and drinking > restaurant > mexican restaurant > taco restaurant,1
52da02ff498ebee4ae628657,Tacos Estadio - Suc.Dermatologico,20.722973314176194,-103.35331176626475,Federalismo 3145,Zapopan,JAL,45190,,,,MX,2014-01-18,2020-11-22,,,,,,,,['4bf58dd8d48988d151941735'],['Dining and Drinking > Restaurant > Mexican Restaurant > Taco Restaurant'],b'\x00\x00\x00\x00\x01\xc0Y\xd6\x9c\xa8\xf4Y\x8b@4\xb9\x14\xc7tDz',"{'xmin': -103.35331176626475, 'ymin': 20.722973314176194, 'xmax': -103.35331176626475, 'ymax': 20.722973314176194}",dining and drinking > restaurant > mexican restaurant > taco restaurant,1
4fa1ddf5e4b018dc45b1b8a5,Taqueria Sahuayo,20.67631660212998,-103.34718594355168,,Guadalajara,,,,,,MX,2012-05-03,2023-12-21,,33 1380 0437,,,,,,['4bf58dd8d48988d151941735'],['Dining and Drinking > Restaurant > Mexican Restaurant > Taco Restaurant'],b'\x00\x00\x00\x00\x01\xc0Y\xd68KdK\xdd@4\xad#\x15\xb7\xe3\xde',"{'xmin': -103.34718594355168, 'ymin': 20.67631660212998, 'xmax': -103.34718594355168, 'ymax': 20.67631660212998}",dining and drinking > restaurant > mexican restaurant > taco restaurant,1
4f5ffacce4b00e918e4a86da,Tacos El Maga ll,20.6224234457106,-103.39502237106997,Gomera,,,,,,,MX,2012-03-14,2021-08-13,,,,,,,,['4bf58dd8d48988d151941735'],['Dining and Drinking > Restaurant > Mexican Restaurant > Taco Restaurant'],b'\x00\x00\x00\x00\x01\xc0Y\xd9H\x0b\xe9;\xc5@4\x9fW$\x97\x975',"{'xmin': -103.39502237106997, 'ymin': 20.6224234457106, 'xmax': -103.39502237106997, 'ymax': 20.6224234457106}",dining and drinking > restaurant > mexican restaurant > taco restaurant,1
513180d3e4b0a24f80ed3b53,Puesto De Tacos,21.159873307633976,-100.92812675192631,,,,,,,,MX,2013-03-02,2021-08-12,,,,,,,,['4bf58dd8d48988d151941735'],['Dining and Drinking > Restaurant > Mexican Restaurant > Taco Restaurant'],b'\x00\x00\x00\x00\x01\xc0Y;fm\xbf\x84=@5(\xedu\x03\xca\x91',"{'xmin': -100.92812675192631, 'ymin': 21.159873307633976, 'xmax': -100.92812675192631, 'ymax': 21.159873307633976}",dining and drinking > restaurant > mexican restaurant > taco restaurant,1
5cc12550535d6f002ca1f0b4,Tacos Al Pastor Sonorita De Sonora Al Sur,20.603455,-105.23717,,Puerto Vallarta,Jalisco,48380,,,,MX,2019-04-25,2020-11-23,,,,,,,,['4bf58dd8d48988d151941735'],['Dining and Drinking > Restaurant > Mexican Restaurant > Taco Restaurant'],b'\x00\x00\x00\x00\x01\xc0ZO-\xcb\x14e\xe9@4\x9a|\x06\xe1\x9b\x91',"{'xmin': -105.23717, 'ymin': 20.603455, 'xmax': -105.23717, 'ymax': 20.603455}",dining and drinking > restaurant > mexican restaurant > taco restaurant,1
5abfd28ce179103e6936d8db,Tacos Chidos De Birria,20.729725,-103.428626,,Zapopan,JAL,45136,,,,MX,2018-03-31,2020-11-24,,,,,,,,['4bf58dd8d48988d151941735'],['Dining and Drinking > Restaurant > Mexican Restaurant > Taco Restaurant'],b'\x00\x00\x00\x00\x01\xc0Y\xdbn\x9b\xbf\r\xc7@4\xba\xcfA\xf2\x12\xd7',"{'xmin': -103.428626, 'ymin': 20.729725, 'xmax': -103.428626, 'ymax': 20.729725}",dining and drinking > restaurant > mexican restaurant > taco restaurant,1
30f5a462266d4fdb2c01c078,Ricos Tacos Don Manuel,20.658037,-103.37244,Fresno 2075,Guadalajara,Jalisco,44900,,,,MX,2015-11-12,2024-10-02,,33 1491 5265,,,,,,['4bf58dd8d48988d151941735'],['Dining and Drinking > Restaurant > Mexican Restaurant > Taco Restaurant'],b'\x00\x00\x00\x00\x01\xc0Y\xd7\xd6\x0e\x94\xee9@4\xa8u\x1c\xe2\x8e\xd6',"{'xmin': -103.37244, 'ymin': 20.658037, 'xmax': -103.37244, 'ymax': 20.658037}",dining and drinking > restaurant > mexican restaurant > taco restaurant,1
567d6248498e4bd36337f2dd,El Gran Borrego Alonso,22.09548,-100.875439,,,,,,,,MX,2015-12-25,2021-08-16,,,,,,,,['4bf58dd8d48988d151941735'],['Dining and Drinking > Restaurant > Mexican Restaurant > Taco Restaurant'],b'\x00\x00\x00\x00\x01\xc0Y8\x071L\xa9&@6\x18q`\x95l\r',"{'xmin': -100.875439, 'ymin': 22.09548, 'xmax': -100.875439, 'ymax': 22.09548}",dining and drinking > restaurant > mexican restaurant > taco restaurant,1
51055ae8e4b0b154d4c37f77,Tacos la cabaña,20.527789847448712,-101.46145803799452,,,,,,,,MX,2013-01-27,2020-11-22,,,,,,,,['4bf58dd8d48988d151941735'],['Dining and Drinking > Restaurant > Mexican Restaurant > Taco Restaurant'],b'\x00\x00\x00\x00\x01\xc0Y]\x88\x87Kjk@4\x87\x1d<E\xf3\xfb',"{'xmin': -101.46145803799452, 'ymin': 20.527789847448712, 'xmax': -101.46145803799452, 'ymax': 20.527789847448712}",dining and drinking > restaurant > mexican restaurant > taco restaurant,1
4f2b49f1e4b07364f5fecfef,Tacos del Sí Hay,20.684747335021875,-103.43372953567679,,Guadalajara,Jalisco,,,,,MX,2012-02-03,2020-11-23,,,,,,,,['4bf58dd8d48988d151941735'],['Dining and Drinking > Restaurant > Mexican Restaurant > Taco Restaurant'],b'\x00\x00\x00\x00\x01\xc0Y\xdb\xc29\x86\xc2\xa1@4\xafK\x99\xf1\xf1.',"{'xmin': -103.43372953567679, 'ymin': 20.684747335021875, 'xmax': -103.43372953567679, 'ymax': 20.684747335021875}",dining and drinking > restaurant > mexican restaurant > taco restaurant,1
66875b0b02a87978dcc80197,"Taqueria González Arandas, Jal.",21.179616,-101.703472,,León,Gto.,37138,,,,MX,2024-07-05,2024-07-05,,,,,,,,['4bf58dd8d48988d151941735'],['Dining and Drinking > Restaurant > Mexican Restaurant > Taco Restaurant'],b'\x00\x00\x00\x00\x01\xc0Ym\x05\xafli\xb6@5-\xfbPm\xd6\x9d',"{'xmin': -101.703472, 'ymin': 21.179616, 'xmax': -101.703472, 'ymax': 21.179616}",dining and drinking > restaurant > mexican restaurant > taco restaurant,1
5196df15498edb9faa5fb48a,El Texano,20.67369762458217,-101.36393021951979,,,,,,,,MX,2013-05-18,2021-08-17,,,,,,,,['4bf58dd8d48988d151941735'],['Dining and Drinking > Restaurant > Mexican Restaurant > Taco Restaurant'],b'\x00\x00\x00\x00\x01\xc0YWJ\xa1\xf9\xb7E@4\xacwr\x90\xf9+',"{'xmin': -101.36393021951979, 'ymin': 20.67369762458217, 'xmax': -101.36393021951979, 'ymax': 20.67369762458217}",dining and drinking > restaurant > mexican restaurant > taco restaurant,1
4d7fb1dd2ff9b60cf600c347,Tortas & Tacos Ruly,20.625378877604444,-105.22760435244071,Avenida Las Americas,Puerto Vallarta,JAL,,,,,MX,2011-03-15,2020-11-30,,,,,,,,"['4bf58dd8d48988d151941735' '4bf58dd8d48988d1c5941735'
 '4bf58dd8d48988d1c1941735']","['Dining and Drinking > Restaurant > Mexican Restaurant > Taco Restaurant'
 'Dining and Drinking > Restaurant > Sandwich Spot'
 'Dining and Drinking > Restaurant > Mexican Restaurant']",b'\x00\x00\x00\x00\x01\xc0ZN\x91\x11\xd8\x8a?@4\xa0\x18\xd4\x82\xeb\x97',"{'xmin': -105.22760435244071, 'ymin': 20.625378877604444, 'xmax': -105.22760435244071, 'ymax': 20.625378877604444}","dining and drinking > restaurant > mexican restaurant > taco restaurant, dining and drinking > restaurant > sandwich spot, dining and drinking > restaurant > mexican restaurant",1
646128e110a5633876269758,Cocina Casa Mexa,20.767254,-103.52289,Leona Vicario #93,Nextipac,Jalisco,45220,,,,MX,2023-05-14,2023-05-14,,,,,,,,"['4bf58dd8d48988d1c1941735' '4bf58dd8d48988d151941735'
 '4bf58dd8d48988d143941735']","['Dining and Drinking > Restaurant > Mexican Restaurant'
 'Dining and Drinking > Restaurant > Mexican Restaurant > Taco Restaurant'
 'Dining and Drinking > Breakfast Spot']",b'\x00\x00\x00\x00\x01\xc0Y\xe1w\x07\x9eY\xf3@4\xc4j\xc2\x15\xb9\xa6',"{'xmin': -103.52289, 'ymin': 20.767254, 'xmax': -103.52289, 'ymax': 20.767254}","dining and drinking > restaurant > mexican restaurant, dining and drinking > restaurant > mexican restaurant > taco restaurant, dining and drinking > breakfast spot",1
4cdac31fc409b60cadbed01a,"Tacos al vapor ""el cocodrilo hambriento """,20.672904932754342,-103.35859059238744,Escorza 227,Guadalajara,Jalisco,,,,,MX,2010-11-10,2021-08-15,,,,,,,,['4bf58dd8d48988d151941735'],['Dining and Drinking > Restaurant > Mexican Restaurant > Taco Restaurant'],b'\x00\x00\x00\x00\x01\xc0Y\xd6\xf3%\xf4\xbdE@4\xacC\x7fg\x7f:',"{'xmin': -103.35859059238744, 'ymin': 20.672904932754342, 'xmax': -103.35859059238744, 'ymax': 20.672904932754342}",dining and drinking > restaurant > mexican restaurant > taco restaurant,1
4ea785657ee5c765189ffbfe,Tacos El Tío,20.68901935319193,-101.35109050946792,Calle Olas #3120-B,Irapuato,GTO,36660,,,,MX,2011-10-26,2020-11-25,,462 625 3298,,,,,,['4bf58dd8d48988d151941735'],['Dining and Drinking > Restaurant > Mexican Restaurant > Taco Restaurant'],b'\x00\x00\x00\x00\x01\xc0YVxDT\x06r@4\xb0c\x92\x84E:',"{'xmin': -101.35109050946792, 'ymin': 20.68901935319193, 'xmax': -101.35109050946792, 'ymax': 20.68901935319193}",dining and drinking > restaurant > mexican restaurant > taco restaurant,1
50b0a650e4b082345754e25b,Quesadillas de las 4 am,20.959666,-101.424231,,,,,,,,MX,2012-11-24,2021-08-14,,,,,,,,['4bf58dd8d48988d151941735'],['Dining and Drinking > Restaurant > Mexican Restaurant > Taco Restaurant'],b'\x00\x00\x00\x00\x01\xc0Y[&\x99\xc7\xbc\xc3@4\xf5\xac\xab\xc5\x15H',"{'xmin': -101.424231, 'ymin': 20.959666, 'xmax': -101.424231, 'ymax': 20.959666}",dining and drinking > restaurant > mexican restaurant > taco restaurant,1
4fa0234be4b03efa218e0b57,"Tacos de barbacoa ""Los Compitas”",20.760241817223612,-103.38945954860795,,,,,,,,MX,2012-05-01,2021-08-13,,,,,,,,['4bf58dd8d48988d151941735'],['Dining and Drinking > Restaurant > Mexican Restaurant > Taco Restaurant'],b'\x00\x00\x00\x00\x01\xc0Y\xd8\xec\xe7\xbe\x18\xb5@4\xc2\x9f5.\x06\xeb',"{'xmin': -103.38945954860795, 'ymin': 20.760241817223612, 'xmax': -103.38945954860795, 'ymax': 20.760241817223612}",dining and drinking > restaurant > mexican restaurant > taco restaurant,1
6337b671758b94540e9dba1a,Taquearte Providencia,20.682077,-103.385445,,Guadalajara,Jalisco,44680,,,,MX,2022-10-01,2022-10-01,,,,,,,,['4bf58dd8d48988d151941735'],['Dining and Drinking > Restaurant > Mexican Restaurant > Taco Restaurant'],b'\x00\x00\x00\x00\x01\xc0Y\xd8\xab!\x81Z\x08@4\xae\x9c\x99(Z\x92',"{'xmin': -103.385445, 'ymin': 20.682077, 'xmax': -103.385445, 'ymax': 20.682077}",dining and drinking > restaurant > mexican restaurant > taco restaurant,1
53ce86f1498e5d692391e55b,Tacos al vapor Rosita,20.57578468322754,-103.36370849609375,Javier Mina,Toluquilla,,,,,,MX,2014-07-22,2020-11-23,,,,,,,,['4bf58dd8d48988d151941735'],['Dining and Drinking > Restaurant > Mexican Restaurant > Taco Restaurant'],b'\x00\x00\x00\x00\x01\xc0Y\xd7G\x00\x00\x00\x00@4\x93f\xa0\x00\x00\x00',"{'xmin': -103.36370849609375, 'ymin': 20.57578468322754, 'xmax': -103.36370849609375, 'ymax': 20.57578468322754}",dining and drinking > restaurant > mexican restaurant > taco restaurant,1
5349f88c498eb5bc112f1c7f,La Taquiza!,21.857885,-102.272964,Mariano Escobedo 133,,,20297,,,,MX,2014-04-13,2021-08-13,,,,,,,,['4bf58dd8d48988d151941735'],['Dining and Drinking > Restaurant > Mexican Restaurant > Taco Restaurant'],b'\x00\x00\x00\x00\x01\xc0Y\x91x=\xff?\x10@5\xdb\x9eY\xf2\xba\x9d',"{'xmin': -102.272964, 'ymin': 21.857885, 'xmax': -102.272964, 'ymax': 21.857885}",dining and drinking > restaurant > mexican restaurant > taco restaurant,1
4f9f4d7ae4b07d343f9f761b,Ta' Carbón,19.26278734158707,-103.71179137737228,Av. Constitución 1901,Colima,COL,28017,,,,MX,2012-05-01,2020-11-22,2020-11-04,,,,,,,['4bf58dd8d48988d151941735'],['Dining and Drinking > Restaurant > Mexican Restaurant > Taco Restaurant'],b'\x00\x00\x00\x00\x01\xc0Y\xed\x8d\xfdk\xd8\xe1@3CF\x07\xfd\xebT',"{'xmin': -103.71179137737228, 'ymin': 19.26278734158707, 'xmax': -103.71179137737228, 'ymax': 19.26278734158707}",dining and drinking > restaurant > mexican restaurant > taco restaurant,1
51582f44e4b0c70f5d49756a,Taqueria de Carnitas,20.626729,-105.223159,,,,,,,,MX,2013-03-31,2021-09-02,,,,,,,,['4bf58dd8d48988d151941735'],['Dining and Drinking > Restaurant > Mexican Restaurant > Taco Restaurant'],b'\x00\x00\x00\x00\x01\xc0ZNH<\xaf\xb3\xb7@4\xa0qO\xcetm',"{'xmin': -105.223159, 'ymin': 20.626729, 'xmax': -105.223159, 'ymax': 20.626729}",dining and drinking > restaurant > mexican restaurant > taco restaurant,1
535c6d23498e603f3053fcdf,Tacos El Gorrion,20.65799340312564,-103.31694771650982,Fray Antonio De Segovia,,,,,,,MX,2014-04-27,2021-08-13,,,,,,,,['4bf58dd8d48988d151941735'],['Dining and Drinking > Restaurant > Mexican Restaurant > Taco Restaurant'],b'\x00\x00\x00\x00\x01\xc0Y\xd4H\xdf\x13<\xe6@4\xa8rAsh\x8b',"{'xmin': -103.31694771650982, 'ymin': 20.65799340312564, 'xmax': -103.31694771650982, 'ymax': 20.65799340312564}",dining and drinking > restaurant > mexican restaurant > taco restaurant,1
4ff88adfe4b0a7f7412ccc7d,Paveles Taco,20.614132604765434,-103.41691012797621,Rio Atenco,Guadalajara,Jalisco,,,,,MX,2012-07-07,2020-11-21,,,,,,,,['4bf58dd8d48988d151941735'],['Dining and Drinking > Restaurant > Mexican Restaurant > Taco Restaurant'],b'\x00\x00\x00\x00\x01\xc0Y\xda\xae\xa7\xd1A\xdb@4\x9d7\xcb\\\xdf\xf5',"{'xmin': -103.41691012797621, 'ymin': 20.614132604765434, 'xmax': -103.41691012797621, 'ymax': 20.614132604765434}",dining and drinking > restaurant > mexican restaurant > taco restaurant,1
666e5ed71934a338296a010e,Tacos Árabes Yiyo Parra,19.687079,-101.199229,Alberto Alvarado #606,Morelia,Mich.,58060,,,,MX,2024-06-16,2024-08-11,,,,,,,,['4bf58dd8d48988d151941735'],['Dining and Drinking > Restaurant > Mexican Restaurant > Taco Restaurant'],b'\x00\x00\x00\x00\x01\xc0YL\xc0*\xfd\xda\x8c@3\xaf\xe4h\xca\xc4\xb5',"{'xmin': -101.199229, 'ymin': 19.687079, 'xmax': -101.199229, 'ymax': 19.687079}",dining and drinking > restaurant > mexican restaurant > taco restaurant,1
5d99400f2585280008e3c730,El Guapo,20.673346,-103.36567,Libertad 1870 B,Guadalajara,Jalisco,44160,,,,MX,2019-10-06,2021-08-14,,,,,,,,['4bf58dd8d48988d151941735'],['Dining and Drinking > Restaurant > Mexican Restaurant > Taco Restaurant'],b'\x00\x00\x00\x00\x01\xc0Y\xd7g#$\xc86@4\xac`gH\xe4u',"{'xmin': -103.36567, 'ymin': 20.673346, 'xmax': -103.36567, 'ymax': 20.673346}",dining and drinking > restaurant > mexican restaurant > taco restaurant,1
64a1d69ab9898f75a8129178,Tacos Villaleón,21.164471,-101.684556,,León,Guanajuato,37125,,,,MX,2023-07-02,2023-07-02,,,,,,,,['4bf58dd8d48988d151941735'],['Dining and Drinking > Restaurant > Mexican Restaurant > Taco Restaurant'],b'\x00\x00\x00\x00\x01\xc0Yk\xcf\xc3\xf8\x11\xf5@5*\x1a\xc5~#\xf2',"{'xmin': -101.684556, 'ymin': 21.164471, 'xmax': -101.684556, 'ymax': 21.164471}",dining and drinking > restaurant > mexican restaurant > taco restaurant,1
52bf035811d2d9699178a107,"Tacos De Carnitas ""Valdez""",19.089536666870117,-104.29658508300781,C. Cedros,Manzanillo,Colima,28219,,,,MX,2013-12-28,2020-11-24,,,,,,,,['4bf58dd8d48988d151941735'],['Dining and Drinking > Restaurant > Mexican Restaurant > Taco Restaurant'],b'\x00\x00\x00\x00\x01\xc0Z\x12\xfb@\x00\x00\x00@3\x16\xeb\xe0\x00\x00\x00',"{'xmin': -104.29658508300781, 'ymin': 19.089536666870117, 'xmax': -104.29658508300781, 'ymax': 19.089536666870117}",dining and drinking > restaurant > mexican restaurant > taco restaurant,1
53359920498e1c91444cc923,tacos mineros san jua,20.537471771240234,-100.83562469482422,,,,,,,,MX,2014-03-28,2021-08-17,,,,,,,,['4bf58dd8d48988d151941735'],['Dining and Drinking > Restaurant > Mexican Restaurant > Taco Restaurant'],b'\x00\x00\x00\x00\x01\xc0Y5z\xe0\x00\x00\x00@4\x89\x97\xc0\x00\x00\x00',"{'xmin': -100.83562469482422, 'ymin': 20.537471771240234, 'xmax': -100.83562469482422, 'ymax': 20.537471771240234}",dining and drinking > restaurant > mexican restaurant > taco restaurant,1
5554a846498ee07b30351412,"Tacos ""El Amigo""",21.138992,-101.683988,,,,,,,,MX,2015-05-14,2021-08-12,,,,,,,,['4bf58dd8d48988d151941735'],['Dining and Drinking > Restaurant > Mexican Restaurant > Taco Restaurant'],b'\x00\x00\x00\x00\x01\xc0Yk\xc6u\x9a\xb6\xd0@5#\x94\xfa\xceg\xd7',"{'xmin': -101.683988, 'ymin': 21.138992, 'xmax': -101.683988, 'ymax': 21.138992}",dining and drinking > restaurant > mexican restaurant > taco restaurant,1
5b25c8b8cad1b6002ca189d9,Lechón El Wero 2,21.872915,-102.271,Avenida Convención,Aguascalientes,Aguascalientes,20260,,,,MX,2018-06-17,2020-11-25,,,,,,,,['4bf58dd8d48988d151941735'],['Dining and Drinking > Restaurant > Mexican Restaurant > Taco Restaurant'],b'\x00\x00\x00\x00\x01\xc0Y\x91X\x10bM\xd3@5\xdfw[\x810\x16',"{'xmin': -102.271, 'ymin': 21.872915, 'xmax': -102.271, 'ymax': 21.872915}",dining and drinking > restaurant > mexican restaurant > taco restaurant,1
4f598697e4b04e4607a1e3f6,Tacos Ramón,20.696040270157724,-103.38951575511668,Montevideo,Guadalajara,Jalisco,44630,,,,MX,2012-03-09,2021-08-16,,,,,,,,['4bf58dd8d48988d151941735'],['Dining and Drinking > Restaurant > Mexican Restaurant > Taco Restaurant'],b'\x00\x00\x00\x00\x01\xc0Y\xd8\xed\xd3}`/@4\xb2/\xb1\xf5\x06\xc4',"{'xmin': -103.38951575511668, 'ymin': 20.696040270157724, 'xmax': -103.38951575511668, 'ymax': 20.696040270157724}",dining and drinking > restaurant > mexican restaurant > taco restaurant,1
5ec307dbf3be7d0008ca4c69,Taquería el Infierno,20.732415237361796,-103.43039989471434,Av. Sta Margarita,Zapopan,Jalisco,45136,,,,MX,2020-05-18,2023-09-13,,33 3584 6840,,,,,taqueriai,['4bf58dd8d48988d151941735'],['Dining and Drinking > Restaurant > Mexican Restaurant > Taco Restaurant'],b'\x00\x00\x00\x00\x01\xc0Y\xdb\x8b\xab\xff\xff\xff@4\xbb\x7f\x90\xa3\x8f\x9d',"{'xmin': -103.43039989471434, 'ymin': 20.732415237361796, 'xmax': -103.43039989471434, 'ymax': 20.732415237361796}",dining and drinking > restaurant > mexican restaurant > taco restaurant,1
58e079fd58c4d11a7af7b7a7,Tacos Arandas,20.679459,-103.33674,Calle Federación 153,Guadalajara,Jalisco,44360,,,,MX,2017-04-02,2021-08-13,,,,,,,,['4bf58dd8d48988d151941735'],['Dining and Drinking > Restaurant > Mexican Restaurant > Taco Restaurant'],b'\x00\x00\x00\x00\x01\xc0Y\xd5\x8d%\xed\xd0S@4\xad\xf1\x06g\xf9\x0e',"{'xmin': -103.33674, 'ymin': 20.679459, 'xmax': -103.33674, 'ymax': 20.679459}",dining and drinking > restaurant > mexican restaurant > taco restaurant,1
6175659c19edd90ac3fb3499,Tacobra,20.732529,-103.38787,Silvano barba #1205,Zapopan,Jalisco,45150,,,,MX,2021-10-24,2023-09-13,,,,,,,,['4bf58dd8d48988d151941735'],['Dining and Drinking > Restaurant > Mexican Restaurant > Taco Restaurant'],b'\x00\x00\x00\x00\x01\xc0Y\xd8\xd2\xdc\xb1F_@4\xbb\x87\x05B_ ',"{'xmin': -103.38787, 'ymin': 20.732529, 'xmax': -103.38787, 'ymax': 20.732529}",dining and drinking > restaurant > mexican restaurant > taco restaurant,1
5c7f16e90a08ab002b4d1b96,Tacos C'est Si Bon,19.085943,-102.351999,,Apatzingán de la Constitución,MICH,60600,,,,MX,2019-03-06,2020-11-30,,,,,,,,['4bf58dd8d48988d151941735'],['Dining and Drinking > Restaurant > Mexican Restaurant > Taco Restaurant'],b'\x00\x00\x00\x00\x01\xc0Y\x96\x87&\xd0Nb@3\x16\x00\\FQ\xf4',"{'xmin': -102.351999, 'ymin': 19.085943, 'xmax': -102.351999, 'ymax': 19.085943}",dining and drinking > restaurant > mexican restaurant > taco restaurant,1
514fd99ae4b0250958b04f35,Tacos Lili,16.813389508545516,-99.80224764294434,,,,,,,,MX,2013-03-25,2021-08-10,,,,,,,,['4bf58dd8d48988d151941735'],['Dining and Drinking > Restaurant > Mexican Restaurant > Taco Restaurant'],b'\x00\x00\x00\x00\x01\xc0X\xf3X\x06\x7foL@0\xd0:Kz\x1c\xcd',"{'xmin': -99.80224764294434, 'ymin': 16.813389508545516, 'xmax': -99.80224764294434, 'ymax': 16.813389508545516}",dining and drinking > restaurant > mexican restaurant > taco restaurant,1
59caa331916bc1153a1977e6,"Rico Mac Taco ""2""",19.291254,-99.619606,Primero de mayo,Toluca de Lerdo,Estado de México,50160,,,,MX,2017-09-26,2020-11-30,,,,,,,,['4bf58dd8d48988d151941735'],['Dining and Drinking > Restaurant > Mexican Restaurant > Taco Restaurant'],b'\x00\x00\x00\x00\x01\xc0X\xe7\xa7\x9f\xec\x99\xf2@3J\x8f\x9fD\xd4E',"{'xmin': -99.619606, 'ymin': 19.291254, 'xmax': -99.619606, 'ymax': 19.291254}",dining and drinking > restaurant > mexican restaurant > taco restaurant,1
597c1e36bb8d362cf804a90e,Taqueria Rocky,19.30027,-99.07125,"Av. Aldama 1163 mz 159 Esq. Aztecas, apelación San Lorenzo",,CDMX,,,,,MX,2017-07-29,2021-08-16,,,,,,,,['4bf58dd8d48988d151941735'],['Dining and Drinking > Restaurant > Mexican Restaurant > Taco Restaurant'],b'\x00\x00\x00\x00\x01\xc0X\xc4\x8f\\(\xf5\xc3@3L\xde~\xa5\xf8M',"{'xmin': -99.07125, 'ymin': 19.30027, 'xmax': -99.07125, 'ymax': 19.30027}",dining and drinking > restaurant > mexican restaurant > taco restaurant,1
503ee66fe4b0e9fe4f140d3c,Parrisalsa,19.275025,-99.177948,Apaches No.2,Df,,,,,,MX,2012-08-30,2020-11-24,,,,,,,,['4bf58dd8d48988d151941735'],['Dining and Drinking > Restaurant > Mexican Restaurant > Taco Restaurant'],b'\x00\x00\x00\x00\x01\xc0X\xcbc\x80\x02\x18\xdf@3Fh\t\xd4\x95\x18',"{'xmin': -99.177948, 'ymin': 19.275025, 'xmax': -99.177948, 'ymax': 19.275025}",dining and drinking > restaurant > mexican restaurant > taco restaurant,1
55064a27498e3c6d80c61311,Taquitos Santa Rosa,18.90097174803282,-96.99669326467652,,"Fortin de las Flores, VER",,,,,,MX,2015-03-16,2020-11-23,,,,,,,,['4bf58dd8d48988d151941735'],['Dining and Drinking > Restaurant > Mexican Restaurant > Taco Restaurant'],b'\x00\x00\x00\x00\x01\xc0X?\xc9\xd2\x8b\xfbw@2\xe6\xa6\x15\xa0k\xc1',"{'xmin': -96.99669326467652, 'ymin': 18.90097174803282, 'xmax': -96.99669326467652, 'ymax': 18.90097174803282}",dining and drinking > restaurant > mexican restaurant > taco restaurant,1
50720a67e4b0559b4e25648d,"Garnachas ""Doña Bigotes""",19.355150430438986,-96.56448557755759,,,,,,,,MX,2012-10-07,2021-08-16,,,,,,,,['4bf58dd8d48988d151941735'],['Dining and Drinking > Restaurant > Mexican Restaurant > Taco Restaurant'],b'\x00\x00\x00\x00\x01\xc0X$ \x88\x1d\xab\x1b@3Z\xeb#{\xe5Q',"{'xmin': -96.56448557755759, 'ymin': 19.355150430438986, 'xmax': -96.56448557755759, 'ymax': 19.355150430438986}",dining and drinking > restaurant > mexican restaurant > taco restaurant,1
57228056498e7dbf6da36f60,Ricas Carnitas Acayucan,18.465695,-95.300034,,Santiago tuxtla,Veracruz,,,,,MX,2016-04-28,2020-11-22,,,,,,,,['4bf58dd8d48988d151941735'],['Dining and Drinking > Restaurant > Mexican Restaurant > Taco Restaurant'],b'\x00\x00\x00\x00\x01\xc0W\xd33\xc1\xcel\t@2w7\xc9\x9a\xe9%',"{'xmin': -95.300034, 'ymin': 18.465695, 'xmax': -95.300034, 'ymax': 18.465695}",dining and drinking > restaurant > mexican restaurant > taco restaurant,1
4dba23e60cb65435c5267a9e,Tacos El Árabe Don José,18.849658710869424,-97.09375631621668,sur 23,orizaba,veracruz,94300,,,,MX,2011-04-29,2020-11-25,,527248195,,,,,,['4bf58dd8d48988d151941735'],['Dining and Drinking > Restaurant > Mexican Restaurant > Taco Restaurant'],b'\x00\x00\x00\x00\x01\xc0XF\x00\x1a}\xfcl@2\xd9\x83;\xb7\xf2\x19',"{'xmin': -97.09375631621668, 'ymin': 18.849658710869424, 'xmax': -97.09375631621668, 'ymax': 18.849658710869424}",dining and drinking > restaurant > mexican restaurant > taco restaurant,1
4ce021e2ffcf370423ed1d82,Tacos Valente,19.704036559771655,-103.46394394914606,,Cuidad Guzmán,JAL,,,,,MX,2010-11-14,2020-11-25,,,,,,,,['4bf58dd8d48988d151941735'],['Dining and Drinking > Restaurant > Mexican Restaurant > Taco Restaurant'],b'\x00\x00\x00\x00\x01\xc0Y\xdd\xb1A\xf60\x9a@3\xb4;\xbdohY',"{'xmin': -103.46394394914606, 'ymin': 19.704036559771655, 'xmax': -103.46394394914606, 'ymax': 19.704036559771655}",dining and drinking > restaurant > mexican restaurant > taco restaurant,1
57883573498edc44c84e206a,Tacos Edgar,18.954162,-99.257034,Av. Lomas de Ahuatlan,Cuernavaca,Morelos,62130,,,,MX,2016-07-15,2020-11-22,,,,,,,,['4bf58dd8d48988d151941735'],['Dining and Drinking > Restaurant > Mexican Restaurant > Taco Restaurant'],b'\x00\x00\x00\x00\x01\xc0X\xd0s>\xbb\xfdr@2\xf4C\xf5\xf9\x16\x01',"{'xmin': -99.257034, 'ymin': 18.954162, 'xmax': -99.257034, 'ymax': 18.954162}",dining and drinking > restaurant > mexican restaurant > taco restaurant,1
4dcdb166d4c065592f6c36c3,"Taqueria ""La Cueva Del Oso""",19.33502953719441,-99.1586072193246,,,,,,,,MX,2011-05-13,2021-08-12,,,,,,,,['4bf58dd8d48988d151941735'],['Dining and Drinking > Restaurant > Mexican Restaurant > Taco Restaurant'],"b""\x00\x00\x00\x00\x01\xc0X\xca&\x9e\xe4\xfa'@3U\xc4~\xe9q\xaa""","{'xmin': -99.1586072193246, 'ymin': 19.33502953719441, 'xmax': -99.1586072193246, 'ymax': 19.33502953719441}",dining and drinking > restaurant > mexican restaurant > taco restaurant,1
51969707498ea3643140bd66,Carnitas El Azteca,19.306974892739937,-99.21017958130966,,,,,,,,MX,2013-05-17,2020-11-30,,,,,,,,['4bf58dd8d48988d151941735'],['Dining and Drinking > Restaurant > Mexican Restaurant > Taco Restaurant'],b'\x00\x00\x00\x00\x01\xc0X\xcds\x95\x0f\x00\xc4@3N\x95\xe8\x15\x02\xda',"{'xmin': -99.21017958130966, 'ymin': 19.306974892739937, 'xmax': -99.21017958130966, 'ymax': 19.306974892739937}",dining and drinking > restaurant > mexican restaurant > taco restaurant,1
5685845f498ed509df8758bb,Tacos De Canasta,19.290133,-99.22651,,,,,,,,MX,2015-12-31,2021-08-15,,,,,,,,['4bf58dd8d48988d151941735'],['Dining and Drinking > Restaurant > Mexican Restaurant > Taco Restaurant'],b'\x00\x00\x00\x00\x01\xc0X\xce\x7f#\xcc\x8d\xe3@3JF(\x02}\x89',"{'xmin': -99.22651, 'ymin': 19.290133, 'xmax': -99.22651, 'ymax': 19.290133}",dining and drinking > restaurant > mexican restaurant > taco restaurant,1
5292184d11d20e4e13daa49b,"Tacos De Cabeza ""danny""",19.914921,-102.006967,,,,,,,,MX,2013-11-24,2021-08-16,,,,,,,,['4bf58dd8d48988d151941735'],['Dining and Drinking > Restaurant > Mexican Restaurant > Taco Restaurant'],b'\x00\x00\x00\x00\x01\xc0Y\x80r%\xb7I\xae@3\xea8C=lr',"{'xmin': -102.006967, 'ymin': 19.914921, 'xmax': -102.006967, 'ymax': 19.914921}",dining and drinking > restaurant > mexican restaurant > taco restaurant,1
5040ce50e4b0dd909b3f7350,Birria El Hombre Salsa,19.3224469113737,-99.10529931305427,,Coyoacán,Mexico City,,,,,MX,2012-08-31,2020-11-25,,,,,,,,"['4bf58dd8d48988d151941735' '4bf58dd8d48988d1c1941735'
 '4bf58dd8d48988d1cb941735']","['Dining and Drinking > Restaurant > Mexican Restaurant > Taco Restaurant'
 'Dining and Drinking > Restaurant > Mexican Restaurant'
 'Dining and Drinking > Food Truck']",b'\x00\x00\x00\x00\x01\xc0X\xc6\xbd9Tw\x00@3R\x8b\xe1{\x0b\xd7',"{'xmin': -99.10529931305427, 'ymin': 19.3224469113737, 'xmax': -99.10529931305427, 'ymax': 19.3224469113737}","dining and drinking > restaurant > mexican restaurant > taco restaurant, dining and drinking > restaurant > mexican restaurant, dining and drinking > food truck",1
5689862f498eed21cf7fb0f3,"Comedor ""Conchita""",17.100688,-96.764952,Camino A San Jacinto Amilpas 102,Santa María Atzompa,Oaxaca,,,,,MX,2016-01-03,2020-11-23,,951 118 8293,,,,,,['4bf58dd8d48988d151941735'],['Dining and Drinking > Restaurant > Mexican Restaurant > Taco Restaurant'],b'\x00\x00\x00\x00\x01\xc0X0\xf4\xf9;\xc0\xa0@1\x19\xc6\xb0S\x19\x83',"{'xmin': -96.764952, 'ymin': 17.100688, 'xmax': -96.764952, 'ymax': 17.100688}",dining and drinking > restaurant > mexican restaurant > taco restaurant,1
4f6ec099e4b0d4a5b1c96ea3,Burritos Grill,18.781356879180464,-99.20760143958252,,"Chinconcuac,  Morelos",,,,,,MX,2012-03-25,2020-11-23,,,,,,,,['4bf58dd8d48988d151941735'],['Dining and Drinking > Restaurant > Mexican Restaurant > Taco Restaurant'],"b'\x00\x00\x00\x00\x01\xc0X\xcdIW\x8cg\x01@2\xc8\x07\x01""\x95\xb0'","{'xmin': -99.20760143958252, 'ymin': 18.781356879180464, 'xmax': -99.20760143958252, 'ymax': 18.781356879180464}",dining and drinking > restaurant > mexican restaurant > taco restaurant,1
4ef88447722e3406101f5f24,Tacos Doña Enojona,17.56067612164476,-99.50739832983437,"Av. Insurgentes, Esq. Revolución del Sur, Col. Morelos",,,,,,,MX,2011-12-26,2021-08-13,,,,,,,,['4bf58dd8d48988d151941735'],['Dining and Drinking > Restaurant > Mexican Restaurant > Taco Restaurant'],b'\x00\x00\x00\x00\x01\xc0X\xe0y6\xd8+\xc1@1\x8f\x88xf\x1c\xc4',"{'xmin': -99.50739832983437, 'ymin': 17.56067612164476, 'xmax': -99.50739832983437, 'ymax': 17.56067612164476}",dining and drinking > restaurant > mexican restaurant > taco restaurant,1
563cf824cd106e70492feb56,"Tacos ""Poncho""",19.887526777726286,-102.83186668955238,,,,,,,,MX,2015-11-06,2020-11-25,,,,,,,,['4bf58dd8d48988d151941735'],['Dining and Drinking > Restaurant > Mexican Restaurant > Taco Restaurant'],b'\x00\x00\x00\x00\x01\xc0Y\xb5=M\xc8\x90\x98@3\xe34\xf4t\xa8\x9e',"{'xmin': -102.83186668955238, 'ymin': 19.887526777726286, 'xmax': -102.83186668955238, 'ymax': 19.887526777726286}",dining and drinking > restaurant > mexican restaurant > taco restaurant,1
4fc40f15e4b04bdf29c199c7,Tacos la Wera FCPyS,19.285496134174227,-99.67975836414871,,,,,,,,MX,2012-05-28,2021-08-13,,,,,,,,['4bf58dd8d48988d151941735'],['Dining and Drinking > Restaurant > Mexican Restaurant > Taco Restaurant'],b'\x00\x00\x00\x00\x01\xc0X\xeb\x81)9\xcc\xe0@3I\x16FOi\xa9',"{'xmin': -99.67975836414871, 'ymin': 19.285496134174227, 'xmax': -99.67975836414871, 'ymax': 19.285496134174227}",dining and drinking > restaurant > mexican restaurant > taco restaurant,1
57da216c498e58119fc5afef,Taquerias Uruapan,19.815924,-101.786068,Av. Morelos,Zacapu,Michoacán,,,,,MX,2016-09-15,2020-11-21,,,,,,,,['4bf58dd8d48988d151941735'],['Dining and Drinking > Restaurant > Mexican Restaurant > Taco Restaurant'],b'\x00\x00\x00\x00\x01\xc0YrN\xf0(\x1b\xa8@3\xd0\xe0e0\x05\x81',"{'xmin': -101.786068, 'ymin': 19.815924, 'xmax': -101.786068, 'ymax': 19.815924}",dining and drinking > restaurant > mexican restaurant > taco restaurant,1
57a023f5498e556cbad0acbf,El Buen Pastor,16.865184,-99.893815,,,,,,,,MX,2016-08-02,2021-08-15,,,,,,,,['4bf58dd8d48988d151941735'],['Dining and Drinking > Restaurant > Mexican Restaurant > Taco Restaurant'],"b""\x00\x00\x00\x00\x01\xc0X\xf94C\xd4k'@0\xdd|\xb2\xd9\x05\xc0""","{'xmin': -99.893815, 'ymin': 16.865184, 'xmax': -99.893815, 'ymax': 16.865184}",dining and drinking > restaurant > mexican restaurant > taco restaurant,1
4c8ad0d26418a143b195e3ce,Taquería Chuchin,19.331784,-99.21209,Unidad Independencia,,Magdalena Contreras,10100,,,,MX,2010-09-11,2022-10-07,,55 5668 0176,,,,,,['4bf58dd8d48988d151941735'],['Dining and Drinking > Restaurant > Mexican Restaurant > Taco Restaurant'],b'\x00\x00\x00\x00\x01\xc0X\xcd\x92\xe1\xefs\xc1@3T\xef\xcb\xd5V\x08',"{'xmin': -99.21209, 'ymin': 19.331784, 'xmax': -99.21209, 'ymax': 19.331784}",dining and drinking > restaurant > mexican restaurant > taco restaurant,1
58c582e3126ae8310d803277,Los Planchados De Bucareli,19.70265,-101.17443,,Morelia,Michoacán,,,,,MX,2017-03-12,2020-11-26,,,,,,,,['4bf58dd8d48988d151941735'],['Dining and Drinking > Restaurant > Mexican Restaurant > Taco Restaurant'],b'\x00\x00\x00\x00\x01\xc0YK)\xdcr\\>@3\xb3\xe0\xde\xd2\x88\xce',"{'xmin': -101.17443, 'ymin': 19.70265, 'xmax': -101.17443, 'ymax': 19.70265}",dining and drinking > restaurant > mexican restaurant > taco restaurant,1
57e07dd9498ee7f172fd3f6b,Tacos de Mixiote,19.334607,-99.18762,Filosofía y Letras,,,,,,,MX,2016-09-20,2021-08-14,,,,,,,,['4bf58dd8d48988d151941735'],['Dining and Drinking > Restaurant > Mexican Restaurant > Taco Restaurant'],b'\x00\x00\x00\x00\x01\xc0X\xcc\x01\xf7Q\x04\xd5@3U\xa8\xcd\xea\x03>',"{'xmin': -99.18762, 'ymin': 19.334607, 'xmax': -99.18762, 'ymax': 19.334607}",dining and drinking > restaurant > mexican restaurant > taco restaurant,1
508efdfbe4b07bfac782a387,Los D'12,19.334766,-99.177572,Copilco Universidad,México D.F.,México,,,,,MX,2012-10-29,2020-11-23,,,,,,,,['4bf58dd8d48988d151941735'],['Dining and Drinking > Restaurant > Mexican Restaurant > Taco Restaurant'],b'\x00\x00\x00\x00\x01\xc0X\xcb]V\xf3+\xdc@3U\xb39}\xd0\x0f',"{'xmin': -99.177572, 'ymin': 19.334766, 'xmax': -99.177572, 'ymax': 19.334766}",dining and drinking > restaurant > mexican restaurant > taco restaurant,1
4fa638e4e4b05483077a77ca,Tacos de Toño Bar Central,17.061929,-96.729358,,,,,,,,MX,2012-05-06,2021-08-12,,,,,,,,['4bf58dd8d48988d151941735'],['Dining and Drinking > Restaurant > Mexican Restaurant > Taco Restaurant'],b'\x00\x00\x00\x00\x01\xc0X.\xad\xcd-D\xdd@1\x0f\xda\x945\xac\x8a',"{'xmin': -96.729358, 'ymin': 17.061929, 'xmax': -96.729358, 'ymax': 17.061929}",dining and drinking > restaurant > mexican restaurant > taco restaurant,1
60e1f34d6275dc2471aa7e28,Tacos De Barbacoa Barbacha,19.411619,-101.621286,Carretera Quiroga - Tepalcatepec,Salvador Escalante,MICH,61824,,,,MX,2021-07-04,2021-07-04,,,,,,,,['4bf58dd8d48988d151941735'],['Dining and Drinking > Restaurant > Mexican Restaurant > Taco Restaurant'],b'\x00\x00\x00\x00\x01\xc0Yg\xc3&Z\xdd\x9c@3i_\xdc\xdfi\x88',"{'xmin': -101.621286, 'ymin': 19.411619, 'xmax': -101.621286, 'ymax': 19.411619}",dining and drinking > restaurant > mexican restaurant > taco restaurant,1
5586d60e498e3b38267fae44,Carnitas Chiwis,19.316539764404297,-99.0849380493164,,,,,,,,MX,2015-06-21,2021-08-14,,,,,,,,['4bf58dd8d48988d151941735'],['Dining and Drinking > Restaurant > Mexican Restaurant > Taco Restaurant'],b'\x00\x00\x00\x00\x01\xc0X\xc5o\xa0\x00\x00\x00@3Q\x08\xc0\x00\x00\x00',"{'xmin': -99.0849380493164, 'ymin': 19.316539764404297, 'xmax': -99.0849380493164, 'ymax': 19.316539764404297}",dining and drinking > restaurant > mexican restaurant > taco restaurant,1
57277cd2498e0f3535665c88,Nutri Gorditas,18.566640573950227,-99.6019278214168,,,,,,,,MX,2016-05-02,2021-08-15,,,,,,,,['4bf58dd8d48988d151941735'],['Dining and Drinking > Restaurant > Mexican Restaurant > Taco Restaurant'],b'\x00\x00\x00\x00\x01\xc0X\xe6\x85\xfcD\xe2i@2\x91\x0f[M\xb3\xf1',"{'xmin': -99.6019278214168, 'ymin': 18.566640573950227, 'xmax': -99.6019278214168, 'ymax': 18.566640573950227}",dining and drinking > restaurant > mexican restaurant > taco restaurant,1
52db43c6498eb223e1d4d43d,taquitos de la 11,18.849568898488187,-97.08843431977067,Ote. 6 #1793,Orizaba,,,,,,MX,2014-01-19,2020-11-25,,,,,,,,['4bf58dd8d48988d151941735'],['Dining and Drinking > Restaurant > Mexican Restaurant > Taco Restaurant'],b'\x00\x00\x00\x00\x01\xc0XE\xa8\xe8k\xd0\x94@2\xd9}X\xea\xb4\x9c',"{'xmin': -97.08843431977067, 'ymin': 18.849568898488187, 'xmax': -97.08843431977067, 'ymax': 18.849568898488187}",dining and drinking > restaurant > mexican restaurant > taco restaurant,1
64a61441f5339859215b1150,Primos,15.774523,-96.096459,,Tangolunda,OAX,70989,,,,MX,2023-07-06,2023-07-06,,,,,,,,['4bf58dd8d48988d151941735'],['Dining and Drinking > Restaurant > Mexican Restaurant > Taco Restaurant'],"b'\x00\x00\x00\x00\x01\xc0X\x06,b^\x99\xe9@/\x8c\x8eGU\xff\xe7'","{'xmin': -96.096459, 'ymin': 15.774523, 'xmax': -96.096459, 'ymax': 15.774523}",dining and drinking > restaurant > mexican restaurant > taco restaurant,1
539b8187498e62c5565b1c37,Tacos de canasta Yoya,19.299157215285305,-99.6301656961441,María Curie,Toluca,México,50070,,,,MX,2014-06-13,2020-11-30,,722 319 3696,,,,,,['4bf58dd8d48988d151941735'],['Dining and Drinking > Restaurant > Mexican Restaurant > Taco Restaurant'],b'\x00\x00\x00\x00\x01\xc0X\xe8T\xa2\x80\x00\x00@3L\x95\x918\x03H',"{'xmin': -99.6301656961441, 'ymin': 19.299157215285305, 'xmax': -99.6301656961441, 'ymax': 19.299157215285305}",dining and drinking > restaurant > mexican restaurant > taco restaurant,1
612bbdd845f7601c0788cfb4,Quesabirrias Del Centro,17.549517,-98.581891,,Tlapa de Comonfort,GRO,41300,,,,MX,2021-08-29,2021-08-29,,,,,,,,['4bf58dd8d48988d151941735'],['Dining and Drinking > Restaurant > Mexican Restaurant > Taco Restaurant'],b'\x00\x00\x00\x00\x01\xc0X\xa5=\xb3\xbf\xb5\x8d@1\x8c\xad%g\x98\x96',"{'xmin': -98.581891, 'ymin': 17.549517, 'xmax': -98.581891, 'ymax': 17.549517}",dining and drinking > restaurant > mexican restaurant > taco restaurant,1
530a207e11d2ee2f02d2e313,"Huaraches ""Los Amigos""",19.262656,-99.681779,Vicente Guerrero 217,Toluca,México,,,,,MX,2014-02-23,2020-11-23,,,,,,,,['4bf58dd8d48988d151941735'],['Dining and Drinking > Restaurant > Mexican Restaurant > Taco Restaurant'],"b'\x00\x00\x00\x00\x01\xc0X\xeb\xa2Dc\x06`@3C=lr\x19""'","{'xmin': -99.681779, 'ymin': 19.262656, 'xmax': -99.681779, 'ymax': 19.262656}",dining and drinking > restaurant > mexican restaurant > taco restaurant,1
53d6fddb498ef87cc8432cdc,tacos don reyes,19.31223132948266,-99.15284405592504,San Gonzalo,,,,,,,MX,2014-07-29,2021-08-12,,,,,,,,['4bf58dd8d48988d151941735'],['Dining and Drinking > Restaurant > Mexican Restaurant > Taco Restaurant'],b'\x00\x00\x00\x00\x01\xc0X\xc9\xc82oe\x82@3O\xeedt\xea%',"{'xmin': -99.15284405592504, 'ymin': 19.31223132948266, 'xmax': -99.15284405592504, 'ymax': 19.31223132948266}",dining and drinking > restaurant > mexican restaurant > taco restaurant,1
5610761c498eb70a6d42a7ac,"Tacos de Guisado ""Don Carlos"".",19.286675,-99.102108,,,,,,,,MX,2015-10-04,2021-08-11,,,,,,,,['4bf58dd8d48988d151941735'],['Dining and Drinking > Restaurant > Mexican Restaurant > Taco Restaurant'],b'\x00\x00\x00\x00\x01\xc0X\xc6\x88\xef\xfe*=@3Ic\x88e\x94\xaf',"{'xmin': -99.102108, 'ymin': 19.286675, 'xmax': -99.102108, 'ymax': 19.286675}",dining and drinking > restaurant > mexican restaurant > taco restaurant,1
4e41ec4d1f6ec93e924fb857,Las brazas,19.31156497982893,-99.64553010326486,,Toluca,México,,,,,MX,2011-08-10,2020-11-22,,,,,,,,['4bf58dd8d48988d1c1941735' '4bf58dd8d48988d151941735'],"['Dining and Drinking > Restaurant > Mexican Restaurant'
 'Dining and Drinking > Restaurant > Mexican Restaurant > Taco Restaurant']",b'\x00\x00\x00\x00\x01\xc0X\xe9P]~\x86\xca@3O\xc2\xb8\xf6\xf1\xb4',"{'xmin': -99.64553010326486, 'ymin': 19.31156497982893, 'xmax': -99.64553010326486, 'ymax': 19.31156497982893}","dining and drinking > restaurant > mexican restaurant, dining and drinking > restaurant > mexican restaurant > taco restaurant",1
50a80dc5e4b082296b94429c,La Güera,19.303467,-99.152884,Estadio Azteca,,,,,,,MX,2012-11-17,2021-08-14,,,,,,,,['4bf58dd8d48988d151941735'],['Dining and Drinking > Restaurant > Mexican Restaurant > Taco Restaurant'],b'\x00\x00\x00\x00\x01\xc0X\xc9\xc8\xd9\xf9\x05:@3M\xb0\x03hjM',"{'xmin': -99.152884, 'ymin': 19.303467, 'xmax': -99.152884, 'ymax': 19.303467}",dining and drinking > restaurant > mexican restaurant > taco restaurant,1
4cbb7440dd41a35d094beea0,Los Dos toros,19.28609271420369,-99.16376626669656,Calzada de tlalpan #4851,Tlalpan,DF,14000,,,,MX,2010-10-17,2023-12-21,,55 5585 1541,,registro.gratuito@menumania.com.mx,,,,['4bf58dd8d48988d151941735'],['Dining and Drinking > Restaurant > Mexican Restaurant > Taco Restaurant'],b'\x00\x00\x00\x00\x01\xc0X\xca{%\x81\xe9\x95@3I=_C \xf4',"{'xmin': -99.16376626669656, 'ymin': 19.28609271420369, 'xmax': -99.16376626669656, 'ymax': 19.28609271420369}",dining and drinking > restaurant > mexican restaurant > taco restaurant,1
5151d43ee4b0746a2e8f9aa2,Tacos Doña Güicha,18.911599042672318,-96.9623388720316,Camino Al Pueblito,Córdoba,Veracruz,,,,,MX,2013-03-26,2020-11-30,,,,,,,,['4bf58dd8d48988d151941735'],['Dining and Drinking > Restaurant > Mexican Restaurant > Taco Restaurant'],b'\x00\x00\x00\x00\x01\xc0X=\x96\xf5\xc7\xc2\xe5@2\xe9^\x8e\x0bW\xaf',"{'xmin': -96.9623388720316, 'ymin': 18.911599042672318, 'xmax': -96.9623388720316, 'ymax': 18.911599042672318}",dining and drinking > restaurant > mexican restaurant > taco restaurant,1
5214f5a3498e6bc14d965efe,Tacos Del Maestro,19.265408,-99.103708,Josefa Ortiz De Domínguez,,,,,,,MX,2013-08-21,2021-08-14,,,,,,,,['4bf58dd8d48988d151941735'],['Dining and Drinking > Restaurant > Mexican Restaurant > Taco Restaurant'],b'\x00\x00\x00\x00\x01\xc0X\xc6\xa3&\xe1\x15Y@3C\xf1\xc7X\x18\xc6',"{'xmin': -99.103708, 'ymin': 19.265408, 'xmax': -99.103708, 'ymax': 19.265408}",dining and drinking > restaurant > mexican restaurant > taco restaurant,1
570f047a498e8416fe774903,Taquitos Gaby,18.927754,-99.223015,,,,,,,,MX,2016-04-14,2021-08-10,,,,,,,,['4bf58dd8d48988d151941735'],['Dining and Drinking > Restaurant > Mexican Restaurant > Taco Restaurant'],b'\x00\x00\x00\x00\x01\xc0X\xceE\xe0\xb4\xe1\x1e@2\xed\x81I@\xbb\xb2',"{'xmin': -99.223015, 'ymin': 18.927754, 'xmax': -99.223015, 'ymax': 18.927754}",dining and drinking > restaurant > mexican restaurant > taco restaurant,1
4eb1006d9911c46a6a214705,El Rey Del Taco,19.698226044197646,-101.25082539653131,Av Madero,Morelia,Michoacán,,,,,MX,2011-11-02,2023-12-20,,443 239 3690,,,,,,['4bf58dd8d48988d151941735'],['Dining and Drinking > Restaurant > Mexican Restaurant > Taco Restaurant'],b'\x00\x00\x00\x00\x01\xc0YP\r\x85\xf6\xc6\xed@3\xb2\xbe\xf1)\x0bZ',"{'xmin': -101.25082539653131, 'ymin': 19.698226044197646, 'xmax': -101.25082539653131, 'ymax': 19.698226044197646}",dining and drinking > restaurant > mexican restaurant > taco restaurant,1
57ed58e8498eef0ba644b3ca,LAS CAZUELITAS DE MAMÁ,19.31282,-99.07316,,Ciudad de México,Ciudad de México,,,,,MX,2016-09-29,2020-11-22,,,,,,,,['4bf58dd8d48988d151941735'],['Dining and Drinking > Restaurant > Mexican Restaurant > Taco Restaurant'],b'\x00\x00\x00\x00\x01\xc0X\xc4\xae\xa7G\xd8\x06@3P\x14\xf8\xb5\x88\xe3',"{'xmin': -99.07316, 'ymin': 19.31282, 'xmax': -99.07316, 'ymax': 19.31282}",dining and drinking > restaurant > mexican restaurant > taco restaurant,1
6153f452dbc44a06c3c2e6ab,Tacos Don Chelo,19.148342,-96.126976,calle 4,Veracruz,Veracruz,94296,,,,MX,2021-09-29,2021-09-29,,,,,,,,['4bf58dd8d48988d151941735'],['Dining and Drinking > Restaurant > Mexican Restaurant > Taco Restaurant'],b'\x00\x00\x00\x00\x01\xc0X\x08 _\xf1\xd8\x1f@3%\xf9\xbd\xc6\x9f\x8c',"{'xmin': -96.126976, 'ymin': 19.148342, 'xmax': -96.126976, 'ymax': 19.148342}",dining and drinking > restaurant > mexican restaurant > taco restaurant,1
4ea769076c25a76b7cb59c6d,El Fregoncito,19.30055,-99.16422,,,,,,,,MX,2011-10-26,2021-08-11,,,,,,,,['4bf58dd8d48988d151941735'],['Dining and Drinking > Restaurant > Mexican Restaurant > Taco Restaurant'],b'\x00\x00\x00\x00\x01\xc0X\xca\x82\x94\x9aVX@3L\xf0\xd8D\xd0\x14',"{'xmin': -99.16422, 'ymin': 19.30055, 'xmax': -99.16422, 'ymax': 19.30055}",dining and drinking > restaurant > mexican restaurant > taco restaurant,1
55d37484498e4c08398a4544,Cochinita Dr Pibil,19.292266845703125,-99.15584564208984,Fray Pedro De Gante,No.122,distrito federal,,,,,MX,2015-08-18,2023-12-21,,55 2919 7315,,,,,,['4bf58dd8d48988d151941735'],['Dining and Drinking > Restaurant > Mexican Restaurant > Taco Restaurant'],b'\x00\x00\x00\x00\x01\xc0X\xc9\xf9`\x00\x00\x00@3J\xd2\x00\x00\x00\x00',"{'xmin': -99.15584564208984, 'ymin': 19.292266845703125, 'xmax': -99.15584564208984, 'ymax': 19.292266845703125}",dining and drinking > restaurant > mexican restaurant > taco restaurant,1
5ad24e424a1cc0615a779697,Taqueria Don Beto,18.263213,-97.314547,,San José Miahuatlán,PUE,,,,,MX,2018-04-14,2020-11-30,,,,,,,,['4bf58dd8d48988d151941735'],['Dining and Drinking > Restaurant > Mexican Restaurant > Taco Restaurant'],b'\x00\x00\x00\x00\x01\xc0XT!\x89\xbd\x83\x84@2Ca\xedZ\xe1\xce',"{'xmin': -97.314547, 'ymin': 18.263213, 'xmax': -97.314547, 'ymax': 18.263213}",dining and drinking > restaurant > mexican restaurant > taco restaurant,1
66491042ced61c70b15760a5,Taqueria San Martin,18.926919,-99.233384,,Cuernavaca,Mor.,62280,,,,MX,2024-05-18,2024-05-18,,,,,,,,['4bf58dd8d48988d151941735'],['Dining and Drinking > Restaurant > Mexican Restaurant > Taco Restaurant'],b'\x00\x00\x00\x00\x01\xc0X\xce\xef\xc3q\xda8@2\xedJ\x90G\n\x81',"{'xmin': -99.233384, 'ymin': 18.926919, 'xmax': -99.233384, 'ymax': 18.926919}",dining and drinking > restaurant > mexican restaurant > taco restaurant,1
5955ccb00881584931bd1e8a,Tacos El Pariente,20.48253,-103.50342,Calle Niños Héroes 17,Santa Cruz de las Flores,Jalisco,45640,,,,MX,2017-06-30,2020-11-23,,,,,,,,['4bf58dd8d48988d151941735'],['Dining and Drinking > Restaurant > Mexican Restaurant > Taco Restaurant'],b'\x00\x00\x00\x00\x01\xc0Y\xe08\x08\x85\t\xc0@4{\x87\x16\tV\xc1',"{'xmin': -103.50342, 'ymin': 20.48253, 'xmax': -103.50342, 'ymax': 20.48253}",dining and drinking > restaurant > mexican restaurant > taco restaurant,1
4eee22f0f9ab8c5a027178b3,Quecas de Lupita,19.277523447540712,-99.16309964389339,ISSFAM,Santa Ursula Coapa,coyoacan,04600,,,,MX,2011-12-18,2021-12-20,,,,,,,,['4bf58dd8d48988d151941735'],['Dining and Drinking > Restaurant > Mexican Restaurant > Taco Restaurant'],b'\x00\x00\x00\x00\x01\xc0X\xcap9} \xba@3G\x0b\xc6\xd3\x0f\x7f',"{'xmin': -99.16309964389339, 'ymin': 19.277523447540712, 'xmax': -99.16309964389339, 'ymax': 19.277523447540712}",dining and drinking > restaurant > mexican restaurant > taco restaurant,1
4ec877b99a52756c56eebd02,Tacos Constitucion,19.703102,-103.467273,,Ciudad Guzmán,Jalisco,,,,,MX,2011-11-20,2020-11-24,,,,,,,,['4bf58dd8d48988d151941735'],['Dining and Drinking > Restaurant > Mexican Restaurant > Taco Restaurant'],b'\x00\x00\x00\x00\x01\xc0Y\xdd\xe7\xcd\x03Sr@3\xb3\xfe~\x1f\xc0\x90',"{'xmin': -103.467273, 'ymin': 19.703102, 'xmax': -103.467273, 'ymax': 19.703102}",dining and drinking > restaurant > mexican restaurant > taco restaurant,1
4f3c7c5ae4b054d24037178d,Tacos De Cabeza,19.70944792114487,-101.21265983581405,,,,,,,,MX,2012-02-16,2021-08-17,,,,,,,,['4bf58dd8d48988d151941735'],['Dining and Drinking > Restaurant > Mexican Restaurant > Taco Restaurant'],b'\x00\x00\x00\x00\x01\xc0YM\x9c7\xff\xff\x9f@3\xb5\x9ea\x03\x88L',"{'xmin': -101.21265983581405, 'ymin': 19.70944792114487, 'xmax': -101.21265983581405, 'ymax': 19.70944792114487}",dining and drinking > restaurant > mexican restaurant > taco restaurant,1
4bfee9a44e5d0f47545a7d1f,El Tizoncito,19.31624355863662,-99.12554710650622,Av. Canal de Miramontes 2872,Coyoacán,DF,04890,,,,MX,2010-05-27,2024-06-05,,55 5679 9760,http://t.co/KNCuc7Q8Vz,,395021643953875.0,,eltizoncito1966,['4bf58dd8d48988d151941735'],['Dining and Drinking > Restaurant > Mexican Restaurant > Taco Restaurant'],b'\x00\x00\x00\x00\x01\xc0X\xc8\x08\xf6\xbb#N@3P\xf5V}\xea:',"{'xmin': -99.12554710650622, 'ymin': 19.31624355863662, 'xmax': -99.12554710650622, 'ymax': 19.31624355863662}",dining and drinking > restaurant > mexican restaurant > taco restaurant,1
57ed85bd498e28af92ffdd76,Taquería El Infierno Plaza San Miguel,19.711045324649795,-101.16577376112933,,,,,,,,MX,2016-09-29,2021-08-15,,,,,,,,['4bf58dd8d48988d151941735'],['Dining and Drinking > Restaurant > Mexican Restaurant > Taco Restaurant'],b'\x00\x00\x00\x00\x01\xc0YJ\x9c\t\x8c\xa5w@3\xb6\x07\x10\xffX6',"{'xmin': -101.16577376112933, 'ymin': 19.711045324649795, 'xmax': -101.16577376112933, 'ymax': 19.711045324649795}",dining and drinking > restaurant > mexican restaurant > taco restaurant,1
4f4837e1e4b0cf7a06131e7e,Tacos De La Carpa,19.318185685674127,-99.08985246602347,,,,,,,,MX,2012-02-25,2021-08-16,,,,,,,,['4bf58dd8d48988d151941735'],['Dining and Drinking > Restaurant > Mexican Restaurant > Taco Restaurant'],b'\x00\x00\x00\x00\x01\xc0X\xc5\xc0$\x8e\xc2J@3Qt\x9d\xfa\x06\x95',"{'xmin': -99.08985246602347, 'ymin': 19.318185685674127, 'xmax': -99.08985246602347, 'ymax': 19.318185685674127}",dining and drinking > restaurant > mexican restaurant > taco restaurant,1
4d97ec642bd6f04d19185d50,Tacos del superama,19.30415682070148,-99.22085523605347,,,,,,,,MX,2011-04-03,2021-08-16,,,,,,,,['4bf58dd8d48988d151941735'],['Dining and Drinking > Restaurant > Mexican Restaurant > Taco Restaurant'],"b'\x00\x00\x00\x00\x01\xc0X\xce""~\x00\x00\x00@3M\xdd8\xad\xc4\xa8'","{'xmin': -99.22085523605347, 'ymin': 19.30415682070148, 'xmax': -99.22085523605347, 'ymax': 19.30415682070148}",dining and drinking > restaurant > mexican restaurant > taco restaurant,1
56f1fba4cd1085af6b9724c3,Tacos Al Carbón,18.873448067018344,-99.22295205216707,,,,,,,,MX,2016-03-23,2021-08-14,,,,,,,,['4bf58dd8d48988d151941735'],['Dining and Drinking > Restaurant > Mexican Restaurant > Taco Restaurant'],b'\x00\x00\x00\x00\x01\xc0X\xceD\xd8\xaf(\x8e@2\xdf\x9aJ\xe2\x99$',"{'xmin': -99.22295205216707, 'ymin': 18.873448067018344, 'xmax': -99.22295205216707, 'ymax': 18.873448067018344}",dining and drinking > restaurant > mexican restaurant > taco restaurant,1
