fsq_place_id,name,latitude,longitude,address,locality,region,postcode,admin_region,post_town,po_box,country,date_created,date_refreshed,date_closed,tel,website,email,facebook_id,instagram,twitter,fsq_category_ids,fsq_category_labels,geom,bbox,labels_str,taco_restaurant
4d5a2ec61d6cf04d1a443ffe,Asadero Las Brasas,32.62349425294425,-115.4072450498446,Plaza Carranza,Mexicali,BC,,,,,MX,2011-02-15,2020-11-24,,,,,,,,['4bf58dd8d48988d151941735' '4bf58dd8d48988d1c1941735'],"['Dining and Drinking > Restaurant > Mexican Restaurant > Taco Restaurant'
 'Dining and Drinking > Restaurant > Mexican Restaurant']",b'\x00\x00\x00\x00\x01\xc0\\\xda\x10M\x8a\xa2\x97@@O\xce\xa8\xe0\xd1\xdb',"{'xmin': -115.4072450498446, 'ymin': 32.62349425294425, 'xmax': -115.4072450498446, 'ymax': 32.62349425294425}","dining and drinking > restaurant > mexican restaurant > taco restaurant, dining and drinking > restaurant > mexican restaurant",1
5733ac48498e69afcbde1060,Habaneros Grill,32.48016073391955,-114.78241724616714,Hidalgo,San Luis Rio Colorado,Sonora,,,,,MX,2016-05-11,2020-11-22,2018-04-27,,,,,,,['4bf58dd8d48988d151941735'],['Dining and Drinking > Restaurant > Mexican Restaurant > Taco Restaurant'],"b'\x00\x00\x00\x00\x01\xc0\\\xb2\x13\x1f\xc9\x07P@@=u\xe8,\x81\x00'","{'xmin': -114.78241724616714, 'ymin': 32.48016073391955, 'xmax': -114.78241724616714, 'ymax': 32.48016073391955}",dining and drinking > restaurant > mexican restaurant > taco restaurant,1
63b34baff776187acf01bea8,Birrieria La Carretita,31.828134,-116.604868,,Ensenada,Baja California,22890,,,,MX,2023-01-02,2023-01-02,,,,,,,,['4bf58dd8d48988d151941735' '4bf58dd8d48988d1c1941735'],"['Dining and Drinking > Restaurant > Mexican Restaurant > Taco Restaurant'
 'Dining and Drinking > Restaurant > Mexican Restaurant']",b'\x00\x00\x00\x00\x01\xc0]&\xb6(E\x99g@?\xd4\x00\x96\xfe\xb4\xa6',"{'xmin': -116.604868, 'ymin': 31.828134, 'xmax': -116.604868, 'ymax': 31.828134}","dining and drinking > restaurant > mexican restaurant > taco restaurant, dining and drinking > restaurant > mexican restaurant",1
4fc1cb6fe4b085850060907a,Tacos Poblanos,32.599461,-115.486744,,,,,,,,MX,2012-05-27,2021-08-16,,,,,,,,['4bf58dd8d48988d151941735'],['Dining and Drinking > Restaurant > Mexican Restaurant > Taco Restaurant'],b'\x00\x00\x00\x00\x01\xc0\\\xdf&\xd0Na\x8d@@L\xbb#W\x1d\x1d',"{'xmin': -115.486744, 'ymin': 32.599461, 'xmax': -115.486744, 'ymax': 32.599461}",dining and drinking > restaurant > mexican restaurant > taco restaurant,1
50450d77e4b0e0a4af2c4277,Queseños,31.841506,-116.603963,,,,,,,,MX,2012-09-03,2021-08-16,,,,,,,,['4bf58dd8d48988d151941735'],['Dining and Drinking > Restaurant > Mexican Restaurant > Taco Restaurant'],b'\x00\x00\x00\x00\x01\xc0]&\xa7Tm?\x9e@?\xd7l\xef\xedcE',"{'xmin': -116.603963, 'ymin': 31.841506, 'xmax': -116.603963, 'ymax': 31.841506}",dining and drinking > restaurant > mexican restaurant > taco restaurant,1
5384ead38a324fd001090392,Tacos y Tortas el Patito,32.573272,-116.644035,Revolución 591,Tecate,Baja California,21410,,,,MX,2013-03-30,2023-12-06,,665 654 0791,http://lovien.com/tec/i/dirco/ali/04/patito.htm,,,,,"['4bf58dd8d48988d146941735' '4bf58dd8d48988d16e941735'
 '4bf58dd8d48988d151941735']","['Dining and Drinking > Restaurant > Deli'
 'Dining and Drinking > Restaurant > Fast Food Restaurant'
 'Dining and Drinking > Restaurant > Mexican Restaurant > Taco Restaurant']",b'\x00\x00\x00\x00\x01\xc0])7\xde\x93\x9e\xae@@I`\xfa\x15\xdb4',"{'xmin': -116.644035, 'ymin': 32.573272, 'xmax': -116.644035, 'ymax': 32.573272}","dining and drinking > restaurant > deli, dining and drinking > restaurant > fast food restaurant, dining and drinking > restaurant > mexican restaurant > taco restaurant",1
9515740d9acb4bed1088c333,Un Rinconcito de Veracruz,32.463981,-114.741295,Calle 34 s/n,San Luis Río Colorado,Sonora,83450,,,,MX,2013-05-03,2023-12-08,,653 127 9795,,sariss00@hotmail.com,,,,['4bf58dd8d48988d16e941735' '4bf58dd8d48988d151941735'],"['Dining and Drinking > Restaurant > Fast Food Restaurant'
 'Dining and Drinking > Restaurant > Mexican Restaurant > Taco Restaurant']",b'\x00\x00\x00\x00\x01\xc0\\\xafq`\x95l\r@@;c\xba\xba{\x91',"{'xmin': -114.741295, 'ymin': 32.463981, 'xmax': -114.741295, 'ymax': 32.463981}","dining and drinking > restaurant > fast food restaurant, dining and drinking > restaurant > mexican restaurant > taco restaurant",1
4d5609f5b4deb1f7d4220c7a,Tacos el Sinaloense,32.497103954912305,-116.98601572286543,C. Alba Roja 12888,Tijuana,,22116,,,,MX,2011-02-12,2020-11-24,,,,,,,,['4bf58dd8d48988d151941735'],['Dining and Drinking > Restaurant > Mexican Restaurant > Taco Restaurant'],b'\x00\x00\x00\x00\x01\xc0]?\x1a\xe1\xb0\xc3 @@?\xa1\x1a6\x87\xc2',"{'xmin': -116.98601572286543, 'ymin': 32.497103954912305, 'xmax': -116.98601572286543, 'ymax': 32.497103954912305}",dining and drinking > restaurant > mexican restaurant > taco restaurant,1
50ba5e17e4b0f99bbea2e076,Carnitas El Tequileño,31.86381,-116.599077,,,,,,,,MX,2012-12-01,2021-08-15,,,,,,,,['4bf58dd8d48988d151941735'],['Dining and Drinking > Restaurant > Mexican Restaurant > Taco Restaurant'],"b'\x00\x00\x00\x00\x01\xc0]&WG\x0e\xb2J@?\xdd""\xa6\xf3\xf50'","{'xmin': -116.599077, 'ymin': 31.86381, 'xmax': -116.599077, 'ymax': 31.86381}",dining and drinking > restaurant > mexican restaurant > taco restaurant,1
589a5662f595721612939f65,Las Flautas,32.528603,-116.987647,,,,,,,,MX,2017-02-07,2021-08-14,,,,,,,,['4bf58dd8d48988d151941735'],['Dining and Drinking > Restaurant > Mexican Restaurant > Taco Restaurant'],b'\x00\x00\x00\x00\x01\xc0]?5\x9b\xc3?\x85@@C\xa9CZ\xc8\xa3',"{'xmin': -116.987647, 'ymin': 32.528603, 'xmax': -116.987647, 'ymax': 32.528603}",dining and drinking > restaurant > mexican restaurant > taco restaurant,1
51b7ff767dd26fd361536f59,Taco Shop,32.50782099913463,-116.92821979522705,Paseo del lago 19644,Tijuana,Baja California,22550,,,,MX,2013-06-12,2020-11-30,,,,,,,,['4bf58dd8d48988d151941735'],['Dining and Drinking > Restaurant > Mexican Restaurant > Taco Restaurant'],b'\x00\x00\x00\x00\x01\xc0];g\xf4\x00\x00\x00@@A\x00GK\xc0\xad',"{'xmin': -116.92821979522705, 'ymin': 32.50782099913463, 'xmax': -116.92821979522705, 'ymax': 32.50782099913463}",dining and drinking > restaurant > mexican restaurant > taco restaurant,1
51e1e39e498e10d87f56f434,El Leñador,32.270347,-117.015269,,,,,,,,MX,2013-07-13,2021-08-17,,,,,,,,['4bf58dd8d48988d151941735'],['Dining and Drinking > Restaurant > Mexican Restaurant > Taco Restaurant'],"b'\x00\x00\x00\x00\x01\xc0]@\xfa*\xd3\xe9!@@""\x9a\xbb\x01\xc9.'","{'xmin': -117.015269, 'ymin': 32.270347, 'xmax': -117.015269, 'ymax': 32.270347}",dining and drinking > restaurant > mexican restaurant > taco restaurant,1
538e06dd498ece9c7e065111,Tacos Pepe by Tío Pepe,32.50396,-116.998863,,,,,,,,MX,2014-06-03,2021-08-11,,,,,,,,['4bf58dd8d48988d151941735'],['Dining and Drinking > Restaurant > Mexican Restaurant > Taco Restaurant'],b'\x00\x00\x00\x00\x01\xc0]?\xed_\x13\x8b\xce@@@\x81\xc2\xe3>\xff',"{'xmin': -116.998863, 'ymin': 32.50396, 'xmax': -116.998863, 'ymax': 32.50396}",dining and drinking > restaurant > mexican restaurant > taco restaurant,1
520af47711d21366b6510f29,Taqueria Ojo De Agua,32.472697,-116.790649,,,,,,,,MX,2013-08-14,2020-11-22,,,,,,,,['4bf58dd8d48988d151941735'],['Dining and Drinking > Restaurant > Mexican Restaurant > Taco Restaurant'],b'\x00\x00\x00\x00\x01\xc0]2\x99\xfeCg^@@<\x81U\xd5\xf5j',"{'xmin': -116.790649, 'ymin': 32.472697, 'xmax': -116.790649, 'ymax': 32.472697}",dining and drinking > restaurant > mexican restaurant > taco restaurant,1
4ea3e97502d529c1173a3de3,Los Perrones De Sportsbar,31.864728887466658,-116.62870287895203,Av. Ruiz,Ensenada,Baja California,,,,,MX,2011-10-23,2020-11-24,,,,,,,,['4bf58dd8d48988d151941735'],['Dining and Drinking > Restaurant > Mexican Restaurant > Taco Restaurant'],b'\x00\x00\x00\x00\x01\xc0](<\xab\x00\x00\x00@?\xdd^\xdfS\x93e',"{'xmin': -116.62870287895203, 'ymin': 31.864728887466658, 'xmax': -116.62870287895203, 'ymax': 31.864728887466658}",dining and drinking > restaurant > mexican restaurant > taco restaurant,1
50f798b9e4b0c8265c4d4e49,Tacos del PRI,32.647831,-115.470846,López Mateos,Mexicali,Baja California,,,,,MX,2013-01-17,2020-11-22,,,,,,,,['4bf58dd8d48988d151941735'],['Dining and Drinking > Restaurant > Mexican Restaurant > Taco Restaurant'],"b'\x00\x00\x00\x00\x01\xc0\\\xde""WB\xdc\xf4@@R\xec O*\xe0'","{'xmin': -115.470846, 'ymin': 32.647831, 'xmax': -115.470846, 'ymax': 32.647831}",dining and drinking > restaurant > mexican restaurant > taco restaurant,1
4eb6fc1e4901cef9d9343b3f,McBirrea,32.51501,-116.97376,Blvd. Industial,,,,,,,MX,2011-11-06,2021-08-14,,,,,,,,['4bf58dd8d48988d151941735'],['Dining and Drinking > Restaurant > Mexican Restaurant > Taco Restaurant'],b'\x00\x00\x00\x00\x01\xc0]>R\x15v\x89\xca@@A\xeb\xd9\x01\x8eu',"{'xmin': -116.97376, 'ymin': 32.51501, 'xmax': -116.97376, 'ymax': 32.51501}",dining and drinking > restaurant > mexican restaurant > taco restaurant,1
4f0a7445e4b09d21f8a240a5,Tacos Cesarin,32.478987102947556,-117.030729831157,Miraflores,Tijuana,,22190,,,,MX,2012-01-09,2023-12-21,,664 637 6696,,,,,,['4bf58dd8d48988d151941735'],['Dining and Drinking > Restaurant > Mexican Restaurant > Taco Restaurant'],b'\x00\x00\x00\x00\x01\xc0]A\xf7z@\xf5.@@=Os\x0b.\xca',"{'xmin': -117.030729831157, 'ymin': 32.478987102947556, 'xmax': -117.030729831157, 'ymax': 32.478987102947556}",dining and drinking > restaurant > mexican restaurant > taco restaurant,1
57a2c6d9498ee2e1f8d1c9c6,Kiss Taco,21.867375,-102.305369,,,,,,,,MX,2016-08-04,2021-08-14,,,,,,,,['4bf58dd8d48988d151941735'],['Dining and Drinking > Restaurant > Mexican Restaurant > Taco Restaurant'],b'\x00\x00\x00\x00\x01\xc0Y\x93\x8b*k\r\x95@5\xde\x0cI\xba^5',"{'xmin': -102.305369, 'ymin': 21.867375, 'xmax': -102.305369, 'ymax': 21.867375}",dining and drinking > restaurant > mexican restaurant > taco restaurant,1
5136afc1e4b0d5d3923ad810,Tacos Pacos (Sotacos),20.670345831637366,-103.29485728688955,,,,,,,,MX,2013-03-06,2021-08-17,,,,,,,,['4bf58dd8d48988d151941735'],['Dining and Drinking > Restaurant > Mexican Restaurant > Taco Restaurant'],b'\x00\x00\x00\x00\x01\xc0Y\xd2\xde\xf1\x19\x0bc@4\xab\x9b\xc8\xcf\xe4u',"{'xmin': -103.29485728688955, 'ymin': 20.670345831637366, 'xmax': -103.29485728688955, 'ymax': 20.670345831637366}",dining and drinking > restaurant > mexican restaurant > taco restaurant,1
57b28498498e8d59aadfa740,Taqueria  Abby,21.904918,-102.26389,,,,,,,,MX,2016-08-16,2021-08-16,,,,,,,,['4bf58dd8d48988d151941735'],['Dining and Drinking > Restaurant > Mexican Restaurant > Taco Restaurant'],b'\x00\x00\x00\x00\x01\xc0Y\x90\xe3\x92\xe1\xeft@5\xe7\xa8\xb4\xbf\x8f\xcd',"{'xmin': -102.26389, 'ymin': 21.904918, 'xmax': -102.26389, 'ymax': 21.904918}",dining and drinking > restaurant > mexican restaurant > taco restaurant,1
4ee6465a9911944902bcdd06,Carnes Asadas Angélica,20.6657102791377,-103.35042336101321,,Guadalajara,JAL,,,,,MX,2011-12-12,2021-08-16,,,,,,,,['4bf58dd8d48988d1c1941735' '4bf58dd8d48988d151941735'],"['Dining and Drinking > Restaurant > Mexican Restaurant'
 'Dining and Drinking > Restaurant > Mexican Restaurant > Taco Restaurant']",b'\x00\x00\x00\x00\x01\xc0Y\xd6mV\x1a\xd3\x98@4\xaak\xfd%\x81\xe8',"{'xmin': -103.35042336101321, 'ymin': 20.6657102791377, 'xmax': -103.35042336101321, 'ymax': 20.6657102791377}","dining and drinking > restaurant > mexican restaurant, dining and drinking > restaurant > mexican restaurant > taco restaurant",1
4fb470cbe4b0557240c9c847,Las Quecas De Quique,22.132403646772325,-100.98970402295326,,,,,,,,MX,2012-05-17,2021-08-14,,,,,,,,['4bf58dd8d48988d151941735'],['Dining and Drinking > Restaurant > Mexican Restaurant > Taco Restaurant'],b'\x00\x00\x00\x00\x01\xc0Y?WO\x8a\xd3s@6!\xe54\x94\xc2\x1e',"{'xmin': -100.98970402295326, 'ymin': 22.132403646772325, 'xmax': -100.98970402295326, 'ymax': 22.132403646772325}",dining and drinking > restaurant > mexican restaurant > taco restaurant,1
5352fff0498e5d77276ca3f9,vamos con pancho,20.606731116039988,-103.35045156187618,,,,,,,,MX,2014-04-19,2021-08-17,,,,,,,,['4bf58dd8d48988d151941735'],['Dining and Drinking > Restaurant > Mexican Restaurant > Taco Restaurant'],b'\x00\x00\x00\x00\x01\xc0Y\xd6m\xcccE\xc8@4\x9bR\xba\xfc\xdbz',"{'xmin': -103.35045156187618, 'ymin': 20.606731116039988, 'xmax': -103.35045156187618, 'ymax': 20.606731116039988}",dining and drinking > restaurant > mexican restaurant > taco restaurant,1
64ea7a8e9ad203394282c624,El Patrón Pizzas & Tacos,21.085077,-101.64826,Pasionaria 130,León,Gto.,37530,,,,MX,2023-08-26,2023-08-26,,,,,,,,['4bf58dd8d48988d1ca941735' '4bf58dd8d48988d151941735'],"['Dining and Drinking > Restaurant > Pizzeria'
 'Dining and Drinking > Restaurant > Mexican Restaurant > Taco Restaurant']",b'\x00\x00\x00\x00\x01\xc0Yi}\x17\x82\xd3\x84@5\x15\xc7\x9b4\xa4L',"{'xmin': -101.64826, 'ymin': 21.085077, 'xmax': -101.64826, 'ymax': 21.085077}","dining and drinking > restaurant > pizzeria, dining and drinking > restaurant > mexican restaurant > taco restaurant",1
535bba36498e70b6d331324c,"Tacos ""El Amigo""",21.13886839514598,-101.69246663024305,,,,,,,,MX,2014-04-26,2021-08-16,,,,,,,,['4bf58dd8d48988d151941735'],['Dining and Drinking > Restaurant > Mexican Restaurant > Taco Restaurant'],b'\x00\x00\x00\x00\x01\xc0YlQ_\x8e\x9d\xc6@5#\x8c\xe1\x0f\x99\x99',"{'xmin': -101.69246663024305, 'ymin': 21.13886839514598, 'xmax': -101.69246663024305, 'ymax': 21.13886839514598}",dining and drinking > restaurant > mexican restaurant > taco restaurant,1
4c578ab22308be9a0890596c,Taquería los weros,20.767831388382255,-103.43906879425049,Copalita,"México, Jalisco",zapopan,45160,,,,MX,2010-08-03,2020-11-22,,,,,,,,['4bf58dd8d48988d151941735'],['Dining and Drinking > Restaurant > Mexican Restaurant > Taco Restaurant'],b'\x00\x00\x00\x00\x01\xc0Y\xdc\x19\xb4\x00\x00\x00@4\xc4\x90\x99\r\xf1\xae',"{'xmin': -103.43906879425049, 'ymin': 20.767831388382255, 'xmax': -103.43906879425049, 'ymax': 20.767831388382255}",dining and drinking > restaurant > mexican restaurant > taco restaurant,1
534223a0498e875da365b6cd,el rincon del taco,21.868682,-102.318781,Calle Orquideas,Pirules,Aguascalientes,20210,,,,MX,2014-04-07,2021-08-13,,,,,,,,['4bf58dd8d48988d151941735'],['Dining and Drinking > Restaurant > Mexican Restaurant > Taco Restaurant'],b'\x00\x00\x00\x00\x01\xc0Y\x94f\xe8le\x84@5\xdea\xf1\x8c\x9f\xb6',"{'xmin': -102.318781, 'ymin': 21.868682, 'xmax': -102.318781, 'ymax': 21.868682}",dining and drinking > restaurant > mexican restaurant > taco restaurant,1
5c4bce447a0eff003257724a,Tacos El Toro,21.859451,-102.258969,,Aguascalientes,AGS,20298,,,,MX,2019-01-26,2020-11-26,,,,,,,,['4bf58dd8d48988d151941735'],['Dining and Drinking > Restaurant > Mexican Restaurant > Taco Restaurant'],b'\x00\x00\x00\x00\x01\xc0Y\x90\x92\xf2\xb6ka@5\xdc\x04\xfb\x11\x83\xb6',"{'xmin': -102.258969, 'ymin': 21.859451, 'xmax': -102.258969, 'ymax': 21.859451}",dining and drinking > restaurant > mexican restaurant > taco restaurant,1
504cbb7fe4b04977deda9ce7,"Menudo ""ARBOLITOS""",22.1143236614111,-100.93175120834363,,,,,,,,MX,2012-09-09,2021-08-14,,,,,,,,['4bf58dd8d48988d151941735'],['Dining and Drinking > Restaurant > Mexican Restaurant > Taco Restaurant'],b'\x00\x00\x00\x00\x01\xc0Y;\xa1\xcf\xd1\xf6\n@6\x1dDP\xc2\xebn',"{'xmin': -100.93175120834363, 'ymin': 22.1143236614111, 'xmax': -100.93175120834363, 'ymax': 22.1143236614111}",dining and drinking > restaurant > mexican restaurant > taco restaurant,1
53aafa31498e5a0355a57cfd,tacos el wero,20.74092674255371,-103.390869140625,Valdepeñas,,Jalisco,45130,,,,MX,2014-06-25,2021-08-13,,,,,,,,['4bf58dd8d48988d151941735'],['Dining and Drinking > Restaurant > Mexican Restaurant > Taco Restaurant'],b'\x00\x00\x00\x00\x01\xc0Y\xd9\x04\x00\x00\x00\x00@4\xbd\xad`\x00\x00\x00',"{'xmin': -103.390869140625, 'ymin': 20.74092674255371, 'xmax': -103.390869140625, 'ymax': 20.74092674255371}",dining and drinking > restaurant > mexican restaurant > taco restaurant,1
531e98e7498ebc177517e285,Taqueria Lo que sea,22.155439827662043,-100.96823511019178,Azteca Sur,San Luis Potosi,San Luis Potosi,,,,,MX,2014-03-11,2020-11-26,,,,,,,,['4bf58dd8d48988d151941735'],['Dining and Drinking > Restaurant > Mexican Restaurant > Taco Restaurant'],"b""\x00\x00\x00\x00\x01\xc0Y=\xf7\x90eG6@6'\xca\xe7\x90M\xea""","{'xmin': -100.96823511019178, 'ymin': 22.155439827662043, 'xmax': -100.96823511019178, 'ymax': 22.155439827662043}",dining and drinking > restaurant > mexican restaurant > taco restaurant,1
53c7549c498edf98fef64f20,Taqueria Amaya,22.151382,-100.965085,,,,,,,,MX,2014-07-17,2021-08-15,,,,,,,,['4bf58dd8d48988d151941735'],['Dining and Drinking > Restaurant > Mexican Restaurant > Taco Restaurant'],b'\x00\x00\x00\x00\x01\xc0Y=\xc3\xf3\xe07\r@6&\xc0\xf8\x833\xfd',"{'xmin': -100.965085, 'ymin': 22.151382, 'xmax': -100.965085, 'ymax': 22.151382}",dining and drinking > restaurant > mexican restaurant > taco restaurant,1
5e095b745669010007ebdaf0,El Chota,20.808437,-102.75933,,Tepatitlán de Morelos,Jalisco,47600,,,,MX,2019-12-30,2023-09-13,,,,,,,,['4bf58dd8d48988d151941735'],['Dining and Drinking > Restaurant > Mexican Restaurant > Taco Restaurant'],b'\x00\x00\x00\x00\x01\xc0Y\xb0\x98\xdc\xdb7\xca@4\xce\xf5\xba+\xe0Y',"{'xmin': -102.75933, 'ymin': 20.808437, 'xmax': -102.75933, 'ymax': 20.808437}",dining and drinking > restaurant > mexican restaurant > taco restaurant,1
4f3daaf1e4b08346ee7c6e84,"Tacos ""El Güero 2""",20.647104096227995,-103.30095742265672,,,,,,,,MX,2012-02-17,2021-08-10,,,,,,,,['4bf58dd8d48988d151941735'],['Dining and Drinking > Restaurant > Mexican Restaurant > Taco Restaurant'],b'\x00\x00\x00\x00\x01\xc0Y\xd3B\xe2\xeb\xf3$@4\xa5\xa8\x9d2h)',"{'xmin': -103.30095742265672, 'ymin': 20.647104096227995, 'xmax': -103.30095742265672, 'ymax': 20.647104096227995}",dining and drinking > restaurant > mexican restaurant > taco restaurant,1
577737aecd108f2f0fd7fe1f,Tacos El Chino,19.874262,-103.60215,,,,,,,,MX,2016-07-02,2021-08-12,,,,,,,,['4bf58dd8d48988d151941735'],['Dining and Drinking > Restaurant > Mexican Restaurant > Taco Restaurant'],"b'\x00\x00\x00\x00\x01\xc0Y\xe6\x89\xa0\'RT@3\xdf\xcf\xa2j""\xb4'","{'xmin': -103.60215, 'ymin': 19.874262, 'xmax': -103.60215, 'ymax': 19.874262}",dining and drinking > restaurant > mexican restaurant > taco restaurant,1
4ec3de8c29c2f92bf6111165,Tacos de Mariscos Nancy,20.650659022133052,-105.23297971561657,Mercado Palmar de Aramara,Puerto Vallarta,,48290,,,,MX,2011-11-16,2020-11-24,,322 114 1073,,,,,,['4bf58dd8d48988d151941735'],['Dining and Drinking > Restaurant > Mexican Restaurant > Taco Restaurant'],b'\x00\x00\x00\x00\x01\xc0ZN\xe9#\xc0\xcd\x17@4\xa6\x91\x96\xf4\xe8\xa7',"{'xmin': -105.23297971561657, 'ymin': 20.650659022133052, 'xmax': -105.23297971561657, 'ymax': 20.650659022133052}",dining and drinking > restaurant > mexican restaurant > taco restaurant,1
5473a6f4498e7ee5fae9ec44,Taqueria Mexicaltzingo,20.66604443014582,-103.35012443225067,,Guadalajara,,,,,,MX,2014-11-24,2023-12-21,,33 3658 3572,,,,,,['4bf58dd8d48988d151941735'],['Dining and Drinking > Restaurant > Mexican Restaurant > Taco Restaurant'],b'\x00\x00\x00\x00\x01\xc0Y\xd6hpN\x83\x05@4\xaa\x81\xe3E(\xc5',"{'xmin': -103.35012443225067, 'ymin': 20.66604443014582, 'xmax': -103.35012443225067, 'ymax': 20.66604443014582}",dining and drinking > restaurant > mexican restaurant > taco restaurant,1
6048493a8d44091c6dfda411,El Asador,21.894223,-102.311996,Pedro Garcia Rojas,Aguascalientes,AGS,20010,,,,MX,2021-03-10,2021-03-10,,,,,,,,['4bf58dd8d48988d151941735'],['Dining and Drinking > Restaurant > Mexican Restaurant > Taco Restaurant'],b'\x00\x00\x00\x00\x01\xc0Y\x93\xf7\xbe\x12\x1e\xe6@5\xe4\xeb\xcclT\xbd',"{'xmin': -102.311996, 'ymin': 21.894223, 'xmax': -102.311996, 'ymax': 21.894223}",dining and drinking > restaurant > mexican restaurant > taco restaurant,1
4d69cbec30a7236aeba17aac,Tacos Gascon,20.69925586012643,-103.34233431540873,Rufino Tamayo 595,Guadalajara,JAL,,,,,MX,2011-02-27,2021-08-10,,,,,,,,['4bf58dd8d48988d151941735' '4bf58dd8d48988d1c1941735'],"['Dining and Drinking > Restaurant > Mexican Restaurant > Taco Restaurant'
 'Dining and Drinking > Restaurant > Mexican Restaurant']",b'\x00\x00\x00\x00\x01\xc0Y\xd5\xe8\xce0>\xa9@4\xb3\x02n\x9a\xc7\x85',"{'xmin': -103.34233431540873, 'ymin': 20.69925586012643, 'xmax': -103.34233431540873, 'ymax': 20.69925586012643}","dining and drinking > restaurant > mexican restaurant > taco restaurant, dining and drinking > restaurant > mexican restaurant",1
50a5b38ce4b0d5aeb2f0d2ab,Taqueria Bambi (La Original),20.552277,-104.043111,,,,,,,,MX,2012-11-16,2021-08-12,,,,,,,,['4bf58dd8d48988d151941735'],['Dining and Drinking > Restaurant > Mexican Restaurant > Taco Restaurant'],b'\x00\x00\x00\x00\x01\xc0Z\x02\xc2T\xa3\xc6C@4\x8db\x06\x85U?',"{'xmin': -104.043111, 'ymin': 20.552277, 'xmax': -104.043111, 'ymax': 20.552277}",dining and drinking > restaurant > mexican restaurant > taco restaurant,1
57a17543498e118a0976c910,Tacos Chente,20.65083,-103.287895,,,,,,,,MX,2016-08-03,2021-08-16,,,,,,,,['4bf58dd8d48988d151941735'],['Dining and Drinking > Restaurant > Mexican Restaurant > Taco Restaurant'],b'\x00\x00\x00\x00\x01\xc0Y\xd2l\xdf&k\xa5@4\xa6\x9c\xcb}At',"{'xmin': -103.287895, 'ymin': 20.65083, 'xmax': -103.287895, 'ymax': 20.65083}",dining and drinking > restaurant > mexican restaurant > taco restaurant,1
4fb5c114e4b03d2834129e0d,Tacos Los Güeros,20.723825910878695,-103.36610964674813,Saul Rodiles,,,,,,,MX,2012-05-18,2021-08-13,,,,,,,,['4bf58dd8d48988d151941735'],['Dining and Drinking > Restaurant > Mexican Restaurant > Taco Restaurant'],"b'\x00\x00\x00\x00\x01\xc0Y\xd7nW\'\xe2""@4\xb9L\xa7\xa78\xae'","{'xmin': -103.36610964674813, 'ymin': 20.723825910878695, 'xmax': -103.36610964674813, 'ymax': 20.723825910878695}",dining and drinking > restaurant > mexican restaurant > taco restaurant,1
5d4c439cf2c03b000826a019,Tacos Emilio’s,20.517349,-100.837039,,Celaya,GTO,38060,,,,MX,2019-08-08,2020-11-23,,,,,,,,['4bf58dd8d48988d151941735'],['Dining and Drinking > Restaurant > Mexican Restaurant > Taco Restaurant'],b'\x00\x00\x00\x00\x01\xc0Y5\x92\x0c\x06\x9e\x80@4\x84p\xfb\xeb\x9eI',"{'xmin': -100.837039, 'ymin': 20.517349, 'xmax': -100.837039, 'ymax': 20.517349}",dining and drinking > restaurant > mexican restaurant > taco restaurant,1
513d3d54e4b0c0ddfe96ce96,Tacos Don Nacho,20.731226044027625,-103.4513659438081,,,,,,,,MX,2013-03-11,2021-08-14,2015-07-01,,,,,,,['4bf58dd8d48988d151941735'],['Dining and Drinking > Restaurant > Mexican Restaurant > Taco Restaurant'],b'\x00\x00\x00\x00\x01\xc0Y\xdc\xe3-\xfb\xcb\xc6@4\xbb1\xa1I\x15\x05',"{'xmin': -103.4513659438081, 'ymin': 20.731226044027625, 'xmax': -103.4513659438081, 'ymax': 20.731226044027625}",dining and drinking > restaurant > mexican restaurant > taco restaurant,1
4e87aa2ff5b966be3ed7ed86,Tacos El Guero de Santa Fe,20.702465604914092,-103.38169067551443,,,,,,,,MX,2011-10-02,2021-08-13,,,,,,,,['4bf58dd8d48988d151941735'],['Dining and Drinking > Restaurant > Mexican Restaurant > Taco Restaurant'],b'\x00\x00\x00\x00\x01\xc0Y\xd8m\x9e\xba!s@4\xb3\xd4\xc9/\xab\xbf',"{'xmin': -103.38169067551443, 'ymin': 20.702465604914092, 'xmax': -103.38169067551443, 'ymax': 20.702465604914092}",dining and drinking > restaurant > mexican restaurant > taco restaurant,1
52237be411d241e7a3e8e7a1,Barbacoa De Borrego Manzanillo,19.13466,-104.343273,Av. De Las Rosas No. 1000,Manzanillo,Colima,,,,,MX,2013-09-01,2020-11-23,,,,,,,,['4bf58dd8d48988d151941735'],['Dining and Drinking > Restaurant > Mexican Restaurant > Taco Restaurant'],"b'\x00\x00\x00\x00\x01\xc0Z\x15\xf8/Q&c@3""y\x13\xe8\x14Q'","{'xmin': -104.343273, 'ymin': 19.13466, 'xmax': -104.343273, 'ymax': 19.13466}",dining and drinking > restaurant > mexican restaurant > taco restaurant,1
50e8445ee4b0a6e27f129e23,Hamburguerra,20.682992,-101.346796,,,,,,,,MX,2013-01-05,2021-08-16,,,,,,,,['4bf58dd8d48988d151941735'],['Dining and Drinking > Restaurant > Mexican Restaurant > Taco Restaurant'],b'\x00\x00\x00\x00\x01\xc0YV1\xe7\xd9\x98\x8d@4\xae\xd8\x90Om\xfc',"{'xmin': -101.346796, 'ymin': 20.682992, 'xmax': -101.346796, 'ymax': 20.682992}",dining and drinking > restaurant > mexican restaurant > taco restaurant,1
4f5a3c0de4b04edd0c0c6a7a,Tacos Yeyo,21.112635,-101.670799,,,,,,,,MX,2012-03-09,2021-08-13,,,,,,,,['4bf58dd8d48988d151941735'],['Dining and Drinking > Restaurant > Mexican Restaurant > Taco Restaurant'],b'\x00\x00\x00\x00\x01\xc0Yj\xee^\xed\xcc!@5\x1c\xd5\xa5\xb9b\x8d',"{'xmin': -101.670799, 'ymin': 21.112635, 'xmax': -101.670799, 'ymax': 21.112635}",dining and drinking > restaurant > mexican restaurant > taco restaurant,1
5367aa58498ee61c4db47256,Birrieria Hugo,20.62221821374063,-103.36663988940161,,,,,,,,MX,2014-05-05,2021-08-14,,,,,,,,['4bf58dd8d48988d151941735'],['Dining and Drinking > Restaurant > Mexican Restaurant > Taco Restaurant'],"b""\x00\x00\x00\x00\x01\xc0Y\xd7w\x07'\x98\xe5@4\x9fI\xb1^\xfd\xd6""","{'xmin': -103.36663988940161, 'ymin': 20.62221821374063, 'xmax': -103.36663988940161, 'ymax': 20.62221821374063}",dining and drinking > restaurant > mexican restaurant > taco restaurant,1
55b0f3d1498e28027a087f69,"Tacos Y Carnitas ""El Primo""",20.644596291211055,-103.42272266402748,,,,,,,,MX,2015-07-23,2021-08-11,,,,,,,,['4bf58dd8d48988d151941735'],['Dining and Drinking > Restaurant > Mexican Restaurant > Taco Restaurant'],b'\x00\x00\x00\x00\x01\xc0Y\xdb\r\xe3\\Q\xaa@4\xa5\x04C5\xdf\xd7',"{'xmin': -103.42272266402748, 'ymin': 20.644596291211055, 'xmax': -103.42272266402748, 'ymax': 20.644596291211055}",dining and drinking > restaurant > mexican restaurant > taco restaurant,1
532506c8498e8f2124eb01b0,Tacos el Pato,21.01950105809518,-101.26266652145777,Estacion,,,,,,,MX,2014-03-16,2021-08-11,,,,,,,,['4bf58dd8d48988d151941735'],['Dining and Drinking > Restaurant > Mexican Restaurant > Taco Restaurant'],b'\x00\x00\x00\x00\x01\xc0YP\xcf\x87=\xda\x93@5\x04\xfe\x05v\xc1\x96',"{'xmin': -101.26266652145777, 'ymin': 21.01950105809518, 'xmax': -101.26266652145777, 'ymax': 21.01950105809518}",dining and drinking > restaurant > mexican restaurant > taco restaurant,1
4f903858e4b040e3a82d0db8,Tacos Varios 'Sandoval',30.732114475342392,-115.99097815465346,,,,,,,,MX,2012-04-19,2021-08-13,,,,,,,,['4bf58dd8d48988d151941735'],['Dining and Drinking > Restaurant > Mexican Restaurant > Taco Restaurant'],b'\x00\x00\x00\x00\x01\xc0\\\xffl/\xa3R_@>\xbbk\xda\xb0\x86\x16',"{'xmin': -115.99097815465346, 'ymin': 30.732114475342392, 'xmax': -115.99097815465346, 'ymax': 30.732114475342392}",dining and drinking > restaurant > mexican restaurant > taco restaurant,1
59ab6317f62f2b57ab802f25,Tacos De Tripa Chimborazo,20.688229,-103.3243,Cerro Viejo,Guadalajara,Jalisco,44329,,,,MX,2017-09-03,2021-08-14,2020-04-14,,,,,,,['4bf58dd8d48988d151941735'],['Dining and Drinking > Restaurant > Mexican Restaurant > Taco Restaurant'],b'\x00\x00\x00\x00\x01\xc0Y\xd4\xc1T\xc9\x85\xf0@4\xb0/\xc6\x97(\xa6',"{'xmin': -103.3243, 'ymin': 20.688229, 'xmax': -103.3243, 'ymax': 20.688229}",dining and drinking > restaurant > mexican restaurant > taco restaurant,1
5bf04b57d4cc98002c3be382,"Tacos ""El Chupón""",20.618826,-103.07082,,Zapotlanejo,Jalisco,45430,,,,MX,2018-11-17,2020-11-30,,,,,,,,['4bf58dd8d48988d151941735'],['Dining and Drinking > Restaurant > Mexican Restaurant > Taco Restaurant'],b'\x00\x00\x00\x00\x01\xc0Y\xc4\x88P\x9b\xf9\xc6@4\x9ekaw\xea\x1c',"{'xmin': -103.07082, 'ymin': 20.618826, 'xmax': -103.07082, 'ymax': 20.618826}",dining and drinking > restaurant > mexican restaurant > taco restaurant,1
5255a87a498efd3fd1ce940e,Tacos Coronilla,20.676584,-103.352907,Andador coronilla 6,Guadalajara,Jalisco,44100,,,,MX,2013-10-09,2021-08-14,,,,,,,,['4bf58dd8d48988d151941735'],['Dining and Drinking > Restaurant > Mexican Restaurant > Taco Restaurant'],b'\x00\x00\x00\x00\x01\xc0Y\xd6\x96\x07=\xe1\xe3@4\xad4\x9b\xe8\xff2',"{'xmin': -103.352907, 'ymin': 20.676584, 'xmax': -103.352907, 'ymax': 20.676584}",dining and drinking > restaurant > mexican restaurant > taco restaurant,1
5308ee3b498e3f89e4715ac3,Tacos de barbacoa Rene,20.66666562882917,-103.336058655489,,,,,,,,MX,2014-02-22,2021-08-12,,,,,,,,['4bf58dd8d48988d151941735'],['Dining and Drinking > Restaurant > Mexican Restaurant > Taco Restaurant'],b'\x00\x00\x00\x00\x01\xc0Y\xd5\x81\xfc)\xb7;@4\xaa\xaa\x99A0E',"{'xmin': -103.336058655489, 'ymin': 20.66666562882917, 'xmax': -103.336058655489, 'ymax': 20.66666562882917}",dining and drinking > restaurant > mexican restaurant > taco restaurant,1
643b257c48a8ea06d770ed87,El Itacate,20.635538,-105.22655,Viena,Puerto Vallarta,Jalisco,48310,,,,MX,2023-04-15,2023-04-15,,,,,,,,['4bf58dd8d48988d151941735'],['Dining and Drinking > Restaurant > Mexican Restaurant > Taco Restaurant'],b'\x00\x00\x00\x00\x01\xc0ZN\x7f\xcb\x92:*@4\xa2\xb2\x9eM]\x81',"{'xmin': -105.22655, 'ymin': 20.635538, 'xmax': -105.22655, 'ymax': 20.635538}",dining and drinking > restaurant > mexican restaurant > taco restaurant,1
4fe8d3c0e4b00168663f425e,Taqueria Sahuayo Plaza Sur,20.635832,-103.398343,,,,,,,,MX,2012-06-25,2021-08-13,,,,,,,,['4bf58dd8d48988d151941735'],['Dining and Drinking > Restaurant > Mexican Restaurant > Taco Restaurant'],b'\x00\x00\x00\x00\x01\xc0Y\xd9~s\xa3e\xcb@4\xa2\xc5\xe2\xcd\xc0\x12',"{'xmin': -103.398343, 'ymin': 20.635832, 'xmax': -103.398343, 'ymax': 20.635832}",dining and drinking > restaurant > mexican restaurant > taco restaurant,1
50857c64e4b0d5064ce15bc9,Gorditas López,21.915162971739218,-102.2546102857131,,,,,,,,MX,2012-10-22,2021-08-14,,,,,,,,['4bf58dd8d48988d151941735'],['Dining and Drinking > Restaurant > Mexican Restaurant > Taco Restaurant'],b'\x00\x00\x00\x00\x01\xc0Y\x90K\x88\xf0\x97;@5\xeaH\x1e\xda!O',"{'xmin': -102.2546102857131, 'ymin': 21.915162971739218, 'xmax': -102.2546102857131, 'ymax': 21.915162971739218}",dining and drinking > restaurant > mexican restaurant > taco restaurant,1
4ee6b8c4f790897ed292a0a7,Taqueria Las Fajitas De Oaxaca 1,21.004472732543945,-101.85189056396484,,,,,,,,MX,2011-12-13,2021-08-15,,,,,,,,['4bf58dd8d48988d151941735'],['Dining and Drinking > Restaurant > Mexican Restaurant > Taco Restaurant'],b'\x00\x00\x00\x00\x01\xc0Yv\x85`\x00\x00\x00@5\x01% \x00\x00\x00',"{'xmin': -101.85189056396484, 'ymin': 21.004472732543945, 'xmax': -101.85189056396484, 'ymax': 21.004472732543945}",dining and drinking > restaurant > mexican restaurant > taco restaurant,1
4f4d9ab7e4b081be1d7bf298,Tacos De Guisado,20.665581701216983,-103.33318378030667,Revolucion 833,Guadalajara,,,,,,MX,2012-02-29,2021-08-12,,,,,,,,['4bf58dd8d48988d151941735'],['Dining and Drinking > Restaurant > Mexican Restaurant > Taco Restaurant'],b'\x00\x00\x00\x00\x01\xc0Y\xd5R\xe2\x0f\xfec@4\xaac\x8f\xf7\x8b\x01',"{'xmin': -103.33318378030667, 'ymin': 20.665581701216983, 'xmax': -103.33318378030667, 'ymax': 20.665581701216983}",dining and drinking > restaurant > mexican restaurant > taco restaurant,1
5c983639a0215b002ce570fa,Taqueria Junior,19.130786,-104.337721,,Manzanillo,COL,28861,,,,MX,2019-03-25,2020-11-22,,,,,,,,['4bf58dd8d48988d151941735'],['Dining and Drinking > Restaurant > Mexican Restaurant > Taco Restaurant'],b'\x00\x00\x00\x00\x01\xc0Z\x15\x9d8\x8a\x8b\t@3!{0\xf8\xc6P',"{'xmin': -104.337721, 'ymin': 19.130786, 'xmax': -104.337721, 'ymax': 19.130786}",dining and drinking > restaurant > mexican restaurant > taco restaurant,1
4e61d9bfb0fb188e8d716f4a,Tacos El Punto,20.618702,-105.231163,,Puerto Vallarta,Jalisco,,,,,MX,2011-09-03,2020-11-17,,,,,,,,['4bf58dd8d48988d151941735'],['Dining and Drinking > Restaurant > Mexican Restaurant > Taco Restaurant'],b'\x00\x00\x00\x00\x01\xc0ZN\xcb_\xe5B\xe5@4\x9ecA\x17\xf8D',"{'xmin': -105.231163, 'ymin': 20.618702, 'xmax': -105.231163, 'ymax': 20.618702}",dining and drinking > restaurant > mexican restaurant > taco restaurant,1
4e2a3e9faeb745b1fab6f4a2,Tacos El Guero,22.134792789812703,-100.97909763476265,,San Luis Potosí,San Luis Potosí,,,,,MX,2011-07-23,2020-11-22,,,,,,,,['4bf58dd8d48988d151941735' '4bf58dd8d48988d1cb941735'],"['Dining and Drinking > Restaurant > Mexican Restaurant > Taco Restaurant'
 'Dining and Drinking > Food Truck']","b'\x00\x00\x00\x00\x01\xc0Y>\xa9\x89 9a@6""\x81\xc7\xbf\xfbo'","{'xmin': -100.97909763476265, 'ymin': 22.134792789812703, 'xmax': -100.97909763476265, 'ymax': 22.134792789812703}","dining and drinking > restaurant > mexican restaurant > taco restaurant, dining and drinking > food truck",1
52edab3a498e1fb151f2e9f0,Tacos Richard,21.134981352501566,-101.7035686499532,,,,,,,,MX,2014-02-02,2021-08-16,,,,,,,,['4bf58dd8d48988d151941735'],['Dining and Drinking > Restaurant > Mexican Restaurant > Taco Restaurant'],"b'\x00\x00\x00\x00\x01\xc0Ym\x07D\xcd\x82\x8d@5""\x8e#N\x90g'","{'xmin': -101.7035686499532, 'ymin': 21.134981352501566, 'xmax': -101.7035686499532, 'ymax': 21.134981352501566}",dining and drinking > restaurant > mexican restaurant > taco restaurant,1
508d8df4e4b0a1c84866d29d,Tacos Neto,20.655520507673206,-105.23172262702867,Prisciliano Sánchez,Puerto Vallarta,Jalisco,48314,,,,MX,2012-10-28,2023-12-20,,322 114 1943,,,,,,['4bf58dd8d48988d151941735'],['Dining and Drinking > Restaurant > Mexican Restaurant > Taco Restaurant'],b'\x00\x00\x00\x00\x01\xc0ZN\xd4\x8b$55@4\xa7\xd01&PQ',"{'xmin': -105.23172262702867, 'ymin': 20.655520507673206, 'xmax': -105.23172262702867, 'ymax': 20.655520507673206}",dining and drinking > restaurant > mexican restaurant > taco restaurant,1
51322d91e4b02d07ddcf2e7e,Tacos Los Angeles,20.681695763638086,-101.36205984385784,Paseo de los Chinacos,Irapuato,,,,,,MX,2013-03-02,2020-11-23,,,,,,,,['4bf58dd8d48988d151941735'],['Dining and Drinking > Restaurant > Mexican Restaurant > Taco Restaurant'],b'\x00\x00\x00\x00\x01\xc0YW+\xfd\r$\x1d@4\xae\x83\x9d\x12\xa5\xb7',"{'xmin': -101.36205984385784, 'ymin': 20.681695763638086, 'xmax': -101.36205984385784, 'ymax': 20.681695763638086}",dining and drinking > restaurant > mexican restaurant > taco restaurant,1
5129845fe4b089b221e378f3,Tacos Don Pancho,20.676049617428017,-103.44932260592877,Av. Fresnos,Zapopan,Jalisco,45010,,,,MX,2013-02-24,2020-11-23,,,,,,,,['4bf58dd8d48988d151941735'],['Dining and Drinking > Restaurant > Mexican Restaurant > Taco Restaurant'],b'\x00\x00\x00\x00\x01\xc0Y\xdc\xc1\xb3\x9atS@4\xad\x11\x96uS\x9f',"{'xmin': -103.44932260592877, 'ymin': 20.676049617428017, 'xmax': -103.44932260592877, 'ymax': 20.676049617428017}",dining and drinking > restaurant > mexican restaurant > taco restaurant,1
5b1aa2e76f706a002c93d6f4,"Tacos De La Carpa ""Las Cazuelas""",20.612698,-103.41733,Av Iteso,Zapopan,Jalisco,45080,,,,MX,2018-06-08,2020-11-26,,,,,,,,['4bf58dd8d48988d151941735'],['Dining and Drinking > Restaurant > Mexican Restaurant > Taco Restaurant'],b'\x00\x00\x00\x00\x01\xc0Y\xda\xb5\x88\xe3h\xf1@4\x9c\xd9\xc6\xb0S\x1a',"{'xmin': -103.41733, 'ymin': 20.612698, 'xmax': -103.41733, 'ymax': 20.612698}",dining and drinking > restaurant > mexican restaurant > taco restaurant,1
5b481860d4cc98002c4c2db9,Tacos la Choza Beethoven,20.66883,-103.421202,Avenida Beethoven 4862-C,Zapopan,JAL,45038,,,,MX,2018-07-13,2020-11-23,,,,,,,,['4bf58dd8d48988d151941735'],['Dining and Drinking > Restaurant > Mexican Restaurant > Taco Restaurant'],b'\x00\x00\x00\x00\x01\xc0Y\xda\xf4\xf9;\xc0\xa0@4\xab8q`\x95l',"{'xmin': -103.421202, 'ymin': 20.66883, 'xmax': -103.421202, 'ymax': 20.66883}",dining and drinking > restaurant > mexican restaurant > taco restaurant,1
5680a9ee38fa767f2dce2344,Taqueria Los Huichos,20.641737752365106,-105.21534562110901,,Puerto Vallarta,Jalisco,,,,,MX,2015-12-28,2020-11-23,,,,,,,,['4bf58dd8d48988d151941735'],['Dining and Drinking > Restaurant > Mexican Restaurant > Taco Restaurant'],b'\x00\x00\x00\x00\x01\xc0ZM\xc89\x00\x00\x00@4\xa4H\xec\xe3\x04E',"{'xmin': -105.21534562110901, 'ymin': 20.641737752365106, 'xmax': -105.21534562110901, 'ymax': 20.641737752365106}",dining and drinking > restaurant > mexican restaurant > taco restaurant,1
555b4662498ea98719f6b59a,tacos de ollita doña mary,20.63899263319858,-103.45315530222626,,zapopan,,,,,,MX,2015-05-19,2020-11-30,,,,,,,,['4bf58dd8d48988d151941735'],['Dining and Drinking > Restaurant > Mexican Restaurant > Taco Restaurant'],b'\x00\x00\x00\x00\x01\xc0Y\xdd\x00\x7f\x18\xc4\x88@4\xa3\x95\x05m\xf9\x0b',"{'xmin': -103.45315530222626, 'ymin': 20.63899263319858, 'xmax': -103.45315530222626, 'ymax': 20.63899263319858}",dining and drinking > restaurant > mexican restaurant > taco restaurant,1
4c15096b82a3c9b6441dfef8,Tacos de Canasta Sí Señor,21.921761791720893,-102.29799148723376,Av. Independencia,Aguascalientes,AGS,,,,,MX,2010-06-13,2020-11-30,,449 978 4947,http://tacosdecanastasisenor.com.mx,,,,,['4bf58dd8d48988d151941735'],['Dining and Drinking > Restaurant > Mexican Restaurant > Taco Restaurant'],b'\x00\x00\x00\x00\x01\xc0Y\x93\x12J\xe3\t\xf2@5\xeb\xf8\x94\xae$\xc3',"{'xmin': -102.29799148723376, 'ymin': 21.921761791720893, 'xmax': -102.29799148723376, 'ymax': 21.921761791720893}",dining and drinking > restaurant > mexican restaurant > taco restaurant,1
5765a0a7498ed9f89dad7ce7,Tortas ahogadas Los tapatios.,22.155566833250813,-100.99847781466697,Garcia Diego 730,San Luis Potosí,San Luis Potosí,78250,,,,MX,2016-06-18,2021-11-29,,444 205 4165,,,233943170115947.0,,,['4bf58dd8d48988d1c1941735' '4bf58dd8d48988d151941735'],"['Dining and Drinking > Restaurant > Mexican Restaurant'
 'Dining and Drinking > Restaurant > Mexican Restaurant > Taco Restaurant']","b""\x00\x00\x00\x00\x01\xc0Y?\xe7\x0f}\xf1\xad@6'\xd3:]'\x8f""","{'xmin': -100.99847781466697, 'ymin': 22.155566833250813, 'xmax': -100.99847781466697, 'ymax': 22.155566833250813}","dining and drinking > restaurant > mexican restaurant, dining and drinking > restaurant > mexican restaurant > taco restaurant",1
4f412f23e4b020398d60783d,Jerry's. Barbacoa de res.,19.68279329456061,-101.17896555274565,Av. Ventura Puente (Servicentro),Morelia,Michoacán,,,,,MX,2012-02-19,2020-11-30,,,,,,,,['4bf58dd8d48988d151941735'],['Dining and Drinking > Restaurant > Mexican Restaurant > Taco Restaurant'],b'\x00\x00\x00\x00\x01\xc0YKt+\xef\t\xcd@3\xae\xcb\x8a\x96\x10\xe0',"{'xmin': -101.17896555274565, 'ymin': 19.68279329456061, 'xmax': -101.17896555274565, 'ymax': 19.68279329456061}",dining and drinking > restaurant > mexican restaurant > taco restaurant,1
508c018be4b0953c40e6196b,Taqueria El Huarache Veloz,20.732364512237716,-103.34950401630869,,,,,,,,MX,2012-10-27,2021-08-19,,,,,,,,['4bf58dd8d48988d151941735'],['Dining and Drinking > Restaurant > Mexican Restaurant > Taco Restaurant'],b'\x00\x00\x00\x00\x01\xc0Y\xd6^F\x17\xf7t@4\xbb|=\x9c\xcf\xde',"{'xmin': -103.34950401630869, 'ymin': 20.732364512237716, 'xmax': -103.34950401630869, 'ymax': 20.732364512237716}",dining and drinking > restaurant > mexican restaurant > taco restaurant,1
4ed836d2e5fa78b16b85a76e,Tacos Los Famosos Güeros,20.75145954191363,-103.37992488035233,,,,,,,,MX,2011-12-02,2021-08-11,,,,,,,,['4bf58dd8d48988d151941735'],['Dining and Drinking > Restaurant > Mexican Restaurant > Taco Restaurant'],b'\x00\x00\x00\x00\x01\xc0Y\xd8P\xb0r\x033@4\xc0_\xa7\x0c\xc9C',"{'xmin': -103.37992488035233, 'ymin': 20.75145954191363, 'xmax': -103.37992488035233, 'ymax': 20.75145954191363}",dining and drinking > restaurant > mexican restaurant > taco restaurant,1
56400eab498e997b657a9dd8,tacos el vecino,22.126639,-100.900099,,,,,,,,MX,2015-11-09,2021-08-15,,,,,,,,['4bf58dd8d48988d151941735'],['Dining and Drinking > Restaurant > Mexican Restaurant > Taco Restaurant'],b'\x00\x00\x00\x00\x01\xc0Y9\x9b8\xd6\nc@6 ki\xdbe\xed',"{'xmin': -100.900099, 'ymin': 22.126639, 'xmax': -100.900099, 'ymax': 22.126639}",dining and drinking > restaurant > mexican restaurant > taco restaurant,1
50fdfdcee4b0192e0c7b106b,Tacos La Ejidal,19.75826,-104.368427,,Autlán,Jal.,,,,,MX,2013-01-22,2020-11-23,,,,,,,,['4bf58dd8d48988d151941735'],['Dining and Drinking > Restaurant > Mexican Restaurant > Taco Restaurant'],b'\x00\x00\x00\x00\x01\xc0Z\x17\x94N\xd6\xfd\xa8@3\xc2\x1dS\xcd\xddn',"{'xmin': -104.368427, 'ymin': 19.75826, 'xmax': -104.368427, 'ymax': 19.75826}",dining and drinking > restaurant > mexican restaurant > taco restaurant,1
507ae5c8498e98df0f936530,Tacos Norma,20.94936904746917,-101.41954033716642,Alameda,Silao,Guanajuato,36100,,,,MX,2012-10-14,2020-11-24,,,,,,,,['4bf58dd8d48988d151941735'],['Dining and Drinking > Restaurant > Mexican Restaurant > Taco Restaurant'],b'\x00\x00\x00\x00\x01\xc0YZ\xd9\xbf\xb6\xde\xe3@4\xf3\t\xd9\x92\xb6\xfa',"{'xmin': -101.41954033716642, 'ymin': 20.94936904746917, 'xmax': -101.41954033716642, 'ymax': 20.94936904746917}",dining and drinking > restaurant > mexican restaurant > taco restaurant,1
52ddd79a11d2c6f9a57b7999,Tacos al Carbon Estilo Sonora,20.642407,-103.297955,,,,,,,,MX,2014-01-21,2021-08-12,,,,,,,,['4bf58dd8d48988d151941735'],['Dining and Drinking > Restaurant > Mexican Restaurant > Taco Restaurant'],b'\x00\x00\x00\x00\x01\xc0Y\xd3\x11\xb1\xd9+\x80@4\xa4t\xc8\xff\xb8\xb2',"{'xmin': -103.297955, 'ymin': 20.642407, 'xmax': -103.297955, 'ymax': 20.642407}",dining and drinking > restaurant > mexican restaurant > taco restaurant,1
4f4aa545e4b0605e44d473ff,tacos avelino,20.087996011503783,-101.51661129081666,,,,,,,,MX,2012-02-26,2021-09-01,,,,,,,,['4bf58dd8d48988d151941735'],['Dining and Drinking > Restaurant > Mexican Restaurant > Taco Restaurant'],b'\x00\x00\x00\x00\x01\xc0Ya\x10(\xcd\xb3R@4\x16\x86\xe8\x17\x96R',"{'xmin': -101.51661129081666, 'ymin': 20.087996011503783, 'xmax': -101.51661129081666, 'ymax': 20.087996011503783}",dining and drinking > restaurant > mexican restaurant > taco restaurant,1
4fa08d79e4b0178dca0fd236,"Tacos ""El Guero""",21.175738154777616,-101.65932329289875,,,,,,,,MX,2012-05-02,2021-08-12,,,,,,,,['4bf58dd8d48988d151941735'],['Dining and Drinking > Restaurant > Mexican Restaurant > Taco Restaurant'],"b'\x00\x00\x00\x00\x01\xc0Yj2ZS\x1fo@5,\xfd,\xfbm\xe3'","{'xmin': -101.65932329289875, 'ymin': 21.175738154777616, 'xmax': -101.65932329289875, 'ymax': 21.175738154777616}",dining and drinking > restaurant > mexican restaurant > taco restaurant,1
599a23d7aa6c9556c7418c65,"Tacos ""El Tío""",20.650717,-103.330402,Calle Rio Volga,Guadalajara,JAL,44878,,,,MX,2017-08-21,2021-08-14,,,,,,,,['4bf58dd8d48988d151941735'],['Dining and Drinking > Restaurant > Mexican Restaurant > Taco Restaurant'],"b'\x00\x00\x00\x00\x01\xc0Y\xd5%Nn""\x1d@4\xa6\x95c\xa9\xf3\x84'","{'xmin': -103.330402, 'ymin': 20.650717, 'xmax': -103.330402, 'ymax': 20.650717}",dining and drinking > restaurant > mexican restaurant > taco restaurant,1
549dc8ce498e80876e3e64b8,"Tacos ""La Morena""",20.606921,-105.236337,Juarez,Puerto vallarta,,,,,,MX,2014-12-26,2020-11-24,,,,,,,,['4bf58dd8d48988d151941735'],['Dining and Drinking > Restaurant > Mexican Restaurant > Taco Restaurant'],"b'\x00\x00\x00\x00\x01\xc0ZO %9um@4\x9b_,\xb6Ap'","{'xmin': -105.236337, 'ymin': 20.606921, 'xmax': -105.236337, 'ymax': 20.606921}",dining and drinking > restaurant > mexican restaurant > taco restaurant,1
523afd59498e934a828e76d7,Taqueria El Cuñado,21.942305,-102.297264,Independencia,Aguascalientes,,,,,,MX,2013-09-19,2020-11-22,,,,,,,,['4bf58dd8d48988d151941735'],['Dining and Drinking > Restaurant > Mexican Restaurant > Taco Restaurant'],b'\x00\x00\x00\x00\x01\xc0Y\x93\x06_\x95\x91\xcd@5\xf1:\xe6\x85\xdbw',"{'xmin': -102.297264, 'ymin': 21.942305, 'xmax': -102.297264, 'ymax': 21.942305}",dining and drinking > restaurant > mexican restaurant > taco restaurant,1
5258bf4611d209f60681d381,tacos el Moreno,20.641983032226562,-103.46000671386719,,,,,,,,MX,2013-10-12,2021-08-14,,,,,,,,['4bf58dd8d48988d151941735'],['Dining and Drinking > Restaurant > Mexican Restaurant > Taco Restaurant'],b'\x00\x00\x00\x00\x01\xc0Y\xddp\xc0\x00\x00\x00@4\xa4Y\x00\x00\x00\x00',"{'xmin': -103.46000671386719, 'ymin': 20.641983032226562, 'xmax': -103.46000671386719, 'ymax': 20.641983032226562}",dining and drinking > restaurant > mexican restaurant > taco restaurant,1
57ad3d1e498e62b4bd2d621c,Tacos de Lechón Steven,21.808453,-102.29365,,San Gerardo,Aguascalientes,,,,,MX,2016-08-12,2020-11-24,,,,,,,,['4bf58dd8d48988d151941735'],['Dining and Drinking > Restaurant > Mexican Restaurant > Taco Restaurant'],b'\x00\x00\x00\x00\x01\xc0Y\x92\xcb)^\x9e\x1b@5\xce\xf6\xc6\x9bZd',"{'xmin': -102.29365, 'ymin': 21.808453, 'xmax': -102.29365, 'ymax': 21.808453}",dining and drinking > restaurant > mexican restaurant > taco restaurant,1
58fbd00842d8c20d59a6158d,Baja To Go,20.685688,-103.367874,Calle Hospital 1540,Guadalajara,Jalisco,44600,,,,MX,2017-04-22,2023-09-12,,33 2696 1601,http://www.bajatogo.com,,1831479087177481.0,bajatogo.tacos,bajatogo,['4bf58dd8d48988d151941735'],['Dining and Drinking > Restaurant > Mexican Restaurant > Taco Restaurant'],b'\x00\x00\x00\x00\x01\xc0Y\xd7\x8b?c\xc3\x1e@4\xaf\x89?\xafBx',"{'xmin': -103.367874, 'ymin': 20.685688, 'xmax': -103.367874, 'ymax': 20.685688}",dining and drinking > restaurant > mexican restaurant > taco restaurant,1
544d32ca498ea3736c3ba75c,Tacos Lupita,20.763766011276825,-103.43965388074443,Tercera Oriente,Zapopan,Jalisco,45130,,,,MX,2014-10-26,2020-11-25,,,,,,,,['4bf58dd8d48988d151941735'],['Dining and Drinking > Restaurant > Mexican Restaurant > Taco Restaurant'],b'\x00\x00\x00\x00\x01\xc0Y\xdc#J\x07\xd6\xd6@4\xc3\x86+X:\xf7',"{'xmin': -103.43965388074443, 'ymin': 20.763766011276825, 'xmax': -103.43965388074443, 'ymax': 20.763766011276825}",dining and drinking > restaurant > mexican restaurant > taco restaurant,1
50e8eadce4b06ad59705d437,"Los Borrachos, tacos y papas rellenas",20.7290015344019,-103.35641408753597,Obreros de cananea 1580,Zapopan,Jalisco,,,,,MX,2013-01-06,2021-05-01,2021-05-01,,,,,,,['4bf58dd8d48988d151941735'],['Dining and Drinking > Restaurant > Mexican Restaurant > Taco Restaurant'],b'\x00\x00\x00\x00\x01\xc0Y\xd6\xcf}\x08s>@4\xba\x9f\xd84\xfdo',"{'xmin': -103.35641408753597, 'ymin': 20.7290015344019, 'xmax': -103.35641408753597, 'ymax': 20.7290015344019}",dining and drinking > restaurant > mexican restaurant > taco restaurant,1
4fb50788e4b07f0890740be8,Tacos de canasta Capuleto (Arqueros),21.862589053450375,-102.26932525634766,Avenida arqueros 604 vistas del sol,Aguascalientes,AGUASCALIENTES,20264,,,,MX,2012-05-17,2023-04-20,,449 904 9636,http://www.tacosdecanastacapuleto.com,,439228776124650.0,tacosdecanastacapuleto,tacoscapuleto,['4bf58dd8d48988d151941735'],['Dining and Drinking > Restaurant > Mexican Restaurant > Taco Restaurant'],b'\x00\x00\x00\x00\x01\xc0Y\x91<\xa0\x00\x00\x00@5\xdc\xd2\xa2\xdet\xfb',"{'xmin': -102.26932525634766, 'ymin': 21.862589053450375, 'xmax': -102.26932525634766, 'ymax': 21.862589053450375}",dining and drinking > restaurant > mexican restaurant > taco restaurant,1
5cce472e44f4190025c0bda6,Tacos Mario,19.761182,-104.377142,,Autlán de Navarro,JAL,48903,,,,MX,2019-05-05,2020-11-25,,,,,,,,['4bf58dd8d48988d151941735'],['Dining and Drinking > Restaurant > Mexican Restaurant > Taco Restaurant'],b'\x00\x00\x00\x00\x01\xc0Z\x18#\x182\xfc\xad@3\xc2\xdc\xd2\xd4M\xcb',"{'xmin': -104.377142, 'ymin': 19.761182, 'xmax': -104.377142, 'ymax': 19.761182}",dining and drinking > restaurant > mexican restaurant > taco restaurant,1
52756a2411d20d4ba386bb9f,Tortilleria Los 2 Amigos,20.684859863462172,-101.39023768117856,,,,,,,,MX,2013-11-02,2020-11-25,,,,,,,,['4bf58dd8d48988d151941735'],['Dining and Drinking > Restaurant > Mexican Restaurant > Taco Restaurant'],b'\x00\x00\x00\x00\x01\xc0YX\xf9\xa7w\x95\x0b@4\xafR\xf9\xdb\xe9\xbe',"{'xmin': -101.39023768117856, 'ymin': 20.684859863462172, 'xmax': -101.39023768117856, 'ymax': 20.684859863462172}",dining and drinking > restaurant > mexican restaurant > taco restaurant,1
52b0ab28498e004fb66eb577,tacos de pescado 'el parque',30.527109,-115.931716,,,,,,,,MX,2013-12-17,2021-08-12,,,,,,,,['4bf58dd8d48988d151941735'],['Dining and Drinking > Restaurant > Mexican Restaurant > Taco Restaurant'],b'\x00\x00\x00\x00\x01\xc0\\\xfb\xa1<%J<@>\x86\xf0\x9d\x8cma',"{'xmin': -115.931716, 'ymin': 30.527109, 'xmax': -115.931716, 'ymax': 30.527109}",dining and drinking > restaurant > mexican restaurant > taco restaurant,1
5b75b2f992e7a9002c35474c,Taco Time,21.01653,-101.247215,"alameda, centro",Guanajuato,Guanajuato,36003,,,,MX,2018-08-16,2024-04-17,,,,,,,,['4bf58dd8d48988d151941735'],['Dining and Drinking > Restaurant > Mexican Restaurant > Taco Restaurant'],b'\x00\x00\x00\x00\x01\xc0YO\xd2^\xdd\x05)@5\x04;Oag#',"{'xmin': -101.247215, 'ymin': 21.01653, 'xmax': -101.247215, 'ymax': 21.01653}",dining and drinking > restaurant > mexican restaurant > taco restaurant,1
5881a86acc5b6a08dfdfeba9,Tacos Normis Boulevard Gobernadores,21.487652,-104.872944,,,,,,,,MX,2017-01-20,2021-08-13,,,,,,,,['4bf58dd8d48988d151941735'],['Dining and Drinking > Restaurant > Mexican Restaurant > Taco Restaurant'],b'\x00\x00\x00\x00\x01\xc0Z7\xdeP\x82\xcfS@5|\xd6\xc2\xef\xd49',"{'xmin': -104.872944, 'ymin': 21.487652, 'xmax': -104.872944, 'ymax': 21.487652}",dining and drinking > restaurant > mexican restaurant > taco restaurant,1
4d8ec1fdfa94370408970bc6,"Tacos de tripa ""el Amigo del barrio""",21.131548350802756,-101.68268381854195,,,,,,,,MX,2011-03-27,2023-09-13,,,,,,,,['4bf58dd8d48988d151941735'],['Dining and Drinking > Restaurant > Mexican Restaurant > Taco Restaurant'],"b""\x00\x00\x00\x00\x01\xc0Yk\xb1\x17x\x89Y@5!\xad'\x18\x8ac""","{'xmin': -101.68268381854195, 'ymin': 21.131548350802756, 'xmax': -101.68268381854195, 'ymax': 21.131548350802756}",dining and drinking > restaurant > mexican restaurant > taco restaurant,1
5af9ea16c9a517002c4fe8e9,Tacos La Dieta,20.65154,-105.2175,,Puerto Vallarta,Jalisco,48290,,,,MX,2018-05-14,2020-11-23,,,,,,,,['4bf58dd8d48988d151941735'],['Dining and Drinking > Restaurant > Mexican Restaurant > Taco Restaurant'],b'\x00\x00\x00\x00\x01\xc0ZM\xeb\x85\x1e\xb8R@4\xa6\xcbSP\t-',"{'xmin': -105.2175, 'ymin': 20.65154, 'xmax': -105.2175, 'ymax': 20.65154}",dining and drinking > restaurant > mexican restaurant > taco restaurant,1
5ca0df7ec5b11c002c2d2e1d,Tacoste,19.779827,-104.357273,,Autlán de Navarro,JAL,48902,,,,MX,2019-03-31,2020-11-30,,,,,,,,['4bf58dd8d48988d151941735'],['Dining and Drinking > Restaurant > Mexican Restaurant > Taco Restaurant'],b'\x00\x00\x00\x00\x01\xc0Z\x16\xdd\x8f\x92\xaf\x9b@3\xc7\xa2\xbe\x05\x89\xad',"{'xmin': -104.357273, 'ymin': 19.779827, 'xmax': -104.357273, 'ymax': 19.779827}",dining and drinking > restaurant > mexican restaurant > taco restaurant,1
52ddf47e11d2ed3a8229e612,"Tacos al Pastor ""San Francisco""",20.79637678382785,-103.47720962526147,,,,,,,,MX,2014-01-21,2021-08-16,,,,,,,,['4bf58dd8d48988d151941735'],['Dining and Drinking > Restaurant > Mexican Restaurant > Taco Restaurant'],b'\x00\x00\x00\x00\x01\xc0Y\xde\x8a\x9a=ug@4\xcb\xdfYQ\xd5\x93',"{'xmin': -103.47720962526147, 'ymin': 20.79637678382785, 'xmax': -103.47720962526147, 'ymax': 20.79637678382785}",dining and drinking > restaurant > mexican restaurant > taco restaurant,1
5b0476f15a2c910039157369,Tacos El Negro De Morones,20.692516,-103.337,Calle Ruperto Maldonado #234,Guadalajara,Jalisco,44270,,,,MX,2018-05-22,2021-08-15,,,,,,,,['4bf58dd8d48988d151941735'],['Dining and Drinking > Restaurant > Mexican Restaurant > Taco Restaurant'],b'\x00\x00\x00\x00\x01\xc0Y\xd5\x91hr\xb0!@4\xb1H\xba\x83\xf4\xed',"{'xmin': -103.337, 'ymin': 20.692516, 'xmax': -103.337, 'ymax': 20.692516}",dining and drinking > restaurant > mexican restaurant > taco restaurant,1
564da2d3498e775bd4e18610,Tacos mora,20.72246923892108,-103.34627790225097,Juan Palomar,El Batan,Jalisco,45190,,,,MX,2015-11-19,2020-11-30,,,,,,,,['4bf58dd8d48988d151941735'],['Dining and Drinking > Restaurant > Mexican Restaurant > Taco Restaurant'],b'\x00\x00\x00\x00\x01\xc0Y\xd6)j\xca_\xb5@4\xb8\xf3\xbey\x884',"{'xmin': -103.34627790225097, 'ymin': 20.72246923892108, 'xmax': -103.34627790225097, 'ymax': 20.72246923892108}",dining and drinking > restaurant > mexican restaurant > taco restaurant,1
60f6f204cefb7a48a0f7ea13,El Takora,20.868261,-105.43636,,Sayulita,Nayarit,63734,,,,MX,2021-07-20,2021-07-20,,,,,,,,['4bf58dd8d48988d151941735'],['Dining and Drinking > Restaurant > Mexican Restaurant > Taco Restaurant'],b'\x00\x00\x00\x00\x01\xc0Z[\xedR~R\x15@4\xdeFZWdk',"{'xmin': -105.43636, 'ymin': 20.868261, 'xmax': -105.43636, 'ymax': 20.868261}",dining and drinking > restaurant > mexican restaurant > taco restaurant,1
50cb63fce4b0cbbcc8cb62cf,Tacos De Birria Beto,20.664965407740592,-103.32648308871626,Medrano 1005,Guadalajara,Jalisco,,,,,MX,2012-12-14,2021-08-11,,,,,,,,['4bf58dd8d48988d151941735'],['Dining and Drinking > Restaurant > Mexican Restaurant > Taco Restaurant'],"b'\x00\x00\x00\x00\x01\xc0Y\xd4\xe5\x19S.\xf0@4\xaa;,G7\x97'","{'xmin': -103.32648308871626, 'ymin': 20.664965407740592, 'xmax': -103.32648308871626, 'ymax': 20.664965407740592}",dining and drinking > restaurant > mexican restaurant > taco restaurant,1
5e5bed1eb44b0d0007830da7,Tacos de Canasta Ríos,21.94165,-102.3267,Blvd. Paseo de los Chicahuales,Jesús María,Aguascalientes,20900,,,,MX,2020-03-01,2020-11-22,,,,,,,,['4bf58dd8d48988d151941735'],['Dining and Drinking > Restaurant > Mexican Restaurant > Taco Restaurant'],b'\x00\x00\x00\x00\x01\xc0Y\x94\xe8\xa7\x1d\xe6\x9b@5\xf1\x0f\xf9rGE',"{'xmin': -102.3267, 'ymin': 21.94165, 'xmax': -102.3267, 'ymax': 21.94165}",dining and drinking > restaurant > mexican restaurant > taco restaurant,1
5779a8a7498ead6d91e095e7,Asadero Saguaros,20.565294,-103.445092,,,,,,,,MX,2016-07-04,2021-08-21,,,,,,,,['4bf58dd8d48988d151941735'],['Dining and Drinking > Restaurant > Mexican Restaurant > Taco Restaurant'],"b""\x00\x00\x00\x00\x01\xc0Y\xdc|c'\xed\x85@4\x90\xb7\x1b\x8a\xa0\x02""","{'xmin': -103.445092, 'ymin': 20.565294, 'xmax': -103.445092, 'ymax': 20.565294}",dining and drinking > restaurant > mexican restaurant > taco restaurant,1
5604c28e498e2938aa8f496a,Tacos El Pantano,20.68112493710167,-103.22389306729366,,,,,,,,MX,2015-09-25,2020-11-23,,,,,,,,['4bf58dd8d48988d151941735'],['Dining and Drinking > Restaurant > Mexican Restaurant > Taco Restaurant'],b'\x00\x00\x00\x00\x01\xc0Y\xceTC\x96t\xf4@4\xae^41W|',"{'xmin': -103.22389306729366, 'ymin': 20.68112493710167, 'xmax': -103.22389306729366, 'ymax': 20.68112493710167}",dining and drinking > restaurant > mexican restaurant > taco restaurant,1
50004425e4b0978e431406d9,Pericos,20.66554,-103.37745,,,,,,,,MX,2012-07-13,2021-08-18,,,,,,,,['4bf58dd8d48988d151941735'],['Dining and Drinking > Restaurant > Mexican Restaurant > Taco Restaurant'],b'\x00\x00\x00\x00\x01\xc0Y\xd8($\x0bx\x03@4\xaa`\xd4V.\n',"{'xmin': -103.37745, 'ymin': 20.66554, 'xmax': -103.37745, 'ymax': 20.66554}",dining and drinking > restaurant > mexican restaurant > taco restaurant,1
4edae10893ad464d2928ded9,Taqueria Pintores,21.91905,-102.26512,Carlos Fuentes Mares,Aguascalientes,Aguascalientes,20179,,,,MX,2011-12-04,2020-11-25,,0,,,,,,['4bf58dd8d48988d151941735'],['Dining and Drinking > Restaurant > Mexican Restaurant > Taco Restaurant'],b'\x00\x00\x00\x00\x01\xc0Y\x90\xf7\xb9\xe0`\xfe@5\xebF\xdc]c\x88',"{'xmin': -102.26512, 'ymin': 21.91905, 'xmax': -102.26512, 'ymax': 21.91905}",dining and drinking > restaurant > mexican restaurant > taco restaurant,1
4b9ffd89f964a520635037e3,Taqueria Arandas,22.153689802764006,-100.99907977962359,Nicolas Zapata 947,San Luis Potosí,San Luis Potosí,78250,,,,MX,2010-03-16,2023-12-21,,444 833 1114,,,,,,['4bf58dd8d48988d151941735'],['Dining and Drinking > Restaurant > Mexican Restaurant > Taco Restaurant'],"b""\x00\x00\x00\x00\x01\xc0Y?\xf0\xecP\xe5\x01@6'X7\x04\x99\xa0""","{'xmin': -100.99907977962359, 'ymin': 22.153689802764006, 'xmax': -100.99907977962359, 'ymax': 22.153689802764006}",dining and drinking > restaurant > mexican restaurant > taco restaurant,1
4fae17e7e4b0861eac809b3a,Tacos El Tio,20.684743711746606,-101.39488669209665,Villas de irapuato,,,,,,,MX,2012-05-12,2020-11-30,,,,,,,,['4bf58dd8d48988d151941735'],['Dining and Drinking > Restaurant > Mexican Restaurant > Taco Restaurant'],b'\x00\x00\x00\x00\x01\xc0YYE\xd2\xd5\x0b\x91@4\xafK](\x17\xe4',"{'xmin': -101.39488669209665, 'ymin': 20.684743711746606, 'xmax': -101.39488669209665, 'ymax': 20.684743711746606}",dining and drinking > restaurant > mexican restaurant > taco restaurant,1
5384c6ae498edc5f92df7abe,Taqueria Los Fary's,20.66239319230404,-101.34400055408582,Blvd. La esperanza Col. Flores Magon,Irapuato,Guanajuato,36586,,,,MX,2014-05-27,2020-11-30,,,,,,,,['4bf58dd8d48988d151941735'],['Dining and Drinking > Restaurant > Mexican Restaurant > Taco Restaurant'],b'\x00\x00\x00\x00\x01\xc0YV\x04\x1a\xe6f\xb0@4\xa9\x92\x99\xaa\t\xf5',"{'xmin': -101.34400055408582, 'ymin': 20.66239319230404, 'xmax': -101.34400055408582, 'ymax': 20.66239319230404}",dining and drinking > restaurant > mexican restaurant > taco restaurant,1
51291886e4b08ef06091ec4f,Chile Amor,19.24448631446949,-103.72802806399149,Calle Prol. 5 de Mayo 49,"Colima, COL",,,,,,MX,2013-02-23,2023-12-19,,312 160 5096,,,,,,['4bf58dd8d48988d151941735'],['Dining and Drinking > Restaurant > Mexican Restaurant > Taco Restaurant'],b'\x00\x00\x00\x00\x01\xc0Y\xee\x98\x03\x05Zy@3>\x96\xa7\xb4\xf7N',"{'xmin': -103.72802806399149, 'ymin': 19.24448631446949, 'xmax': -103.72802806399149, 'ymax': 19.24448631446949}",dining and drinking > restaurant > mexican restaurant > taco restaurant,1
56235ac1498ecd5d33c2a988,Taqueria Rinconcito Mixe,21.029016,-101.85769,,,,,,,,MX,2015-10-18,2021-08-16,,,,,,,,['4bf58dd8d48988d151941735'],['Dining and Drinking > Restaurant > Mexican Restaurant > Taco Restaurant'],b'\x00\x00\x00\x00\x01\xc0Yv\xe4d\x99\x06\xcd@5\x07m\x97\xb3\x0f\x8c',"{'xmin': -101.85769, 'ymin': 21.029016, 'xmax': -101.85769, 'ymax': 21.029016}",dining and drinking > restaurant > mexican restaurant > taco restaurant,1
63a50cf3635c47755c08bc0c,La Costilla,20.62482,-103.413044,,Zapopan,JAL,45080,,,,MX,2022-12-23,2022-12-23,,,,,,,,['4bf58dd8d48988d1c1941735' '4bf58dd8d48988d151941735'],"['Dining and Drinking > Restaurant > Mexican Restaurant'
 'Dining and Drinking > Restaurant > Mexican Restaurant > Taco Restaurant']",b'\x00\x00\x00\x00\x01\xc0Y\xdaoP\x19\xf3\xc7@4\x9f\xf44\x19\xe3\x00',"{'xmin': -103.413044, 'ymin': 20.62482, 'xmax': -103.413044, 'ymax': 20.62482}","dining and drinking > restaurant > mexican restaurant, dining and drinking > restaurant > mexican restaurant > taco restaurant",1
4dabaa1f43a112819715b864,Triángulo de La Gordura,20.709324595192744,-103.34323112954108,Federico E. Ibarra,"Guadalajara, JAL",,,,,,MX,2011-04-18,2021-08-17,,,,,,,,['4bf58dd8d48988d151941735'],['Dining and Drinking > Restaurant > Mexican Restaurant > Taco Restaurant'],b'\x00\x00\x00\x00\x01\xc0Y\xd5\xf7\x7f\xb3\x16G@4\xb5\x96K\xf2\x99\xed',"{'xmin': -103.34323112954108, 'ymin': 20.709324595192744, 'xmax': -103.34323112954108, 'ymax': 20.709324595192744}",dining and drinking > restaurant > mexican restaurant > taco restaurant,1
5a52da4aa2a6ce74d576ec96,Taquería Patrón,21.923487,-102.298092,Independencia #1864,Aguascalientes,AGS,20120,,,,MX,2018-01-08,2020-11-24,,,,,1310911562347828.0,,,['4bf58dd8d48988d151941735'],['Dining and Drinking > Restaurant > Mexican Restaurant > Taco Restaurant'],b'\x00\x00\x00\x00\x01\xc0Y\x93\x13\xf0w\xcc\xc0@5\xeci\xa4\xdfG\xfa',"{'xmin': -102.298092, 'ymin': 21.923487, 'xmax': -102.298092, 'ymax': 21.923487}",dining and drinking > restaurant > mexican restaurant > taco restaurant,1
58ec52676431e561cf1c58e9,Asadero El Zarape,31.026141,-114.841103,,San Felipe,BC,21850,,,,MX,2017-04-11,2020-11-30,,,,,,,,['4bf58dd8d48988d151941735'],['Dining and Drinking > Restaurant > Mexican Restaurant > Taco Restaurant'],b'\x00\x00\x00\x00\x01\xc0\\\xb5\xd4\xa1\xaddR@?\x06\xb1-4\x15\xb1',"{'xmin': -114.841103, 'ymin': 31.026141, 'xmax': -114.841103, 'ymax': 31.026141}",dining and drinking > restaurant > mexican restaurant > taco restaurant,1
56b4d2bf498e123dc910ce7d,Carnitas Estilo Guanatos JPR,20.594692,-103.33369,,,,,,,,MX,2016-02-05,2021-08-14,,,,,,,,['4bf58dd8d48988d151941735'],['Dining and Drinking > Restaurant > Mexican Restaurant > Taco Restaurant'],b'\x00\x00\x00\x00\x01\xc0Y\xd5[-M@%@4\x98=\xbc#1]',"{'xmin': -103.33369, 'ymin': 20.594692, 'xmax': -103.33369, 'ymax': 20.594692}",dining and drinking > restaurant > mexican restaurant > taco restaurant,1
51dcde41498ee410c7e62068,"Tacos ""Joses""",21.150773,-101.684538,Boulevard Adolfo López Mateos Esquina Benito Juárez,Celaya,Gto,38020,,,,MX,2013-07-10,2021-11-08,,,,,,,,['4bf58dd8d48988d151941735'],['Dining and Drinking > Restaurant > Mexican Restaurant > Taco Restaurant'],b'\x00\x00\x00\x00\x01\xc0Yk\xcfxx\xb7\xa2@5&\x99\x0f0\x1e\xac',"{'xmin': -101.684538, 'ymin': 21.150773, 'xmax': -101.684538, 'ymax': 21.150773}",dining and drinking > restaurant > mexican restaurant > taco restaurant,1
5a8a4a0ada5ede7ae8d7f578,Tacos Toño Raygoza,20.73142,-103.408547,Gayabos 985,Zapopan,JAL,45148,,,,MX,2018-02-19,2020-11-25,,,,,,,,['4bf58dd8d48988d151941735'],['Dining and Drinking > Restaurant > Mexican Restaurant > Taco Restaurant'],b'\x00\x00\x00\x00\x01\xc0Y\xda%\xa2P\xf8@@4\xbb>WS\xa3\xec',"{'xmin': -103.408547, 'ymin': 20.73142, 'xmax': -103.408547, 'ymax': 20.73142}",dining and drinking > restaurant > mexican restaurant > taco restaurant,1
592b0dc98a6f177cab003c34,Tortas Ahogadas Y Tacos El Globo,20.664366,-103.21134,,Tonala,Jalisco,,,,,MX,2017-05-28,2020-11-23,,,,,,,,['4bf58dd8d48988d151941735'],['Dining and Drinking > Restaurant > Mexican Restaurant > Taco Restaurant'],b'\x00\x00\x00\x00\x01\xc0Y\xcd\x86\x985\x15\x8c@4\xaa\x13\xe3\xe2\x93\x08',"{'xmin': -103.21134, 'ymin': 20.664366, 'xmax': -103.21134, 'ymax': 20.664366}",dining and drinking > restaurant > mexican restaurant > taco restaurant,1
57197387498e13bf1a0fdbdd,taco lab,20.915196,-100.743514,,,,,,,,MX,2016-04-22,2024-01-02,,415 154 8317,http://www.tacolabsma.com,,,,,['4bf58dd8d48988d151941735'],['Dining and Drinking > Restaurant > Mexican Restaurant > Taco Restaurant'],b'\x00\x00\x00\x00\x01\xc0Y/\x95\xbb\xbe\x87\x90@4\xeaJH\xf9n\x16',"{'xmin': -100.743514, 'ymin': 20.915196, 'xmax': -100.743514, 'ymax': 20.915196}",dining and drinking > restaurant > mexican restaurant > taco restaurant,1
54ee8fa2498ee35c8fa050db,Tacos Arandas,20.731207550499935,-103.4520561651178,Ramon Corona,Zapopan,,,,,,MX,2015-02-26,2020-11-23,,,,,,,,['4bf58dd8d48988d151941735'],['Dining and Drinking > Restaurant > Mexican Restaurant > Taco Restaurant'],b'\x00\x00\x00\x00\x01\xc0Y\xdc\xee|\xfbH\xb6@4\xbb0k\x03\xfcI',"{'xmin': -103.4520561651178, 'ymin': 20.731207550499935, 'xmax': -103.4520561651178, 'ymax': 20.731207550499935}",dining and drinking > restaurant > mexican restaurant > taco restaurant,1
56ba07f138fa48cf5e0acf0e,La Pibil Morelia,19.687951,-101.188182,Vicente Sta. María 1504,Morelia,Michoacán,58070,,,,MX,2016-02-09,2020-11-23,,443 484 0638,,,,,la_pibilmorelia,['4bf58dd8d48988d151941735' '4bf58dd8d48988d1c1941735'],"['Dining and Drinking > Restaurant > Mexican Restaurant > Taco Restaurant'
 'Dining and Drinking > Restaurant > Mexican Restaurant']","b'\x00\x00\x00\x00\x01\xc0YL\x0b,\x83\xec\x89@3\xb0\x1d\x8e\x86@!'","{'xmin': -101.188182, 'ymin': 19.687951, 'xmax': -101.188182, 'ymax': 19.687951}","dining and drinking > restaurant > mexican restaurant > taco restaurant, dining and drinking > restaurant > mexican restaurant",1
56f812ff498e0f74d77d4d3f,"Birria Tatemada ""La Primorosa""",20.617953886301088,-103.23996372780802,,,,,,,,MX,2016-03-27,2021-08-16,,,,,,,,['4bf58dd8d48988d151941735'],['Dining and Drinking > Restaurant > Mexican Restaurant > Taco Restaurant'],b'\x00\x00\x00\x00\x01\xc0Y\xcf[\x90\xd2\xcaY@4\x9e29\xd4\x19j',"{'xmin': -103.23996372780802, 'ymin': 20.617953886301088, 'xmax': -103.23996372780802, 'ymax': 20.617953886301088}",dining and drinking > restaurant > mexican restaurant > taco restaurant,1
55b45841498ecb1af8ebc84b,Tacos Doña Lenta,20.62735939025879,-103.3736343383789,Calle 22 #3645,Guadalajara,Jalisco,,,,,MX,2015-07-26,2022-08-05,2022-08-05,,,,,,,['4bf58dd8d48988d151941735'],['Dining and Drinking > Restaurant > Mexican Restaurant > Taco Restaurant'],b'\x00\x00\x00\x00\x01\xc0Y\xd7\xe9\xa0\x00\x00\x00@4\xa0\x9a\xa0\x00\x00\x00',"{'xmin': -103.3736343383789, 'ymin': 20.62735939025879, 'xmax': -103.3736343383789, 'ymax': 20.62735939025879}",dining and drinking > restaurant > mexican restaurant > taco restaurant,1
543d234c498ecacff5623e52,Tacos y Gorditas,20.682501,-103.381598,,Guadalajara,Jalisco,,,,,MX,2014-10-14,2021-08-17,,,,,,,,['4bf58dd8d48988d151941735'],['Dining and Drinking > Restaurant > Mexican Restaurant > Taco Restaurant'],b'\x00\x00\x00\x00\x01\xc0Y\xd8l\x1a\x04\x8e\x04@4\xae\xb8b\xb2|\xbf',"{'xmin': -103.381598, 'ymin': 20.682501, 'xmax': -103.381598, 'ymax': 20.682501}",dining and drinking > restaurant > mexican restaurant > taco restaurant,1
4fff856ce4b064f07daa5590,Taqueria: Los cisnes,20.389831554404932,-101.18346639908478,Manuel Doblado #118,Valle De Santiago,Guanajuato,,,,,MX,2012-07-13,2020-11-25,,,,,,,,['4bf58dd8d48988d151941735'],['Dining and Drinking > Restaurant > Mexican Restaurant > Taco Restaurant'],b'\x00\x00\x00\x00\x01\xc0YK\xbd\xe9\xd9\xfe\xfa@4c\xcc\x001\x1e7',"{'xmin': -101.18346639908478, 'ymin': 20.389831554404932, 'xmax': -101.18346639908478, 'ymax': 20.389831554404932}",dining and drinking > restaurant > mexican restaurant > taco restaurant,1
4fda97e3e4b0d7bceff01354,Tacos Don Luis III,21.104307833791452,-101.64665903386617,,,,,,,,MX,2012-06-15,2021-08-16,,,,,,,,['4bf58dd8d48988d151941735'],['Dining and Drinking > Restaurant > Mexican Restaurant > Taco Restaurant'],b'\x00\x00\x00\x00\x01\xc0Yib\xdc\x92\x87\x90@5\x1a\xb3\xeb\x0e\xd9\xd4',"{'xmin': -101.64665903386617, 'ymin': 21.104307833791452, 'xmax': -101.64665903386617, 'ymax': 21.104307833791452}",dining and drinking > restaurant > mexican restaurant > taco restaurant,1
52f31952498e74003fbc499c,Taquería El Agave,21.123096466064453,-101.6496810913086,,,,,,,,MX,2014-02-06,2021-08-16,,,,,,,,['4bf58dd8d48988d151941735'],['Dining and Drinking > Restaurant > Mexican Restaurant > Taco Restaurant'],b'\x00\x00\x00\x00\x01\xc0Yi\x94`\x00\x00\x00@5\x1f\x83@\x00\x00\x00',"{'xmin': -101.6496810913086, 'ymin': 21.123096466064453, 'xmax': -101.6496810913086, 'ymax': 21.123096466064453}",dining and drinking > restaurant > mexican restaurant > taco restaurant,1
57ef3e44498ea5305c4ef15c,Mister Taco,19.690535,-101.226925,,Morelia,MICH,,,,,MX,2016-10-01,2020-11-21,,,,,,,,['4bf58dd8d48988d151941735'],['Dining and Drinking > Restaurant > Mexican Restaurant > Taco Restaurant'],b'\x00\x00\x00\x00\x01\xc0YN\x85\xf0oiD@3\xb0\xc6\xe6\xd9\xbeM',"{'xmin': -101.226925, 'ymin': 19.690535, 'xmax': -101.226925, 'ymax': 19.690535}",dining and drinking > restaurant > mexican restaurant > taco restaurant,1
4beb6f8661aca59340218500,La Taquiza de Chavita,21.88073355306442,-102.3122568082996,,Aguascalientes,AGS,,,,,MX,2010-05-13,2020-11-30,,,,,,,,['4bf58dd8d48988d151941735'],['Dining and Drinking > Restaurant > Mexican Restaurant > Taco Restaurant'],b'\x00\x00\x00\x00\x01\xc0Y\x93\xfc\x03\xfa\xe6h@5\xe1w\xc1\x0e\xe6\xcd',"{'xmin': -102.3122568082996, 'ymin': 21.88073355306442, 'xmax': -102.3122568082996, 'ymax': 21.88073355306442}",dining and drinking > restaurant > mexican restaurant > taco restaurant,1
4cc26b1891413704b291b455,Jorge's Tacos El Chino Jr,20.642029789724006,-103.39306239135908,Lapizlazuli 2650,Zapopan,JAL,,,,,MX,2010-10-23,2021-08-11,,,,,,,,['4bf58dd8d48988d151941735'],['Dining and Drinking > Restaurant > Mexican Restaurant > Taco Restaurant'],"b""\x00\x00\x00\x00\x01\xc0Y\xd9'\xef)\x0b0@4\xa4\\\x10u\xec ""","{'xmin': -103.39306239135908, 'ymin': 20.642029789724006, 'xmax': -103.39306239135908, 'ymax': 20.642029789724006}",dining and drinking > restaurant > mexican restaurant > taco restaurant,1
563d0e19cd10e8b13db2c8d4,Birria Don Nacho,20.6292576935619,-103.33082527611421,Esmeril,,,,,,,MX,2015-11-06,2021-08-14,,,,,,,,['4bf58dd8d48988d151941735'],['Dining and Drinking > Restaurant > Mexican Restaurant > Taco Restaurant'],"b'\x00\x00\x00\x00\x01\xc0Y\xd5,=\xc7fr@4\xa1\x17\x08>\x9a\xd1'","{'xmin': -103.33082527611421, 'ymin': 20.6292576935619, 'xmax': -103.33082527611421, 'ymax': 20.6292576935619}",dining and drinking > restaurant > mexican restaurant > taco restaurant,1
5127025ee4b0437a63439b83,Tacos El compadre,20.639406302538667,-103.31972197898072,Rio La Paz,Tlaquepaque,jalisco,,,,,MX,2013-02-22,2023-12-20,,33 1447 0299,,,,,,['4bf58dd8d48988d151941735'],['Dining and Drinking > Restaurant > Mexican Restaurant > Taco Restaurant'],"b'\x00\x00\x00\x00\x01\xc0Y\xd4vS,\xe27@4\xa3\xb0!\xa6B\x86'","{'xmin': -103.31972197898072, 'ymin': 20.639406302538667, 'xmax': -103.31972197898072, 'ymax': 20.639406302538667}",dining and drinking > restaurant > mexican restaurant > taco restaurant,1
521ab58c11d2dbbfbbfa5e26,"taquería ""CharChay""",20.67311303721495,-101.34341884698027,20 de noviembre,Irapuato,,36500,,,,MX,2013-08-26,2020-11-25,,,,,,,,['4bf58dd8d48988d151941735'],['Dining and Drinking > Restaurant > Mexican Restaurant > Taco Restaurant'],"b'\x00\x00\x00\x00\x01\xc0YU\xfa\x93\x0b\'\x0f@4\xacQ""\xd1Yu'","{'xmin': -101.34341884698027, 'ymin': 20.67311303721495, 'xmax': -101.34341884698027, 'ymax': 20.67311303721495}",dining and drinking > restaurant > mexican restaurant > taco restaurant,1
54e75578498e2fcb0ff89a5a,Tacos Mackies,20.66547966003418,-103.36820220947266,Progreso #esquina,Guadalajara,Jalisco,44150,,,,MX,2015-02-20,2021-08-16,,,,,,,,['4bf58dd8d48988d151941735'],['Dining and Drinking > Restaurant > Mexican Restaurant > Taco Restaurant'],b'\x00\x00\x00\x00\x01\xc0Y\xd7\x90\xa0\x00\x00\x00@4\xaa\\\xe0\x00\x00\x00',"{'xmin': -103.36820220947266, 'ymin': 20.66547966003418, 'xmax': -103.36820220947266, 'ymax': 20.66547966003418}",dining and drinking > restaurant > mexican restaurant > taco restaurant,1
1fb046b28f3c47f4b7f1f142,Birrieria Lorenna,21.090474,-101.647603,San Pedro 1013,León,Guanajuato,37530,,,,MX,2013-05-29,2023-12-06,,477 212 0070,,,,,,['4bf58dd8d48988d151941735'],['Dining and Drinking > Restaurant > Mexican Restaurant > Taco Restaurant'],b'\x00\x00\x00\x00\x01\xc0YirS\xdar\xa8@5\x17)M\xd7#h',"{'xmin': -101.647603, 'ymin': 21.090474, 'xmax': -101.647603, 'ymax': 21.090474}",dining and drinking > restaurant > mexican restaurant > taco restaurant,1
4dc4e1952271f270511f489c,El Taco Loco,19.272827727086177,-103.73519741700626,,Colima,COL,,,,,MX,2011-05-07,2020-11-30,,,,,,,,['4bf58dd8d48988d151941735' '4bf58dd8d48988d1c1941735'],"['Dining and Drinking > Restaurant > Mexican Restaurant > Taco Restaurant'
 'Dining and Drinking > Restaurant > Mexican Restaurant']",b'\x00\x00\x00\x00\x01\xc0Y\xef\ryw\x89Q@3E\xd8\t\xb5F\xf3',"{'xmin': -103.73519741700626, 'ymin': 19.272827727086177, 'xmax': -103.73519741700626, 'ymax': 19.272827727086177}","dining and drinking > restaurant > mexican restaurant > taco restaurant, dining and drinking > restaurant > mexican restaurant",1
5027e1cde4b043587a57bb75,Tacos y Gorditas Los Espinoza,20.667550733572245,-103.36040685739593,Plan de San Luis,Guadalajara,Jalisco,,,,,MX,2012-08-12,2021-08-12,,,,,,,,['4bf58dd8d48988d151941735'],['Dining and Drinking > Restaurant > Mexican Restaurant > Taco Restaurant'],b'\x00\x00\x00\x00\x01\xc0Y\xd7\x10\xe7\xecqB@4\xaa\xe4\x9a\xd9\x1d\x15',"{'xmin': -103.36040685739593, 'ymin': 20.667550733572245, 'xmax': -103.36040685739593, 'ymax': 20.667550733572245}",dining and drinking > restaurant > mexican restaurant > taco restaurant,1
571bb948498e21ffddc91621,tortas ahogadas el Muñoz,21.510703,-104.902602,,,,,,,,MX,2016-04-23,2021-08-14,,,,,,,,['4bf58dd8d48988d151941735'],['Dining and Drinking > Restaurant > Mexican Restaurant > Taco Restaurant'],b'\x00\x00\x00\x00\x01\xc0Z9\xc4;-\xd3x@5\x82\xbdn\x8a\xf8\x16',"{'xmin': -104.902602, 'ymin': 21.510703, 'xmax': -104.902602, 'ymax': 21.510703}",dining and drinking > restaurant > mexican restaurant > taco restaurant,1
5080bdf1e4b0ba1a3066da19,Checkos Tackos,20.655390159570835,-105.23550534939493,,,,,,,,MX,2012-10-19,2021-08-16,,,,,,,,['4bf58dd8d48988d151941735'],['Dining and Drinking > Restaurant > Mexican Restaurant > Taco Restaurant'],b'\x00\x00\x00\x00\x01\xc0ZO\x12\x85\x07k\xcb@4\xa7\xc7\xa6Ez\x1a',"{'xmin': -105.23550534939493, 'ymin': 20.655390159570835, 'xmax': -105.23550534939493, 'ymax': 20.655390159570835}",dining and drinking > restaurant > mexican restaurant > taco restaurant,1
58785bb6cc05d15ae461675d,Tacos y Hamburguesas Elvira,22.127224,-100.973465,Prolongación Pedro Vallejo 2045,San Luis Potosí,San Luis Potosí,,,,,MX,2017-01-13,2020-11-22,,,,,,,,['4bf58dd8d48988d151941735'],['Dining and Drinking > Restaurant > Mexican Restaurant > Taco Restaurant'],"b'\x00\x00\x00\x00\x01\xc0Y>M@$\xb3>@6 \x91\xc0\x87D,'","{'xmin': -100.973465, 'ymin': 22.127224, 'xmax': -100.973465, 'ymax': 22.127224}",dining and drinking > restaurant > mexican restaurant > taco restaurant,1
5b7ed7ee1953f3002dbe4313,Taqueria La Vaquita,19.23579,-104.56355,,Cihuatlán,Jalisco,48970,,,,MX,2018-08-23,2020-11-24,,,,,,,,['4bf58dd8d48988d151941735'],['Dining and Drinking > Restaurant > Mexican Restaurant > Taco Restaurant'],b'\x00\x00\x00\x00\x01\xc0Z$\x114\x04\xeaK@3<\\\xbb\xc2\xb9N',"{'xmin': -104.56355, 'ymin': 19.23579, 'xmax': -104.56355, 'ymax': 19.23579}",dining and drinking > restaurant > mexican restaurant > taco restaurant,1
50f98619e4b0cc3558570782,Tacos Las Vias,20.632886091676347,-103.36698962512615,,,,,,,,MX,2013-01-18,2021-08-12,,,,,,,,['4bf58dd8d48988d151941735'],['Dining and Drinking > Restaurant > Mexican Restaurant > Taco Restaurant'],b'\x00\x00\x00\x00\x01\xc0Y\xd7|\xc2\rx\xd7@4\xa2\x04\xd2\xa9\xd7\xda',"{'xmin': -103.36698962512615, 'ymin': 20.632886091676347, 'xmax': -103.36698962512615, 'ymax': 20.632886091676347}",dining and drinking > restaurant > mexican restaurant > taco restaurant,1
63aa41146e2e572a90405ea7,La Taqueria,20.869278,-105.438428,,Sayulita,NAY,63728,,,,MX,2022-12-27,2022-12-27,,,,,,,,['4bf58dd8d48988d151941735'],['Dining and Drinking > Restaurant > Mexican Restaurant > Taco Restaurant'],b'\x00\x00\x00\x00\x01\xc0Z\\\x0f4Pi\xa5@4\xde\x89\x00\xc5!\xde',"{'xmin': -105.438428, 'ymin': 20.869278, 'xmax': -105.438428, 'ymax': 20.869278}",dining and drinking > restaurant > mexican restaurant > taco restaurant,1
66cb6c71fb6cdc39b035798f,Taqueria Jalisco,20.764565,-104.080865,,Etzatlán,Jal.,46500,,,,MX,2024-08-25,2024-08-25,,,,,,,,['4bf58dd8d48988d151941735' '4bf58dd8d48988d1c1941735'],"['Dining and Drinking > Restaurant > Mexican Restaurant > Taco Restaurant'
 'Dining and Drinking > Restaurant > Mexican Restaurant']","b'\x00\x00\x00\x00\x01\xc0Z\x05,\xe4d\x99\x07@4\xc3\xba\x88&\xaa\x8f'","{'xmin': -104.080865, 'ymin': 20.764565, 'xmax': -104.080865, 'ymax': 20.764565}","dining and drinking > restaurant > mexican restaurant > taco restaurant, dining and drinking > restaurant > mexican restaurant",1
4e32b64a6284e2699949a46d,Tacos De Carnitas El Morro,20.71548362729131,-105.27302862970626,,,Nayarit,,,,,MX,2011-07-29,2021-08-11,,,,,,,,['4bf58dd8d48988d151941735'],['Dining and Drinking > Restaurant > Mexican Restaurant > Taco Restaurant'],b'\x00\x00\x00\x00\x01\xc0ZQyM\x12\xddr@4\xb7)\xef\\\n%',"{'xmin': -105.27302862970626, 'ymin': 20.71548362729131, 'xmax': -105.27302862970626, 'ymax': 20.71548362729131}",dining and drinking > restaurant > mexican restaurant > taco restaurant,1
517a0c7a582f9939935c9fcb,Tacos Memo,20.71033509817129,-103.35032601099276,Federico Ibarra,Guadalajara,Jalisco,44220,,,,MX,2013-04-26,2021-08-14,,,,,,,,['4bf58dd8d48988d151941735'],['Dining and Drinking > Restaurant > Mexican Restaurant > Taco Restaurant'],b'\x00\x00\x00\x00\x01\xc0Y\xd6k\xbd\xca\t\xbb@4\xb5\xd8\x85_\xd8\xbd',"{'xmin': -103.35032601099276, 'ymin': 20.71033509817129, 'xmax': -103.35032601099276, 'ymax': 20.71033509817129}",dining and drinking > restaurant > mexican restaurant > taco restaurant,1
4c9ad30c9c66370410555cfd,Tacos La Casona,20.673849,-103.364459,López cotilla,Guadalajara,JAL,,,,,MX,2010-09-23,2021-08-15,,,,,,,,['4bf58dd8d48988d151941735'],['Dining and Drinking > Restaurant > Mexican Restaurant > Taco Restaurant'],b'\x00\x00\x00\x00\x01\xc0Y\xd7SK\xd7n\xe7@4\xac\x81^9q;',"{'xmin': -103.364459, 'ymin': 20.673849, 'xmax': -103.364459, 'ymax': 20.673849}",dining and drinking > restaurant > mexican restaurant > taco restaurant,1
57e71330498e4d95b9ba04ae,Taqueria El Santuario,21.104353,-101.6932,,León,Guanajuato,,,,,MX,2016-09-24,2020-11-24,,,,,,,,['4bf58dd8d48988d151941735'],['Dining and Drinking > Restaurant > Mexican Restaurant > Taco Restaurant'],b'\x00\x00\x00\x00\x01\xc0Yl]c\x88e\x95@5\x1a\xb6\xe0\xd2=O',"{'xmin': -101.6932, 'ymin': 21.104353, 'xmax': -101.6932, 'ymax': 21.104353}",dining and drinking > restaurant > mexican restaurant > taco restaurant,1
4c72cb2b7121a1cdb07963d1,Tacos De Cajuela,20.665749922074692,-103.38529568143993,,,,,,,,MX,2010-08-23,2021-08-10,,,,,,,,['4bf58dd8d48988d151941735'],['Dining and Drinking > Restaurant > Mexican Restaurant > Taco Restaurant'],b'\x00\x00\x00\x00\x01\xc0Y\xd8\xa8\xaf7\xc4\xc5@4\xaan\x96>\xa0\x17',"{'xmin': -103.38529568143993, 'ymin': 20.665749922074692, 'xmax': -103.38529568143993, 'ymax': 20.665749922074692}",dining and drinking > restaurant > mexican restaurant > taco restaurant,1
55e7b801498e6c9bd433fb0b,Wong,19.16035808930833,-96.15387657113509,,,,,,,,MX,2015-09-03,2021-08-12,,,,,,,,['4bf58dd8d48988d151941735'],['Dining and Drinking > Restaurant > Mexican Restaurant > Taco Restaurant'],b'\x00\x00\x00\x00\x01\xc0X\t\xd9\x1d\x1e)U@3)\r:M:s',"{'xmin': -96.15387657113509, 'ymin': 19.16035808930833, 'xmax': -96.15387657113509, 'ymax': 19.16035808930833}",dining and drinking > restaurant > mexican restaurant > taco restaurant,1
57460053498e73f5c2281d26,Taqueria Los Compadres,19.185379,-99.582825,,,,,,,,MX,2016-05-25,2020-11-22,,,,,,,,['4bf58dd8d48988d151941735'],['Dining and Drinking > Restaurant > Mexican Restaurant > Taco Restaurant'],b'\x00\x00\x00\x00\x01\xc0X\xe5M\x01:\x92\xa3@3/t\xff\x86]}',"{'xmin': -99.582825, 'ymin': 19.185379, 'xmax': -99.582825, 'ymax': 19.185379}",dining and drinking > restaurant > mexican restaurant > taco restaurant,1
526d4cfb498e2f3270e9e877,barbacoa Doña Silvia,19.329023361206055,-99.27175903320312,,,,,,,,MX,2013-10-27,2020-11-23,,,,,,,,['4bf58dd8d48988d151941735'],['Dining and Drinking > Restaurant > Mexican Restaurant > Taco Restaurant'],b'\x00\x00\x00\x00\x01\xc0X\xd1d\x80\x00\x00\x00@3T:\xe0\x00\x00\x00',"{'xmin': -99.27175903320312, 'ymin': 19.329023361206055, 'xmax': -99.27175903320312, 'ymax': 19.329023361206055}",dining and drinking > restaurant > mexican restaurant > taco restaurant,1
4c78753aa868370421900d4d,Tacos Los Poblanoa,18.91786100363524,-99.20024323150521,10 Abril,Cuernavaca,MOR,,,,,MX,2010-08-28,2020-11-25,,,,,,,,['4bf58dd8d48988d151941735'],['Dining and Drinking > Restaurant > Mexican Restaurant > Taco Restaurant'],b'\x00\x00\x00\x00\x01\xc0X\xcc\xd0\xc8\xfc\xa3\xdb@2\xea\xf8\xf0P\xe3\x19',"{'xmin': -99.20024323150521, 'ymin': 18.91786100363524, 'xmax': -99.20024323150521, 'ymax': 18.91786100363524}",dining and drinking > restaurant > mexican restaurant > taco restaurant,1
5f7395eeed2c76444627bca2,Terraza Express,19.294832,-99.17672,Av. San Fernando 466,Ciudad de México,Ciudad de México,14000,,,,MX,2020-09-29,2023-09-13,,,,,,,,['4bf58dd8d48988d151941735'],['Dining and Drinking > Restaurant > Mexican Restaurant > Taco Restaurant'],b'\x00\x00\x00\x00\x01\xc0X\xcbOag#%@3Kz\x1c%\xd0t',"{'xmin': -99.17672, 'ymin': 19.294832, 'xmax': -99.17672, 'ymax': 19.294832}",dining and drinking > restaurant > mexican restaurant > taco restaurant,1
506466e0498ee7dbb8756dde,"Tacos De La ""Y""",17.548616,-98.565311,,,,,,,,MX,2012-09-27,2021-08-12,,,,,,,,['4bf58dd8d48988d151941735'],['Dining and Drinking > Restaurant > Mexican Restaurant > Taco Restaurant'],"b'\x00\x00\x00\x00\x01\xc0X\xa4.\x0e0Dk@1\x8cr\x19""\x0f\xf5'","{'xmin': -98.565311, 'ymin': 17.548616, 'xmax': -98.565311, 'ymax': 17.548616}",dining and drinking > restaurant > mexican restaurant > taco restaurant,1
5c9ed25be1f228002c2b45c8,El Pá,19.31788,-99.24234,,Ciudad de México,Ciudad de México,10020,,,,MX,2019-03-30,2020-11-26,,,,,,,,['4bf58dd8d48988d151941735'],['Dining and Drinking > Restaurant > Mexican Restaurant > Taco Restaurant'],b'\x00\x00\x00\x00\x01\xc0X\xcf\x82\x7f\xa1\xa0\xcf@3Q`\x95l\ro',"{'xmin': -99.24234, 'ymin': 19.31788, 'xmax': -99.24234, 'ymax': 19.31788}",dining and drinking > restaurant > mexican restaurant > taco restaurant,1
4edaa5449a5286d91faf316d,Taco Salsa,19.30303811324202,-99.64911889781773,,,,,,,,MX,2011-12-03,2021-08-14,,,,,,,,['4bf58dd8d48988d151941735'],['Dining and Drinking > Restaurant > Mexican Restaurant > Taco Restaurant'],b'\x00\x00\x00\x00\x01\xc0X\xe9\x8b)\xfdU\xef@3M\x93\xe7\xe1\xd0\xe7',"{'xmin': -99.64911889781773, 'ymin': 19.30303811324202, 'xmax': -99.64911889781773, 'ymax': 19.30303811324202}",dining and drinking > restaurant > mexican restaurant > taco restaurant,1
506b9e96e4b0b06da5d2d995,"Taquería ""La Palma del Sur""",19.268236397821713,-99.60473244637939,Av. Estado de México,Metepec,México,,,,,MX,2012-10-03,2020-11-22,,,,,,,,['4bf58dd8d48988d151941735'],['Dining and Drinking > Restaurant > Mexican Restaurant > Taco Restaurant'],b'\x00\x00\x00\x00\x01\xc0X\xe6\xb3\xef\xb8\x01\xe4@3D\xab#\xfc=\xb9',"{'xmin': -99.60473244637939, 'ymin': 19.268236397821713, 'xmax': -99.60473244637939, 'ymax': 19.268236397821713}",dining and drinking > restaurant > mexican restaurant > taco restaurant,1
5304127e498e003066257aeb,"Tacos ""el Juanga"" (Toluca, MEX)",19.293056358780294,-99.6652721699411,,,,,,,,MX,2014-02-19,2021-08-10,,,,,,,,['4bf58dd8d48988d151941735'],['Dining and Drinking > Restaurant > Mexican Restaurant > Taco Restaurant'],b'\x00\x00\x00\x00\x01\xc0X\xea\x93\xd1\xb95\x81@3K\x05\xbd\xd4\xd8\xa1',"{'xmin': -99.6652721699411, 'ymin': 19.293056358780294, 'xmax': -99.6652721699411, 'ymax': 19.293056358780294}",dining and drinking > restaurant > mexican restaurant > taco restaurant,1
5159c8dde4b0655023d3f368,"Antojitos ""Tere""",18.472260641063958,-97.39815194880755,,,,,,,,MX,2013-04-01,2023-12-20,,55 5355 0283,,,,,,['4bf58dd8d48988d151941735'],['Dining and Drinking > Restaurant > Mexican Restaurant > Taco Restaurant'],b'\x00\x00\x00\x00\x01\xc0XY{RO\xbd\xe5@2x\xe6\x12\xc8\x8e\xc5',"{'xmin': -97.39815194880755, 'ymin': 18.472260641063958, 'xmax': -97.39815194880755, 'ymax': 18.472260641063958}",dining and drinking > restaurant > mexican restaurant > taco restaurant,1
58a33d7c5e56b45504e5f814,Chabocho,19.67487,-101.179184,,,,,,,,MX,2017-02-14,2021-08-14,,,,,,,,['4bf58dd8d48988d151941735'],['Dining and Drinking > Restaurant > Mexican Restaurant > Taco Restaurant'],b'\x00\x00\x00\x00\x01\xc0YKw\xc0*\xfd\xdb@3\xac\xc4G\xc3\r0',"{'xmin': -101.179184, 'ymin': 19.67487, 'xmax': -101.179184, 'ymax': 19.67487}",dining and drinking > restaurant > mexican restaurant > taco restaurant,1
57ca2fb4498e2b6e351784df,la kan-chita,18.946346,-99.233911,,Cuernavaca,,,,,,MX,2016-09-03,2020-11-22,,,,,,,,['4bf58dd8d48988d1df931735' '4bf58dd8d48988d151941735'],"['Dining and Drinking > Restaurant > BBQ Joint'
 'Dining and Drinking > Restaurant > Mexican Restaurant > Taco Restaurant']",b'\x00\x00\x00\x00\x01\xc0X\xce\xf8e\xd7\xcb.@2\xf2C\xbb@\xb3N',"{'xmin': -99.233911, 'ymin': 18.946346, 'xmax': -99.233911, 'ymax': 18.946346}","dining and drinking > restaurant > bbq joint, dining and drinking > restaurant > mexican restaurant > taco restaurant",1
59321a20e185f3283a03c1fd,Taqueria Arandas,20.291769,-103.192096,,Chapala,JAL,,,,,MX,2017-06-03,2023-09-09,,,,,,,,['4bf58dd8d48988d151941735'],['Dining and Drinking > Restaurant > Mexican Restaurant > Taco Restaurant'],b'\x00\x00\x00\x00\x01\xc0Y\xccKM\x05lQ@4J\xb1_\x88\xfc\x93',"{'xmin': -103.192096, 'ymin': 20.291769, 'xmax': -103.192096, 'ymax': 20.291769}",dining and drinking > restaurant > mexican restaurant > taco restaurant,1
53532e72498e01e61921dd8b,torteria y taqueria garage,18.824833,-99.229798,,,,,,,,MX,2014-04-20,2021-08-14,,,,,,,,['4bf58dd8d48988d151941735'],['Dining and Drinking > Restaurant > Mexican Restaurant > Taco Restaurant'],b'\x00\x00\x00\x00\x01\xc0X\xce\xb5\x02\xab\xab\xeb@2\xd3(Ag\xa9]',"{'xmin': -99.229798, 'ymin': 18.824833, 'xmax': -99.229798, 'ymax': 18.824833}",dining and drinking > restaurant > mexican restaurant > taco restaurant,1
4d8423c07e8ef04d22e305be,Cochinita Pibil La Morena,19.285181113414726,-99.66546798621215,Felipe Villanueva,Toluca,,,,,,MX,2011-03-19,2020-11-30,,,,,,,,['4bf58dd8d48988d151941735'],['Dining and Drinking > Restaurant > Mexican Restaurant > Taco Restaurant'],b'\x00\x00\x00\x00\x01\xc0X\xea\x97\x07\tT<@3I\x01\xa1#\x8d\x99',"{'xmin': -99.66546798621215, 'ymin': 19.285181113414726, 'xmax': -99.66546798621215, 'ymax': 19.285181113414726}",dining and drinking > restaurant > mexican restaurant > taco restaurant,1
4ddf035eae60c015c08d8608,Taco & Chilli,19.27945971389493,-99.65417665935436,,Toluca de Lerdo,MEX,,,,,MX,2011-05-27,2020-11-23,,,,,,,,['4bf58dd8d48988d151941735'],['Dining and Drinking > Restaurant > Mexican Restaurant > Taco Restaurant'],b'\x00\x00\x00\x00\x01\xc0X\xe9\xde\x07\xc7n\xf2@3G\x8a\xab\xfb\xban',"{'xmin': -99.65417665935436, 'ymin': 19.27945971389493, 'xmax': -99.65417665935436, 'ymax': 19.27945971389493}",dining and drinking > restaurant > mexican restaurant > taco restaurant,1
530a4372498e1e3ecd64d1ae,Caballo Dorado,19.296374,-99.358087,Marqueza,,México,,,,,MX,2014-02-23,2020-11-23,,,,,,,,['4bf58dd8d48988d151941735'],['Dining and Drinking > Restaurant > Mexican Restaurant > Taco Restaurant'],b'\x00\x00\x00\x00\x01\xc0X\xd6\xea\xe5\xbc\x87\xdb@3K\xdf*\x9db|',"{'xmin': -99.358087, 'ymin': 19.296374, 'xmax': -99.358087, 'ymax': 19.296374}",dining and drinking > restaurant > mexican restaurant > taco restaurant,1
5082ac8ce4b094820a199d2b,Tacos Arandas El Sabor de Jalisco,19.30669064806469,-99.6052868601207,,,,,,,,MX,2012-10-20,2021-08-16,,,,,,,,['4bf58dd8d48988d151941735'],['Dining and Drinking > Restaurant > Mexican Restaurant > Taco Restaurant'],b'\x00\x00\x00\x00\x01\xc0X\xe6\xbd\x05\x19:\xaf@3N\x83G?mI',"{'xmin': -99.6052868601207, 'ymin': 19.30669064806469, 'xmax': -99.6052868601207, 'ymax': 19.30669064806469}",dining and drinking > restaurant > mexican restaurant > taco restaurant,1
54b7f110498e8bcbb2e91e05,Tacos Al Vapor Jonhy,20.35139998990285,-102.77364432431062,,,,,,,,MX,2015-01-15,2021-08-19,,,,,,,,['4bf58dd8d48988d151941735'],['Dining and Drinking > Restaurant > Mexican Restaurant > Taco Restaurant'],b'\x00\x00\x00\x00\x01\xc0Y\xb1\x83c{\xe9\x9c@4Y\xf5Y\x88r\x8d',"{'xmin': -102.77364432431062, 'ymin': 20.35139998990285, 'xmax': -102.77364432431062, 'ymax': 20.35139998990285}",dining and drinking > restaurant > mexican restaurant > taco restaurant,1
4f2b3e80e4b09513ae0a44d3,Las Legendarias Kekas De La Cande,19.330099276863866,-99.14847185046231,,,,,,,,MX,2012-02-03,2021-08-11,,,,,,,,['4bf58dd8d48988d151941735'],['Dining and Drinking > Restaurant > Mexican Restaurant > Taco Restaurant'],b'\x00\x00\x00\x00\x01\xc0X\xc9\x80\x90\x13\x87/@3T\x81b\xde\x90E',"{'xmin': -99.14847185046231, 'ymin': 19.330099276863866, 'xmax': -99.14847185046231, 'ymax': 19.330099276863866}",dining and drinking > restaurant > mexican restaurant > taco restaurant,1
4e569ba0227140cf12f77b76,Las Azaleas Madero,19.700100874635595,-101.1868639486062,Madero Oriente 472,Morelia,Michoacán,,,,,MX,2011-08-25,2020-11-22,,,,,,,,['4bf58dd8d48988d151941735'],['Dining and Drinking > Restaurant > Mexican Restaurant > Taco Restaurant'],b'\x00\x00\x00\x00\x01\xc0YK\xf5\x945\x04*@3\xb39\xcf\x98u\xfc',"{'xmin': -101.1868639486062, 'ymin': 19.700100874635595, 'xmax': -101.1868639486062, 'ymax': 19.700100874635595}",dining and drinking > restaurant > mexican restaurant > taco restaurant,1
5b00e75fb6eedb00396cd7f1,Tacos Panchini,19.313392,-99.572402,Miguel Hidalgo,Toluca de Lerdo,Edomex,50226,,,,MX,2018-05-20,2020-11-22,,,,,,,,['4bf58dd8d48988d151941735'],['Dining and Drinking > Restaurant > Mexican Restaurant > Taco Restaurant'],b'\x00\x00\x00\x00\x01\xc0X\xe4\xa2;\xff\x8a\x8f@3P:uF\xd3\xfa',"{'xmin': -99.572402, 'ymin': 19.313392, 'xmax': -99.572402, 'ymax': 19.313392}",dining and drinking > restaurant > mexican restaurant > taco restaurant,1
51807f87498e32f07cb3315d,Taqueria Diaz,18.343913,-99.534426,,,,,,,,MX,2013-05-01,2021-08-12,,,,,,,,['4bf58dd8d48988d151941735'],['Dining and Drinking > Restaurant > Mexican Restaurant > Taco Restaurant'],b'\x00\x00\x00\x00\x01\xc0X\xe24\t\x1c\x08t@2X\n\xae\xaf\xabT',"{'xmin': -99.534426, 'ymin': 18.343913, 'xmax': -99.534426, 'ymax': 18.343913}",dining and drinking > restaurant > mexican restaurant > taco restaurant,1
5afcfb682619ee002ce10d31,Khalifa Tacos Árabes,19.157253,-96.108066,Tiburon 262 Entre Salmon,Boca del Río,VER,94299,,,,MX,2018-05-17,2020-11-25,,,,,,,,['4bf58dd8d48988d151941735'],['Dining and Drinking > Restaurant > Mexican Restaurant > Taco Restaurant'],b'\x00\x00\x00\x00\x01\xc0X\x06\xea\x8d\xa7\xf3\xcf@3(A\xbb\x8c2\xa9',"{'xmin': -96.108066, 'ymin': 19.157253, 'xmax': -96.108066, 'ymax': 19.157253}",dining and drinking > restaurant > mexican restaurant > taco restaurant,1
50baf329e4b0275941ace773,cacahuatales,19.316878179574715,-99.11676049302062,Calzada Del Hueso,"Mexico,D.F",,,,,,MX,2012-12-02,2020-11-23,,,,,,,,['4bf58dd8d48988d151941735'],['Dining and Drinking > Restaurant > Mexican Restaurant > Taco Restaurant'],b'\x00\x00\x00\x00\x01\xc0X\xc7y\x01\x00\xbfB@3Q\x1e\xed\xaa\x16\xe4',"{'xmin': -99.11676049302062, 'ymin': 19.316878179574715, 'xmax': -99.11676049302062, 'ymax': 19.316878179574715}",dining and drinking > restaurant > mexican restaurant > taco restaurant,1
50e84a98e4b0645469e07805,Molino,17.551059,-99.500497,,,,,,,,MX,2013-01-05,2021-08-15,,,,,,,,['4bf58dd8d48988d151941735'],['Dining and Drinking > Restaurant > Mexican Restaurant > Taco Restaurant'],b'\x00\x00\x00\x00\x01\xc0X\xe0\x08$\x91\xaf\xc0@1\x8d\x123\xdf*\x9d',"{'xmin': -99.500497, 'ymin': 17.551059, 'xmax': -99.500497, 'ymax': 17.551059}",dining and drinking > restaurant > mexican restaurant > taco restaurant,1
4ea1ebd729c2abc8de9188a9,Taqueria Arandas,20.54206872693907,-103.3620821310262,,,,,,,,MX,2011-10-21,2020-11-22,,,,,,,,['4bf58dd8d48988d151941735'],['Dining and Drinking > Restaurant > Mexican Restaurant > Taco Restaurant'],"b'\x00\x00\x00\x00\x01\xc0Y\xd7,Z\x87\xceN@4\x8a\xc5\x04\x1ec>'","{'xmin': -103.3620821310262, 'ymin': 20.54206872693907, 'xmax': -103.3620821310262, 'ymax': 20.54206872693907}",dining and drinking > restaurant > mexican restaurant > taco restaurant,1
5222aaf711d2ca571fbebddd,Antojitos Doña Lucha,18.477492,-97.400095,,,,,,,,MX,2013-09-01,2021-08-16,,,,,,,,['4bf58dd8d48988d151941735'],['Dining and Drinking > Restaurant > Mexican Restaurant > Taco Restaurant'],b'\x00\x00\x00\x00\x01\xc0XY\x9b(\x0f\x12\xc2@2z<\xeal\x1a\x05',"{'xmin': -97.400095, 'ymin': 18.477492, 'xmax': -97.400095, 'ymax': 18.477492}",dining and drinking > restaurant > mexican restaurant > taco restaurant,1
5115ba17e4b02a268a1fef9d,Tacos San 1000T,19.30605823084439,-99.65086895716874,,,,,,,,MX,2013-02-09,2021-08-15,,,,,,,,['4bf58dd8d48988d151941735'],['Dining and Drinking > Restaurant > Mexican Restaurant > Taco Restaurant'],b'\x00\x00\x00\x00\x01\xc0X\xe9\xa7\xd6EA^@3NY\xd5\x0c%\xf5',"{'xmin': -99.65086895716874, 'ymin': 19.30605823084439, 'xmax': -99.65086895716874, 'ymax': 19.30605823084439}",dining and drinking > restaurant > mexican restaurant > taco restaurant,1
4fdd50fde4b02cb4ecc280fd,Takechy,19.708187,-101.107508,,,,,,,,MX,2012-06-17,2020-11-23,,,,,,,,['4bf58dd8d48988d151941735'],['Dining and Drinking > Restaurant > Mexican Restaurant > Taco Restaurant'],b'\x00\x00\x00\x00\x01\xc0YF\xe1i<\x03\xbc@3\xb5K\xbeDs\xcd',"{'xmin': -101.107508, 'ymin': 19.708187, 'xmax': -101.107508, 'ymax': 19.708187}",dining and drinking > restaurant > mexican restaurant > taco restaurant,1
541b9335498e2005460a6b67,Tacos Don Gerar,18.451659454458316,-97.3984264341877,,,,,,,,MX,2014-09-19,2021-08-14,,,,,,,,['4bf58dd8d48988d151941735'],['Dining and Drinking > Restaurant > Mexican Restaurant > Taco Restaurant'],"b'\x00\x00\x00\x00\x01\xc0XY\x7f\xd1\x96,\xad@2s\x9f\xf49\xd3\xe2'","{'xmin': -97.3984264341877, 'ymin': 18.451659454458316, 'xmax': -97.3984264341877, 'ymax': 18.451659454458316}",dining and drinking > restaurant > mexican restaurant > taco restaurant,1
629e0e69bb2edb7b558b99b6,Los Toreados,16.852707,-99.84772,,,,,,,,MX,2022-06-06,2022-06-06,,,,,,,,['4bf58dd8d48988d151941735'],['Dining and Drinking > Restaurant > Mexican Restaurant > Taco Restaurant'],b'\x00\x00\x00\x00\x01\xc0X\xf6A\x0bc\n\x91@0\xdaK\x01\x86\x11\xfd',"{'xmin': -99.84772, 'ymin': 16.852707, 'xmax': -99.84772, 'ymax': 16.852707}",dining and drinking > restaurant > mexican restaurant > taco restaurant,1
5119beade4b0a04499aaf3b5,quekas de la oriental,19.312320709228516,-99.11495208740234,,,,,,,,MX,2013-02-12,2021-08-13,,,,,,,,['4bf58dd8d48988d151941735'],['Dining and Drinking > Restaurant > Mexican Restaurant > Taco Restaurant'],b'\x00\x00\x00\x00\x01\xc0X\xc7[`\x00\x00\x00@3O\xf4@\x00\x00\x00',"{'xmin': -99.11495208740234, 'ymin': 19.312320709228516, 'xmax': -99.11495208740234, 'ymax': 19.312320709228516}",dining and drinking > restaurant > mexican restaurant > taco restaurant,1
50c4de91e4b0c7bb410bf1c7,Tacos De Mixiote,19.30484,-99.249693,,,,,,,,MX,2012-12-09,2021-08-15,,,,,,,,['4bf58dd8d48988d151941735'],['Dining and Drinking > Restaurant > Mexican Restaurant > Taco Restaurant'],b'\x00\x00\x00\x00\x01\xc0X\xcf\xfa\xf8YB\x91@3N\t\xfe\x86\x83<',"{'xmin': -99.249693, 'ymin': 19.30484, 'xmax': -99.249693, 'ymax': 19.30484}",dining and drinking > restaurant > mexican restaurant > taco restaurant,1
539273ff498eae4bad74afdc,El Asador Mix,18.45261634915848,-96.35335581727892,,,,,,,,MX,2014-06-07,2021-11-17,,,,,,,,['4bf58dd8d48988d151941735'],['Dining and Drinking > Restaurant > Mexican Restaurant > Taco Restaurant'],b'\x00\x00\x00\x00\x01\xc0X\x16\x9da\xb7\xc4\x1e@2s\xde\xaaAEE',"{'xmin': -96.35335581727892, 'ymin': 18.45261634915848, 'xmax': -96.35335581727892, 'ymax': 18.45261634915848}",dining and drinking > restaurant > mexican restaurant > taco restaurant,1
586a870e65e7c7534bcc006f,México Lindo y Que Rico,19.271404,-99.630132,"Hidalgo No 2, Colonia San Francisco Coaxusco",,,,,,,MX,2017-01-02,2020-11-24,,,,,,,,['4bf58dd8d48988d151941735'],['Dining and Drinking > Restaurant > Mexican Restaurant > Taco Restaurant'],b'\x00\x00\x00\x00\x01\xc0X\xe8T\x15+\np@3Ez\xbb\x88\x00\xeb',"{'xmin': -99.630132, 'ymin': 19.271404, 'xmax': -99.630132, 'ymax': 19.271404}",dining and drinking > restaurant > mexican restaurant > taco restaurant,1
518533a3498e495ee1011722,Restaurante Mi Taquito,17.05781247405294,-96.72817730671719,,,,,,,,MX,2013-05-04,2021-08-16,,,,,,,,['4bf58dd8d48988d151941735'],['Dining and Drinking > Restaurant > Mexican Restaurant > Taco Restaurant'],b'\x00\x00\x00\x00\x01\xc0X.\x9at\xfd\x82\x8a@1\x0e\xcc\xcc][\xb5',"{'xmin': -96.72817730671719, 'ymin': 17.05781247405294, 'xmax': -96.72817730671719, 'ymax': 17.05781247405294}",dining and drinking > restaurant > mexican restaurant > taco restaurant,1
553bbc60498ea359887e8b76,Tacos de Birria,19.585104610527026,-102.4675406070599,,,,,,,,MX,2015-04-25,2021-08-13,,,,,,,,['4bf58dd8d48988d151941735'],['Dining and Drinking > Restaurant > Mexican Restaurant > Taco Restaurant'],b'\x00\x00\x00\x00\x01\xc0Y\x9d\xec/p7\xf4@3\x95\xc9jn\xf3\xd0',"{'xmin': -102.4675406070599, 'ymin': 19.585104610527026, 'xmax': -102.4675406070599, 'ymax': 19.585104610527026}",dining and drinking > restaurant > mexican restaurant > taco restaurant,1
5145da9ee4b0352367ac232d,Tacos Y Flautas CHEPAS,19.224711,-100.130183,,,,,,,,MX,2013-03-17,2020-11-25,,,,,,,,['4bf58dd8d48988d151941735'],['Dining and Drinking > Restaurant > Mexican Restaurant > Taco Restaurant'],"b'\x00\x00\x00\x00\x01\xc0Y\x08T\xeb\x13\xdf\xb1@39\x86\xa8\xfc\r,'","{'xmin': -100.130183, 'ymin': 19.224711, 'xmax': -100.130183, 'ymax': 19.224711}",dining and drinking > restaurant > mexican restaurant > taco restaurant,1
57cc5689498e646cd6799862,Tacos de la Patrona,19.243642,-99.578208,,,,,,,,MX,2016-09-04,2020-11-24,,,,,,,,['4bf58dd8d48988d151941735'],['Dining and Drinking > Restaurant > Mexican Restaurant > Taco Restaurant'],b'\x00\x00\x00\x00\x01\xc0X\xe5\x01\\ \x92G@3>_Ru\xee\x9a',"{'xmin': -99.578208, 'ymin': 19.243642, 'xmax': -99.578208, 'ymax': 19.243642}",dining and drinking > restaurant > mexican restaurant > taco restaurant,1
586316c94bc2f1753b64bc4f,Salsa Caliente,19.110477,-96.10987,,,Veracruz,94290,,,,MX,2016-12-28,2021-08-16,,,,,,,,['4bf58dd8d48988d151941735'],['Dining and Drinking > Restaurant > Mexican Restaurant > Taco Restaurant'],b'\x00\x00\x00\x00\x01\xc0X\x07\x08\x1c.3\xf0@3\x1cH8}\xf5\xcf',"{'xmin': -96.10987, 'ymin': 19.110477, 'xmax': -96.10987, 'ymax': 19.110477}",dining and drinking > restaurant > mexican restaurant > taco restaurant,1
4f8234e6e4b024a26ef5b169,"Yesenia ""tacos Y Sopa Maruchan""",19.070986,-99.236581,,,,,,,,MX,2012-04-09,2020-11-23,,,,,,,,['4bf58dd8d48988d151941735'],['Dining and Drinking > Restaurant > Mexican Restaurant > Taco Restaurant'],"b'\x00\x00\x00\x00\x01\xc0X\xcf$$\xa2v\xb8@3\x12,#tyO'","{'xmin': -99.236581, 'ymin': 19.070986, 'xmax': -99.236581, 'ymax': 19.070986}",dining and drinking > restaurant > mexican restaurant > taco restaurant,1
5115c8cfe4b03bdda65dba9e,Vitorios,18.850108,-97.096005,,Orizaba,Veracruz,94325,,,,MX,2013-02-09,2020-11-22,,,,,,,,['4bf58dd8d48988d151941735'],['Dining and Drinking > Restaurant > Mexican Restaurant > Taco Restaurant'],"b""\x00\x00\x00\x00\x01\xc0XF$\xf2'\xd0)@2\xd9\xa0\xad\x8a\x11f""","{'xmin': -97.096005, 'ymin': 18.850108, 'xmax': -97.096005, 'ymax': 18.850108}",dining and drinking > restaurant > mexican restaurant > taco restaurant,1
4f960267e4b042e85634cb4f,tacos don alfredo,19.307053191046716,-99.60650984460113,"De La Arboleda, Jardines de La Crespa, 50016 Toluca, State of Mexico",Toluca,State of Mexico,,,,,MX,2012-04-24,2020-11-22,,,,,,,,['4bf58dd8d48988d151941735'],['Dining and Drinking > Restaurant > Mexican Restaurant > Taco Restaurant'],b'\x00\x00\x00\x00\x01\xc0X\xe6\xd1\x0e\xaa\xd0\xe4@3N\x9b\t\xb5\xad\x97',"{'xmin': -99.60650984460113, 'ymin': 19.307053191046716, 'xmax': -99.60650984460113, 'ymax': 19.307053191046716}",dining and drinking > restaurant > mexican restaurant > taco restaurant,1
5032e87de4b0d660de41b8f2,Carnes asadas PANCHILLO EL MIO,20.05626554831007,-102.71882845558932,,,,,,,,MX,2012-08-21,2021-08-11,,,,,,,,['4bf58dd8d48988d151941735'],['Dining and Drinking > Restaurant > Mexican Restaurant > Taco Restaurant'],b'\x00\x00\x00\x00\x01\xc0Y\xae\x01I\x11\x0c.@4\x0egkA\xe2\x1d',"{'xmin': -102.71882845558932, 'ymin': 20.05626554831007, 'xmax': -102.71882845558932, 'ymax': 20.05626554831007}",dining and drinking > restaurant > mexican restaurant > taco restaurant,1
518bf977498e4044991e5fdf,Taqueria Las Gorditas,14.899558663525923,-92.26277014525029,,,,,,,,MX,2013-05-09,2021-08-15,,,,,,,,['4bf58dd8d48988d151941735'],['Dining and Drinking > Restaurant > Mexican Restaurant > Taco Restaurant'],b'\x00\x00\x00\x00\x01\xc0W\x10\xd19\xdf\r\xc5@-\xcc\x92\xf4\x01Z\xc8',"{'xmin': -92.26277014525029, 'ymin': 14.899558663525923, 'xmax': -92.26277014525029, 'ymax': 14.899558663525923}",dining and drinking > restaurant > mexican restaurant > taco restaurant,1
4f6bfc03e4b0a6b7701485e1,Tacos Doña Vicky,17.555847648688903,-99.50480253612517,,,,,,,,MX,2012-03-23,2021-08-12,,,,,,,,['4bf58dd8d48988d151941735'],['Dining and Drinking > Restaurant > Mexican Restaurant > Taco Restaurant'],b'\x00\x00\x00\x00\x01\xc0X\xe0N\xafK\xe6\x1c@1\x8eL\x08\x10\xadf',"{'xmin': -99.50480253612517, 'ymin': 17.555847648688903, 'xmax': -99.50480253612517, 'ymax': 17.555847648688903}",dining and drinking > restaurant > mexican restaurant > taco restaurant,1
5053f85ce4b066826cc9296e,Tacos Juan diego,19.295737540074686,-99.1184030355199,,,,,,,,MX,2012-09-15,2021-08-13,,,,,,,,['4bf58dd8d48988d151941735'],['Dining and Drinking > Restaurant > Mexican Restaurant > Taco Restaurant'],b'\x00\x00\x00\x00\x01\xc0X\xc7\x93\xeaSS\x87@3K\xb5t\x96\xd1\xfd',"{'xmin': -99.1184030355199, 'ymin': 19.295737540074686, 'xmax': -99.1184030355199, 'ymax': 19.295737540074686}",dining and drinking > restaurant > mexican restaurant > taco restaurant,1
