fsq_place_id,name,latitude,longitude,address,locality,region,postcode,admin_region,post_town,po_box,country,date_created,date_refreshed,date_closed,tel,website,email,facebook_id,instagram,twitter,fsq_category_ids,fsq_category_labels,geom,bbox,labels_str,taco_restaurant
503598dbe4b042270e91cba8,Ke-Burrote,32.634997,-115.390823,Avenida misión San Diego,"Mexicali, BCN",Baja California,21378,,,,MX,2012-08-23,2020-11-23,,686 569 6995,,,573549359412015.0,,,['4bf58dd8d48988d153941735' '4bf58dd8d48988d151941735'],"['Dining and Drinking > Restaurant > Mexican Restaurant > Burrito Restaurant'
 'Dining and Drinking > Restaurant > Mexican Restaurant > Taco Restaurant']",b'\x00\x00\x00\x00\x01\xc0\\\xd9\x03>x\xe1\x93@@QG\x94\xea\x07p',"{'xmin': -115.390823, 'ymin': 32.634997, 'xmax': -115.390823, 'ymax': 32.634997}","dining and drinking > restaurant > mexican restaurant > burrito restaurant, dining and drinking > restaurant > mexican restaurant > taco restaurant",1
54cc5ae8498e7737c9893a70,Club 7 Asadero,31.86656379699707,-116.61923217773438,,,,,,,,MX,2015-01-31,2021-08-15,,,,,,,,['4bf58dd8d48988d151941735'],['Dining and Drinking > Restaurant > Mexican Restaurant > Taco Restaurant'],"b""\x00\x00\x00\x00\x01\xc0]'\xa1\x80\x00\x00\x00@?\xdd\xd7 \x00\x00\x00""","{'xmin': -116.61923217773438, 'ymin': 31.86656379699707, 'xmax': -116.61923217773438, 'ymax': 31.86656379699707}",dining and drinking > restaurant > mexican restaurant > taco restaurant,1
5014bb30e4b05355710d24c1,Tacos sin nombre,32.4980354309082,-116.89104461669922,,,,,,,,MX,2012-07-29,2020-11-25,,,,,,,,['4bf58dd8d48988d151941735'],['Dining and Drinking > Restaurant > Mexican Restaurant > Taco Restaurant'],b'\x00\x00\x00\x00\x01\xc0]9\x06\xe0\x00\x00\x00@@?\xbf\xa0\x00\x00\x00',"{'xmin': -116.89104461669922, 'ymin': 32.4980354309082, 'xmax': -116.89104461669922, 'ymax': 32.4980354309082}",dining and drinking > restaurant > mexican restaurant > taco restaurant,1
5740afe2498eb9c61e7bb6e2,Tacos De Borrego El Cesarin,32.654354,-115.42424,,,,,,,,MX,2016-05-21,2021-08-16,,,,,,,,['4bf58dd8d48988d151941735'],['Dining and Drinking > Restaurant > Mexican Restaurant > Taco Restaurant'],b'\x00\x00\x00\x00\x01\xc0\\\xdb&\xbf\x87i\xec@@S\xc1\xdf3\x00\xde',"{'xmin': -115.42424, 'ymin': 32.654354, 'xmax': -115.42424, 'ymax': 32.654354}",dining and drinking > restaurant > mexican restaurant > taco restaurant,1
577447cf498e08c9f6744066,Tacos Varios Cocina Exclusiva,32.503773,-116.985532,,,,,,,,MX,2016-06-29,2021-08-13,,,,,,,,['4bf58dd8d48988d151941735'],['Dining and Drinking > Restaurant > Mexican Restaurant > Taco Restaurant'],b'\x00\x00\x00\x00\x01\xc0]?\x12\xf4\xcfJV@@@{\xa27\xcd\xcd',"{'xmin': -116.985532, 'ymin': 32.503773, 'xmax': -116.985532, 'ymax': 32.503773}",dining and drinking > restaurant > mexican restaurant > taco restaurant,1
50319923e4b04d70bf7579e6,Festival del taco y la cerveza,31.860576727988352,-116.62409025060828,,,,,,,,MX,2012-08-20,2021-08-12,2014-02-22,,,,,,,['4bf58dd8d48988d151941735'],['Dining and Drinking > Restaurant > Mexican Restaurant > Taco Restaurant'],"b""\x00\x00\x00\x00\x01\xc0]'\xf1\x18<\x07\\@?\xdcN\xc1\xa6h\x9e""","{'xmin': -116.62409025060828, 'ymin': 31.860576727988352, 'xmax': -116.62409025060828, 'ymax': 31.860576727988352}",dining and drinking > restaurant > mexican restaurant > taco restaurant,1
56b0355d38fa96195eaf0778,Tacos Don Meño,32.526598,-117.041947,,,,,,,,MX,2016-02-02,2021-08-16,,,,,,,,['4bf58dd8d48988d151941735'],['Dining and Drinking > Restaurant > Mexican Restaurant > Taco Restaurant'],b'\x00\x00\x00\x00\x01\xc0]B\xafBxJ\x94@@Cg\x902\x11\xcb',"{'xmin': -117.041947, 'ymin': 32.526598, 'xmax': -117.041947, 'ymax': 32.526598}",dining and drinking > restaurant > mexican restaurant > taco restaurant,1
50fc9655e4b01b26857f1d01,Taqueria El Buen Taquito,32.4781,-114.78011,Cjon Carranza 5ta,San Luis Rio Colorado,Sonora,,,,,MX,2013-01-21,2020-11-26,,,,,,,,['4bf58dd8d48988d151941735'],['Dining and Drinking > Restaurant > Mexican Restaurant > Taco Restaurant'],b'\x00\x00\x00\x00\x01\xc0\\\xb1\xedR~R\x15@@=2a|\x1b\xda',"{'xmin': -114.78011, 'ymin': 32.4781, 'xmax': -114.78011, 'ymax': 32.4781}",dining and drinking > restaurant > mexican restaurant > taco restaurant,1
5380c1f5498e59fb622f1d46,Tacos de Cabeza La Unica De Culiacán - Otay,32.52955237371705,-116.97451725601734,,,,,,,,MX,2014-05-24,2021-08-12,,,,,,,,['4bf58dd8d48988d151941735'],['Dining and Drinking > Restaurant > Mexican Restaurant > Taco Restaurant'],b'\x00\x00\x00\x00\x01\xc0]>^}\x9f\xfe\xdb@@C\xc8_GQ$',"{'xmin': -116.97451725601734, 'ymin': 32.52955237371705, 'xmax': -116.97451725601734, 'ymax': 32.52955237371705}",dining and drinking > restaurant > mexican restaurant > taco restaurant,1
529ba42011d2e6613f2543d5,Carnitas Mi culiacán,32.532252385498374,-117.0753542818261,,,,,,,,MX,2013-12-01,2021-08-12,,,,,,,,['4bf58dd8d48988d151941735'],['Dining and Drinking > Restaurant > Mexican Restaurant > Taco Restaurant'],b'\x00\x00\x00\x00\x01\xc0]D\xd2\x9a\xc4\x03\xa0@@D \xd8\x9ew}',"{'xmin': -117.0753542818261, 'ymin': 32.532252385498374, 'xmax': -117.0753542818261, 'ymax': 32.532252385498374}",dining and drinking > restaurant > mexican restaurant > taco restaurant,1
4e7e20cd0cd696305d334e47,Tacos el Wero,31.851223964053403,-116.61450862884521,Boulevard Las Dunas No. 115 Playa Ensenada,Ensenada,Baja California,22880,,,,MX,2011-09-24,2020-11-22,,,,,,,,"['4bf58dd8d48988d1cb941735' '4bf58dd8d48988d151941735'
 '4d4ae6fc7a7b7dea34424761']","['Dining and Drinking > Food Truck'
 'Dining and Drinking > Restaurant > Mexican Restaurant > Taco Restaurant'
 'Dining and Drinking > Restaurant > Fried Chicken Joint']","b""\x00\x00\x00\x00\x01\xc0]'T\x1c\x00\x00\x00@?\xd9\xe9\xd0O.L""","{'xmin': -116.61450862884521, 'ymin': 31.851223964053403, 'xmax': -116.61450862884521, 'ymax': 31.851223964053403}","dining and drinking > food truck, dining and drinking > restaurant > mexican restaurant > taco restaurant, dining and drinking > restaurant > fried chicken joint",1
5ad6b9d9c876c87c73eb3217,El Buen Pastor,32.619736,-115.488495,Cataratas del Niagara,Mexicali,Baja California,21339,,,,MX,2018-04-18,2020-11-20,,,,,,,,['4bf58dd8d48988d151941735'],['Dining and Drinking > Restaurant > Mexican Restaurant > Taco Restaurant'],b'\x00\x00\x00\x00\x01\xc0\\\xdfC\x80\x88P\x9c@@OS\x82^\x13\xb2',"{'xmin': -115.488495, 'ymin': 32.619736, 'xmax': -115.488495, 'ymax': 32.619736}",dining and drinking > restaurant > mexican restaurant > taco restaurant,1
4fd8e5afe4b0c84934020abb,Tacos El chief,32.62265529497488,-115.44278402120307,,,,,,,,MX,2012-06-13,2023-12-19,,686 124 8423,,,,,,['4bf58dd8d48988d151941735' '4bf58dd8d48988d153941735'],"['Dining and Drinking > Restaurant > Mexican Restaurant > Taco Restaurant'
 'Dining and Drinking > Restaurant > Mexican Restaurant > Burrito Restaurant']",b'\x00\x00\x00\x00\x01\xc0\\\xdcV\x92\xca\x90\x8c@@O\xb3+0L\x96',"{'xmin': -115.44278402120307, 'ymin': 32.62265529497488, 'xmax': -115.44278402120307, 'ymax': 32.62265529497488}","dining and drinking > restaurant > mexican restaurant > taco restaurant, dining and drinking > restaurant > mexican restaurant > burrito restaurant",1
5646acd7498e2673f37b6f63,Antojitos Esperanza,31.86795,-116.623714,Calle Sexta,Ensenada,Baja California,,,,,MX,2015-11-14,2020-11-25,,,,,,,,['4bf58dd8d48988d151941735'],['Dining and Drinking > Restaurant > Mexican Restaurant > Taco Restaurant'],"b""\x00\x00\x00\x00\x01\xc0]'\xea\xee \x03\xac@?\xde1\xf8\xa0\x90.""","{'xmin': -116.623714, 'ymin': 31.86795, 'xmax': -116.623714, 'ymax': 31.86795}",dining and drinking > restaurant > mexican restaurant > taco restaurant,1
4e6975b7d22d0e4cf5a0fb73,Tacos Poncho,32.57199,-116.65519,,Tecate,,,,,,MX,2011-09-09,2020-11-22,,,,,,,,['4bf58dd8d48988d151941735'],['Dining and Drinking > Restaurant > Mexican Restaurant > Taco Restaurant'],b'\x00\x00\x00\x00\x01\xc0])\xee\xa2\t\xaa\xa4@@I6\xf7\xe3\xd1\xcc',"{'xmin': -116.65519, 'ymin': 32.57199, 'xmax': -116.65519, 'ymax': 32.57199}",dining and drinking > restaurant > mexican restaurant > taco restaurant,1
50232b15e4b0848947a1d5a9,Los Pericos,32.52358,-117.021462,,,,,,,,MX,2012-08-09,2021-08-16,,,,,,,,['4bf58dd8d48988d151941735'],['Dining and Drinking > Restaurant > Mexican Restaurant > Taco Restaurant'],"b""\x00\x00\x00\x00\x01\xc0]A_\xa2'\x06\xd5@@C\x04\xab`k{""","{'xmin': -117.021462, 'ymin': 32.52358, 'xmax': -117.021462, 'ymax': 32.52358}",dining and drinking > restaurant > mexican restaurant > taco restaurant,1
51ca0803498eff98c12d2ca7,Tito's Otay,32.54435002909579,-116.92612856191207,,,,,,,,MX,2013-06-25,2021-08-12,,,,,,,,['4bf58dd8d48988d151941735'],['Dining and Drinking > Restaurant > Mexican Restaurant > Taco Restaurant'],b'\x00\x00\x00\x00\x01\xc0];E\xb0\xbbSr@@E\xadC\x02E\x83',"{'xmin': -116.92612856191207, 'ymin': 32.54435002909579, 'xmax': -116.92612856191207, 'ymax': 32.54435002909579}",dining and drinking > restaurant > mexican restaurant > taco restaurant,1
50c38a3fe4b029171392a81f,"Barbacoa Estilo Hidalgo ""El tio""",32.507313,-116.918263,,,,,,,,MX,2012-12-08,2020-11-23,,,,,,,,['4bf58dd8d48988d151941735'],['Dining and Drinking > Restaurant > Mexican Restaurant > Taco Restaurant'],"b'\x00\x00\x00\x00\x01\xc0]:\xc4\xd2,\x88\x1e@@@\xef\xa1\xe3\xea\xf7'","{'xmin': -116.918263, 'ymin': 32.507313, 'xmax': -116.918263, 'ymax': 32.507313}",dining and drinking > restaurant > mexican restaurant > taco restaurant,1
5c7751c57b385f002c90e434,Taqueria Rizo,20.709669,-103.346288,,Guadalajara,JAL,44220,,,,MX,2019-02-28,2021-08-16,,,,,,,,['4bf58dd8d48988d151941735'],['Dining and Drinking > Restaurant > Mexican Restaurant > Taco Restaurant'],b'\x00\x00\x00\x00\x01\xc0Y\xd6)\x95$\xbf\xd3@4\xb5\xac\xde\x19\xfc+',"{'xmin': -103.346288, 'ymin': 20.709669, 'xmax': -103.346288, 'ymax': 20.709669}",dining and drinking > restaurant > mexican restaurant > taco restaurant,1
53daffee498ec60b090805bf,taquitos kiosko,19.082477,-104.306068,,,,,,,,MX,2014-08-01,2021-08-14,,,,,,,,['4bf58dd8d48988d151941735'],['Dining and Drinking > Restaurant > Mexican Restaurant > Taco Restaurant'],b'\x00\x00\x00\x00\x01\xc0Z\x13\x96\x9e<\x96\x89@3\x15\x1d6q\xac\x15',"{'xmin': -104.306068, 'ymin': 19.082477, 'xmax': -104.306068, 'ymax': 19.082477}",dining and drinking > restaurant > mexican restaurant > taco restaurant,1
4ee308f5a69d89905ab3f0c0,Lechusas (Jardín de tekis),22.150908963739013,-100.99150000853395,,Slp,Slp,,,,,MX,2011-12-10,2020-11-24,,,,,,,,['4bf58dd8d48988d151941735'],['Dining and Drinking > Restaurant > Mexican Restaurant > Taco Restaurant'],b'\x00\x00\x00\x00\x01\xc0Y?t\xbcs\xa8\xc5@6&\xa1\xf8G\xee\xac',"{'xmin': -100.99150000853395, 'ymin': 22.150908963739013, 'xmax': -100.99150000853395, 'ymax': 22.150908963739013}",dining and drinking > restaurant > mexican restaurant > taco restaurant,1
52556bc111d27164429bfbb9,Tacos de barbacoa Pepe,19.271832629164265,-103.73393698743088,,,,,,,,MX,2013-10-09,2021-08-15,,,,,,,,['4bf58dd8d48988d151941735'],['Dining and Drinking > Restaurant > Mexican Restaurant > Taco Restaurant'],b'\x00\x00\x00\x00\x01\xc0Y\xee\xf8\xd2\xd7\x95\xc9@3E\x96\xd2\xbc?\x08',"{'xmin': -103.73393698743088, 'ymin': 19.271832629164265, 'xmax': -103.73393698743088, 'ymax': 19.271832629164265}",dining and drinking > restaurant > mexican restaurant > taco restaurant,1
5382a946498ea6ffdd060d8a,La parrillita,22.171182023561695,-101.01633866221613,,,,,,,,MX,2014-05-26,2021-08-15,,,,,,,,['4bf58dd8d48988d151941735'],['Dining and Drinking > Restaurant > Mexican Restaurant > Taco Restaurant'],b'\x00\x00\x00\x00\x01\xc0YA\x0b\xb1P\xf8<@6+\xd2\x95\xc8\xdcO',"{'xmin': -101.01633866221613, 'ymin': 22.171182023561695, 'xmax': -101.01633866221613, 'ymax': 22.171182023561695}",dining and drinking > restaurant > mexican restaurant > taco restaurant,1
54bc1820498ec690652999db,"Birrieria ""Ahome"" 2",31.34206977355167,-113.53595966300045,,,,,,,,MX,2015-01-18,2021-08-13,,,,,,,,['4bf58dd8d48988d151941735'],['Dining and Drinking > Restaurant > Mexican Restaurant > Taco Restaurant'],b'\x00\x00\x00\x00\x01\xc0\\bM)\xc2#\xfa@?W\x91\xe2zZ\xc4',"{'xmin': -113.53595966300045, 'ymin': 31.34206977355167, 'xmax': -113.53595966300045, 'ymax': 31.34206977355167}",dining and drinking > restaurant > mexican restaurant > taco restaurant,1
64ac33d869e5f11326ce534d,Barbacoa Lic.,20.58502,-103.44121,,,Jalisco,45647,,,,MX,2023-07-10,2023-07-10,,,,,,,,['4bf58dd8d48988d151941735'],['Dining and Drinking > Restaurant > Mexican Restaurant > Taco Restaurant'],b'\x00\x00\x00\x00\x01\xc0Y\xdc<\xc8\xde*\xc3@4\x95\xc3\xde\xe7\x81\x84',"{'xmin': -103.44121, 'ymin': 20.58502, 'xmax': -103.44121, 'ymax': 20.58502}",dining and drinking > restaurant > mexican restaurant > taco restaurant,1
5a4ebb29464d6534b73aa1ac,Taqueria El Charro,20.691292,-103.32646,sierra madre 480 A,Guadalajara,Jalisco,44340,,,,MX,2018-01-04,2023-12-19,,33 3149 3238,,,,,,['4bf58dd8d48988d151941735'],['Dining and Drinking > Restaurant > Mexican Restaurant > Taco Restaurant'],b'\x00\x00\x00\x00\x01\xc0Y\xd4\xe4\xb8{\xdc\xf0@4\xb0\xf8\x833\xfc\x87',"{'xmin': -103.32646, 'ymin': 20.691292, 'xmax': -103.32646, 'ymax': 20.691292}",dining and drinking > restaurant > mexican restaurant > taco restaurant,1
61ec3f1fd48093409b759c47,Monster Taco,20.697769,-103.286624,Hacienda Jardin 3028,Guadalajara,JAL,44727,,,,MX,2022-01-22,2022-01-22,,,,,,,,['4bf58dd8d48988d151941735'],['Dining and Drinking > Restaurant > Mexican Restaurant > Taco Restaurant'],b'\x00\x00\x00\x00\x01\xc0Y\xd2X\x0c0\x8f\xeb@4\xb2\xa0\xfd;)\xa2',"{'xmin': -103.286624, 'ymin': 20.697769, 'xmax': -103.286624, 'ymax': 20.697769}",dining and drinking > restaurant > mexican restaurant > taco restaurant,1
50822153e4b0fedebd82cc7e,El Potro Loco,20.981150411640414,-101.28290105791696,Blvd. Euquerio Guerrero,Guanajuato,Guanajuato,,,,,MX,2012-10-20,2020-11-24,,,,,,,,['4bf58dd8d48988d153941735' '4bf58dd8d48988d151941735'],"['Dining and Drinking > Restaurant > Mexican Restaurant > Burrito Restaurant'
 'Dining and Drinking > Restaurant > Mexican Restaurant > Taco Restaurant']","b'\x00\x00\x00\x00\x01\xc0YR\x1b\r\t\xf0u@4\xfb,\xacbs\xd8'","{'xmin': -101.28290105791696, 'ymin': 20.981150411640414, 'xmax': -101.28290105791696, 'ymax': 20.981150411640414}","dining and drinking > restaurant > mexican restaurant > burrito restaurant, dining and drinking > restaurant > mexican restaurant > taco restaurant",1
54cdacc1498e66d2dac27865,I <3 These Tacos,20.796358108520508,-103.46864318847656,,,,,,,,MX,2015-02-01,2021-08-17,,,,,,,,['4bf58dd8d48988d151941735'],['Dining and Drinking > Restaurant > Mexican Restaurant > Taco Restaurant'],b'\x00\x00\x00\x00\x01\xc0Y\xdd\xfe@\x00\x00\x00@4\xcb\xde \x00\x00\x00',"{'xmin': -103.46864318847656, 'ymin': 20.796358108520508, 'xmax': -103.46864318847656, 'ymax': 20.796358108520508}",dining and drinking > restaurant > mexican restaurant > taco restaurant,1
4d9e1b3e5c33a35dfc5b11a1,Tacos Paco,20.634539320623897,-103.3918339460369,Isla Gomera 3460,Guadalajara,JAL,,,,,MX,2011-04-07,2021-08-15,,,,,,,,['4bf58dd8d48988d151941735'],['Dining and Drinking > Restaurant > Mexican Restaurant > Taco Restaurant'],b'\x00\x00\x00\x00\x01\xc0Y\xd9\x13\xce\xaf\xec;@4\xa2q+>\x1b\x0f',"{'xmin': -103.3918339460369, 'ymin': 20.634539320623897, 'xmax': -103.3918339460369, 'ymax': 20.634539320623897}",dining and drinking > restaurant > mexican restaurant > taco restaurant,1
586e837ca913305fa063efa2,"Tacos de barbacoa ""El Güero""",21.856665,-102.269935,Calle 1821,Aguascalientes,Aguascalientes,,,,,MX,2017-01-05,2020-11-30,,,,,,,,['4bf58dd8d48988d151941735'],['Dining and Drinking > Restaurant > Mexican Restaurant > Taco Restaurant'],b'\x00\x00\x00\x00\x01\xc0Y\x91F\x9dsB\xee@5\xdbNe\xbe\xa0\xba',"{'xmin': -102.269935, 'ymin': 21.856665, 'xmax': -102.269935, 'ymax': 21.856665}",dining and drinking > restaurant > mexican restaurant > taco restaurant,1
50b0fbbae4b0e7b98f5634e2,Tacos De Barbacoa El Kiosko,20.744876861572266,-103.42753601074219,Av. Del Valle,Zapopan,Jalisco,48138,,,,MX,2012-11-24,2020-11-30,,,,,,,,['4bf58dd8d48988d151941735'],['Dining and Drinking > Restaurant > Mexican Restaurant > Taco Restaurant'],b'\x00\x00\x00\x00\x01\xc0Y\xdb\\\xc0\x00\x00\x00@4\xbe\xb0@\x00\x00\x00',"{'xmin': -103.42753601074219, 'ymin': 20.744876861572266, 'xmax': -103.42753601074219, 'ymax': 20.744876861572266}",dining and drinking > restaurant > mexican restaurant > taco restaurant,1
4c81b1d32f1c236a78c93243,Quesadillas Miriam.com,19.202178964114584,-104.68316110206682,Av. Veracruz 162 . Barra de Navidad,Barra de navidad,Jalisco,,,,,MX,2010-09-04,2020-11-25,,,,,,,,['4bf58dd8d48988d151941735'],['Dining and Drinking > Restaurant > Mexican Restaurant > Taco Restaurant'],b'\x00\x00\x00\x00\x01\xc0Z+\xb8\xe9W\xd1\xaf@33\xc2\x00&\xcf\xb1',"{'xmin': -104.68316110206682, 'ymin': 19.202178964114584, 'xmax': -104.68316110206682, 'ymax': 19.202178964114584}",dining and drinking > restaurant > mexican restaurant > taco restaurant,1
501567b1e4b0be9af5d6fa41,Tacos Don Rafa!,19.212037446021707,-103.72136252878177,,Colima,COL,,,,,MX,2012-07-29,2020-11-24,,,,,,,,['4bf58dd8d48988d151941735'],['Dining and Drinking > Restaurant > Mexican Restaurant > Taco Restaurant'],b'\x00\x00\x00\x00\x01\xc0Y\xee*\xcd\xbdk]@36H\x16\x080\xcb',"{'xmin': -103.72136252878177, 'ymin': 19.212037446021707, 'xmax': -103.72136252878177, 'ymax': 19.212037446021707}",dining and drinking > restaurant > mexican restaurant > taco restaurant,1
505cb6d8e4b0b64eba50d423,Lonches de la prepa,20.6783142,-103.3507439,,,,,,,,MX,2012-09-21,2021-08-11,,,,,,,,['4bf58dd8d48988d151941735'],['Dining and Drinking > Restaurant > Mexican Restaurant > Taco Restaurant'],b'\x00\x00\x00\x00\x01\xc0Y\xd6r\x96\x8a\xf1`@4\xad\xa5\xff\xd9i\x93',"{'xmin': -103.3507439, 'ymin': 20.6783142, 'xmax': -103.3507439, 'ymax': 20.6783142}",dining and drinking > restaurant > mexican restaurant > taco restaurant,1
57899a6d498ea493351c03e6,Los Alteñitos,20.68509330274408,-103.44317071509658,,Guadalajara,Jalisco,,,,,MX,2016-07-16,2023-12-18,,33 1657 1166,,,,,,['4bf58dd8d48988d151941735'],['Dining and Drinking > Restaurant > Mexican Restaurant > Taco Restaurant'],b'\x00\x00\x00\x00\x01\xc0Y\xdc\\\xe8\xb3\xf8\xa0@4\xafbFQ\xfe\x94',"{'xmin': -103.44317071509658, 'ymin': 20.68509330274408, 'xmax': -103.44317071509658, 'ymax': 20.68509330274408}",dining and drinking > restaurant > mexican restaurant > taco restaurant,1
62addc0002b4cf4bcd084ce6,Tacos Pikos,21.857523,-102.2578,Av Mariano Hidalgo 405,Aguascalientes,Aguascalientes,20298,,,,MX,2022-06-18,2022-06-18,,,,,,,,['4bf58dd8d48988d151941735'],['Dining and Drinking > Restaurant > Mexican Restaurant > Taco Restaurant'],b'\x00\x00\x00\x00\x01\xc0Y\x90\x7f\xcb\x92:*@5\xdb\x86\xa0\x98\x91\\',"{'xmin': -102.2578, 'ymin': 21.857523, 'xmax': -102.2578, 'ymax': 21.857523}",dining and drinking > restaurant > mexican restaurant > taco restaurant,1
52411b81498e9798f21df9ab,Tacos Neto's.,20.660039097095847,-103.27821026642022,,,,,,,,MX,2013-09-24,2021-08-15,,,,,,,,['4bf58dd8d48988d151941735'],['Dining and Drinking > Restaurant > Mexican Restaurant > Taco Restaurant'],b'\x00\x00\x00\x00\x01\xc0Y\xd1\xce2n\xeb\xec@4\xa8\xf8R\x80\x1b\xa8',"{'xmin': -103.27821026642022, 'ymin': 20.660039097095847, 'xmax': -103.27821026642022, 'ymax': 20.660039097095847}",dining and drinking > restaurant > mexican restaurant > taco restaurant,1
566f7d6a498e8beda84607f4,Los de Aserrīn,19.690351,-101.192535,,,,,,,,MX,2015-12-15,2021-08-16,,,,,,,,['4bf58dd8d48988d151941735'],['Dining and Drinking > Restaurant > Mexican Restaurant > Taco Restaurant'],b'\x00\x00\x00\x00\x01\xc0YLR~R\x15w@3\xb0\xba\xd7\xd7\xc2\xca',"{'xmin': -101.192535, 'ymin': 19.690351, 'xmax': -101.192535, 'ymax': 19.690351}",dining and drinking > restaurant > mexican restaurant > taco restaurant,1
5659bdea498ef1ac5b73d14c,Tacos al vapor de Afuera De La Vitola,20.709394151144274,-103.37017113614453,Calle A-2,Guadalajara,Jalisco,,,,,MX,2015-11-28,2023-04-08,,,,,,,,['4bf58dd8d48988d151941735'],['Dining and Drinking > Restaurant > Mexican Restaurant > Taco Restaurant'],b'\x00\x00\x00\x00\x01\xc0Y\xd7\xb0\xe2F\xea~@4\xb5\x9a\xda\xe7#j',"{'xmin': -103.37017113614453, 'ymin': 20.709394151144274, 'xmax': -103.37017113614453, 'ymax': 20.709394151144274}",dining and drinking > restaurant > mexican restaurant > taco restaurant,1
51f2cb5d498e159108ed5124,puesto de muñin,20.6557674407959,-103.34297943115234,,Guadalajara,,,,,,MX,2013-07-26,2021-08-11,,,,,,,,['4bf58dd8d48988d151941735'],['Dining and Drinking > Restaurant > Mexican Restaurant > Taco Restaurant'],b'\x00\x00\x00\x00\x01\xc0Y\xd5\xf3`\x00\x00\x00@4\xa7\xe0`\x00\x00\x00',"{'xmin': -103.34297943115234, 'ymin': 20.6557674407959, 'xmax': -103.34297943115234, 'ymax': 20.6557674407959}",dining and drinking > restaurant > mexican restaurant > taco restaurant,1
58b1b40e8cfe547321a82fbe,Tacos El Cardenal,20.511442,-100.996519,,,,,,,,MX,2017-02-25,2021-08-13,,,,,,,,['4bf58dd8d48988d151941735'],['Dining and Drinking > Restaurant > Mexican Restaurant > Taco Restaurant'],b'\x00\x00\x00\x00\x01\xc0Y?\xc6\xf7\xa0\xb5\xee@4\x82\xed\xdc\xe7\xcd\x03',"{'xmin': -100.996519, 'ymin': 20.511442, 'xmax': -100.996519, 'ymax': 20.511442}",dining and drinking > restaurant > mexican restaurant > taco restaurant,1
59c07f1f61f07020ce89bce5,Tacos Jacarandas,20.619432,-103.388119,,Guadalajara,JAL,44980,,,,MX,2017-09-19,2021-08-13,,,,,,,,['4bf58dd8d48988d151941735'],['Dining and Drinking > Restaurant > Mexican Restaurant > Taco Restaurant'],b'\x00\x00\x00\x00\x01\xc0Y\xd8\xd6\xf1\x12\xfd3@4\x9e\x93\x18v\x18\x8b',"{'xmin': -103.388119, 'ymin': 20.619432, 'xmax': -103.388119, 'ymax': 20.619432}",dining and drinking > restaurant > mexican restaurant > taco restaurant,1
61b1c00e8b999d3223410fba,Tacos De Canasta Para Llevar,20.727318,-103.31653,Volcán Usulután 55,Guadalajara,Jalisco,44250,,,,MX,2021-12-09,2023-09-13,,,,,,,,['4bf58dd8d48988d151941735'],['Dining and Drinking > Restaurant > Mexican Restaurant > Taco Restaurant'],b'\x00\x00\x00\x00\x01\xc0Y\xd4B\x07\x0b\x8c\xfc@4\xba1\x83/\xca\xc9',"{'xmin': -103.31653, 'ymin': 20.727318, 'xmax': -103.31653, 'ymax': 20.727318}",dining and drinking > restaurant > mexican restaurant > taco restaurant,1
4fcba280e4b057a7ef159ec4,Carnitas El chenda,20.671752,-100.749602,,,,,,,,MX,2012-06-03,2021-08-14,,,,,,,,['4bf58dd8d48988d151941735'],['Dining and Drinking > Restaurant > Mexican Restaurant > Taco Restaurant'],b'\x00\x00\x00\x00\x01\xc0Y/\xf9z\xaa\xc1\t@4\xab\xf7\xf0g\x05\xc9',"{'xmin': -100.749602, 'ymin': 20.671752, 'xmax': -100.749602, 'ymax': 20.671752}",dining and drinking > restaurant > mexican restaurant > taco restaurant,1
50f81e0de4b0626fb7677796,tacos el socio,20.672793312728444,-103.37056036901167,,,,,,,,MX,2013-01-17,2021-08-15,,,,,,,,['4bf58dd8d48988d151941735'],['Dining and Drinking > Restaurant > Mexican Restaurant > Taco Restaurant'],"b'\x00\x00\x00\x00\x01\xc0Y\xd7\xb7B\xd6\x86S@4\xac<.\xbb""\xdc'","{'xmin': -103.37056036901167, 'ymin': 20.672793312728444, 'xmax': -103.37056036901167, 'ymax': 20.672793312728444}",dining and drinking > restaurant > mexican restaurant > taco restaurant,1
2820d11f10194941f34f7eb5,Taqueria,20.647112,-103.388686,Calle Diamante 2486,Guadalajara,Jalisco,44540,,,,MX,2010-11-04,2024-10-08,,,,,,,,['4bf58dd8d48988d151941735'],['Dining and Drinking > Restaurant > Mexican Restaurant > Taco Restaurant'],b'\x00\x00\x00\x00\x01\xc0Y\xd8\xe0;>\x9ap@4\xa5\xa9!\xcc\xd9b',"{'xmin': -103.388686, 'ymin': 20.647112, 'xmax': -103.388686, 'ymax': 20.647112}",dining and drinking > restaurant > mexican restaurant > taco restaurant,1
5f35f934b7a7675fb4fd4266,Tacos De Tripas Muñoz,21.866293,-102.313416,,Aguascalientes,AGS,20210,,,,MX,2020-08-14,2020-11-30,,,,,,,,['4bf58dd8d48988d151941735'],['Dining and Drinking > Restaurant > Mexican Restaurant > Taco Restaurant'],b'\x00\x00\x00\x00\x01\xc0Y\x94\x0f\x01\xfb\x82\xc3@5\xdd\xc5`\xc7\xc0\xf4',"{'xmin': -102.313416, 'ymin': 21.866293, 'xmax': -102.313416, 'ymax': 21.866293}",dining and drinking > restaurant > mexican restaurant > taco restaurant,1
5ba5aa213731ee002c84ca94,Takos,20.694772,-103.297114,Hacienda Santiago 2011,Guadalajara,JAL,44700,,,,MX,2018-09-22,2021-08-14,,,,,,,,['4bf58dd8d48988d151941735'],['Dining and Drinking > Restaurant > Mexican Restaurant > Taco Restaurant'],b'\x00\x00\x00\x00\x01\xc0Y\xd3\x03\xeapK\xc2@4\xb1\xdc\x93\xea-0',"{'xmin': -103.297114, 'ymin': 20.694772, 'xmax': -103.297114, 'ymax': 20.694772}",dining and drinking > restaurant > mexican restaurant > taco restaurant,1
54395ed5498eb1650c9b65f7,Tacos El Guero Alias El Ruso,20.628296688025273,-103.31997572553522,Niños Heroes 700,Tlaquepaque,Jalisco,,,,,MX,2014-10-11,2020-11-25,,,,,,,,['4bf58dd8d48988d151941735'],['Dining and Drinking > Restaurant > Mexican Restaurant > Taco Restaurant'],"b'\x00\x00\x00\x00\x01\xc0Y\xd4z{w,\x02@4\xa0\xd8\r?@\xf0'","{'xmin': -103.31997572553522, 'ymin': 20.628296688025273, 'xmax': -103.31997572553522, 'ymax': 20.628296688025273}",dining and drinking > restaurant > mexican restaurant > taco restaurant,1
4cee9e76f368b1f7c3a381f7,Tacos 'El Birrias',20.642182,-103.414843,Amado Nervo,Zapopan,JAL,,,,,MX,2010-11-25,2020-11-21,,,,,,,,['4bf58dd8d48988d151941735'],['Dining and Drinking > Restaurant > Mexican Restaurant > Taco Restaurant'],b'\x00\x00\x00\x00\x01\xc0Y\xda\x8c\xc9\xa7~_@4\xa4f\n \x14r',"{'xmin': -103.414843, 'ymin': 20.642182, 'xmax': -103.414843, 'ymax': 20.642182}",dining and drinking > restaurant > mexican restaurant > taco restaurant,1
62af783cc0047e36d4143109,Tacoyotl,20.752951,-105.451925,,Bahía de Banderas,NAY,,,,,MX,2022-06-19,2022-06-19,,,,,,,,['4bf58dd8d48988d151941735'],['Dining and Drinking > Restaurant > Mexican Restaurant > Taco Restaurant'],b'\x00\x00\x00\x00\x01\xc0Z\\\xecV\xd5\xcf\xab@4\xc0\xc1e\x90}\x91',"{'xmin': -105.451925, 'ymin': 20.752951, 'xmax': -105.451925, 'ymax': 20.752951}",dining and drinking > restaurant > mexican restaurant > taco restaurant,1
4ec147c2775b98876ed474be,Tacos La Comezón,20.984033248532914,-101.28840467928251,Don Juan Jiménez,Guanajuato,Guanajuato,,,,,MX,2011-11-14,2020-11-22,,,,,,,,['4bf58dd8d48988d151941735'],['Dining and Drinking > Restaurant > Mexican Restaurant > Taco Restaurant'],b'\x00\x00\x00\x00\x01\xc0YRu8\xe6b\x08@4\xfb\xe9\x9a\\\xa0!',"{'xmin': -101.28840467928251, 'ymin': 20.984033248532914, 'xmax': -101.28840467928251, 'ymax': 20.984033248532914}",dining and drinking > restaurant > mexican restaurant > taco restaurant,1
af8495db22b14db3b8e03e58,Fily,21.881622,-102.308336,Calle Pedro de Alba 472,Aguascalientes,Aguascalientes,20070,,,,MX,2010-11-04,2023-12-06,,,,,,,,['4bf58dd8d48988d151941735'],['Dining and Drinking > Restaurant > Mexican Restaurant > Taco Restaurant'],"b'\x00\x00\x00\x00\x01\xc0Y\x93\xbb\xc6\xeb\x0b|@5\xe1\xb1\xfa\xb9o""'","{'xmin': -102.308336, 'ymin': 21.881622, 'xmax': -102.308336, 'ymax': 21.881622}",dining and drinking > restaurant > mexican restaurant > taco restaurant,1
50932f5d19a99856ebe502b6,Los Takesos,20.635344599113886,-105.22668600082397,Viena 268,Puerto Vallarta,Jalisco,48310,,,,MX,2012-11-02,2020-11-24,,322 128 2982,,,,,,['4bf58dd8d48988d151941735'],['Dining and Drinking > Restaurant > Mexican Restaurant > Taco Restaurant'],b'\x00\x00\x00\x00\x01\xc0ZN\x82\x06\x00\x00\x00@4\xa2\xa5\xf1\x92\xe2f',"{'xmin': -105.22668600082397, 'ymin': 20.635344599113886, 'xmax': -105.22668600082397, 'ymax': 20.635344599113886}",dining and drinking > restaurant > mexican restaurant > taco restaurant,1
53933ac5498e7b5d5b894fae,el toro loco,21.902616500854492,-102.29013061523438,,,,,,,,MX,2014-06-07,2021-08-16,,,,,,,,['4bf58dd8d48988d151941735'],['Dining and Drinking > Restaurant > Mexican Restaurant > Taco Restaurant'],b'\x00\x00\x00\x00\x01\xc0Y\x92\x91\x80\x00\x00\x00@5\xe7\x11\xe0\x00\x00\x00',"{'xmin': -102.29013061523438, 'ymin': 21.902616500854492, 'xmax': -102.29013061523438, 'ymax': 21.902616500854492}",dining and drinking > restaurant > mexican restaurant > taco restaurant,1
56ac0252498eaae82977babe,El Amigo Guicho,21.188305001673537,-100.92448036741052,,,,,,,,MX,2016-01-30,2020-11-24,,,,,,,,['4bf58dd8d48988d151941735'],['Dining and Drinking > Restaurant > Mexican Restaurant > Taco Restaurant'],b'\x00\x00\x00\x00\x01\xc0Y;*\xaf\xb3\xf4\xa0@504\xc1\xaf\xdco',"{'xmin': -100.92448036741052, 'ymin': 21.188305001673537, 'xmax': -100.92448036741052, 'ymax': 21.188305001673537}",dining and drinking > restaurant > mexican restaurant > taco restaurant,1
53557b8f498e0ffb5d5028d4,la cueva de chucho,19.682571093897376,-101.18115026960352,Plaza Fiesta Camelinas,,,,,,,MX,2014-04-21,2021-08-14,,,,,,,,['4bf58dd8d48988d1c1941735' '4bf58dd8d48988d151941735'],"['Dining and Drinking > Restaurant > Mexican Restaurant'
 'Dining and Drinking > Restaurant > Mexican Restaurant > Taco Restaurant']",b'\x00\x00\x00\x00\x01\xc0YK\x97\xf7L\xe6\xf5@3\xae\xbc\xfa\xad{\xf3',"{'xmin': -101.18115026960352, 'ymin': 19.682571093897376, 'xmax': -101.18115026960352, 'ymax': 19.682571093897376}","dining and drinking > restaurant > mexican restaurant, dining and drinking > restaurant > mexican restaurant > taco restaurant",1
4f9f7753e4b0efa8465b2f2d,Tacos el Charco,22.145616537764518,-101.0082001100607,,,,,,,,MX,2012-05-01,2021-08-16,,,,,,,,['4bf58dd8d48988d151941735'],['Dining and Drinking > Restaurant > Mexican Restaurant > Taco Restaurant'],"b'\x00\x00\x00\x00\x01\xc0Y@\x86Y\xc1""2@6%G \x1bt\x92'","{'xmin': -101.0082001100607, 'ymin': 22.145616537764518, 'xmax': -101.0082001100607, 'ymax': 22.145616537764518}",dining and drinking > restaurant > mexican restaurant > taco restaurant,1
d842cce967ab426b19a9f970,Menuderia y Birreria la Garita,21.115604,-101.66674,Salida de los Gomez 208,León,Guanajuato,37320,,,,MX,2013-05-29,2023-12-06,,,,,,,,['4bf58dd8d48988d151941735'],['Dining and Drinking > Restaurant > Mexican Restaurant > Taco Restaurant'],b'\x00\x00\x00\x00\x01\xc0Yj\xab\xde?\xbb\xd8@5\x1d\x989GIk',"{'xmin': -101.66674, 'ymin': 21.115604, 'xmax': -101.66674, 'ymax': 21.115604}",dining and drinking > restaurant > mexican restaurant > taco restaurant,1
4fee1e81e4b003445a4cc6c1,Barbacoa ANGELOS,20.677705860744624,-103.43417356598418,Tchaikovsky,Guadalajara,Jalisco,45030,,,,MX,2012-06-29,2020-11-25,,,,,,,,['4bf58dd8d48988d151941735'],['Dining and Drinking > Restaurant > Mexican Restaurant > Taco Restaurant'],b'\x00\x00\x00\x00\x01\xc0Y\xdb\xc9\x7f\xec\xac%@4\xad~!\x9c4\xa8',"{'xmin': -103.43417356598418, 'ymin': 20.677705860744624, 'xmax': -103.43417356598418, 'ymax': 20.677705860744624}",dining and drinking > restaurant > mexican restaurant > taco restaurant,1
507b6fbbe4b05b62b441e5b6,"Tacos ""El Güero""",20.747966,-103.39809,,,,,,,,MX,2012-10-15,2021-08-12,,,,,,,,['4bf58dd8d48988d151941735'],['Dining and Drinking > Restaurant > Mexican Restaurant > Taco Restaurant'],b'\x00\x00\x00\x00\x01\xc0Y\xd9zNz\xb7V@4\xbfz\xb3$\x85\x1b',"{'xmin': -103.39809, 'ymin': 20.747966, 'xmax': -103.39809, 'ymax': 20.747966}",dining and drinking > restaurant > mexican restaurant > taco restaurant,1
5509d6d9498e2efefbdd9af7,Gera Barbacoa,20.679314,-103.42031,Maurice Baring,,,45110,,,,MX,2015-03-18,2021-08-11,,33 1434 5173,,,,,,['4bf58dd8d48988d151941735'],['Dining and Drinking > Restaurant > Mexican Restaurant > Taco Restaurant'],b'\x00\x00\x00\x00\x01\xc0Y\xda\xe6[\xea\x0b\xa2@4\xad\xe7\x85\xb5\xb7\x07',"{'xmin': -103.42031, 'ymin': 20.679314, 'xmax': -103.42031, 'ymax': 20.679314}",dining and drinking > restaurant > mexican restaurant > taco restaurant,1
50b6cee2e4b0a06146256f2c,Tacos Morsa,20.570641,-101.221065,,,,,,,,MX,2012-11-29,2021-08-12,,,,,,,,['4bf58dd8d48988d151941735'],['Dining and Drinking > Restaurant > Mexican Restaurant > Taco Restaurant'],b'\x00\x00\x00\x00\x01\xc0YN%\xed\xd0R\x93@4\x92\x15\x87P\xc1\xb9',"{'xmin': -101.221065, 'ymin': 20.570641, 'xmax': -101.221065, 'ymax': 20.570641}",dining and drinking > restaurant > mexican restaurant > taco restaurant,1
5724f42ecd1024dc49affeb1,RECETA SECRETA,20.638552816993702,-103.3125327047383,Matamoros 42,Tlaquepaque,Jalisco,,,,,MX,2016-04-30,2020-11-26,,,,,,,,['4bf58dd8d48988d151941735'],['Dining and Drinking > Restaurant > Mexican Restaurant > Taco Restaurant'],"b'\x00\x00\x00\x00\x01\xc0Y\xd4\x00\x89,r\x03@4\xa3x2\x89\xc1\xb2'","{'xmin': -103.3125327047383, 'ymin': 20.638552816993702, 'xmax': -103.3125327047383, 'ymax': 20.638552816993702}",dining and drinking > restaurant > mexican restaurant > taco restaurant,1
4f7fb25ce4b06d09f883e1e7,Tacos San Miguel,20.742066838361872,-103.36468251525672,Paseo de los Chopos 3020,Zapopan,Jalisco,45188,,,,MX,2012-04-07,2020-11-30,,,,,,,,['4bf58dd8d48988d151941735'],['Dining and Drinking > Restaurant > Mexican Restaurant > Taco Restaurant'],b'\x00\x00\x00\x00\x01\xc0Y\xd7V\xf5U\x1c\xd7@4\xbd\xf8\x17\xa25\xda',"{'xmin': -103.36468251525672, 'ymin': 20.742066838361872, 'xmax': -103.36468251525672, 'ymax': 20.742066838361872}",dining and drinking > restaurant > mexican restaurant > taco restaurant,1
587929c8102f470580032e38,"Tacos y Burros ""El Toro""",21.864992,-102.3033,,,Aguascalientes,20235,,,,MX,2017-01-13,2021-08-12,,,,,,,,['4bf58dd8d48988d151941735'],['Dining and Drinking > Restaurant > Mexican Restaurant > Taco Restaurant'],b'\x00\x00\x00\x00\x01\xc0Y\x93iDg8\x1d@5\xddp\x1d\x9fM8',"{'xmin': -102.3033, 'ymin': 21.864992, 'xmax': -102.3033, 'ymax': 21.864992}",dining and drinking > restaurant > mexican restaurant > taco restaurant,1
5d0b0371447b6d00249bb990,Taqueria El Carboncito,20.556288,-100.855389,,Celaya,GTO,38016,,,,MX,2019-06-20,2020-11-22,,,,,,,,['4bf58dd8d48988d151941735'],['Dining and Drinking > Restaurant > Mexican Restaurant > Taco Restaurant'],b'\x00\x00\x00\x00\x01\xc0Y6\xbe\xb1\x81\x16\xec@4\x8eh\xe3\xef(A',"{'xmin': -100.855389, 'ymin': 20.556288, 'xmax': -100.855389, 'ymax': 20.556288}",dining and drinking > restaurant > mexican restaurant > taco restaurant,1
54740cc8498e5a899637dfe6,"tacos ""El Negro""",21.86454200744629,-101.594970703125,Prof. Jesus Ibarra,Ojuelos De Jalisco,jalisco,47540,,,,MX,2014-11-25,2020-11-25,,,,,,,,['4bf58dd8d48988d151941735'],['Dining and Drinking > Restaurant > Mexican Restaurant > Taco Restaurant'],b'\x00\x00\x00\x00\x01\xc0Yf\x14\x00\x00\x00\x00@5\xddR\xa0\x00\x00\x00',"{'xmin': -101.594970703125, 'ymin': 21.86454200744629, 'xmax': -101.594970703125, 'ymax': 21.86454200744629}",dining and drinking > restaurant > mexican restaurant > taco restaurant,1
4ed6ec986c25acaaba2a4b13,"Tacos ""El Gallo""",22.144829495711832,-100.99362531525065,Terrazas 1040,San Luis Potosí,,,,,,MX,2011-12-01,2020-11-23,,,,,,,,['4bf58dd8d48988d151941735'],['Dining and Drinking > Restaurant > Mexican Restaurant > Taco Restaurant'],b'\x00\x00\x00\x00\x01\xc0Y?\x97\x8e\xa2^\xac@6%\x13\x8b\xbb\x94\x18',"{'xmin': -100.99362531525065, 'ymin': 22.144829495711832, 'xmax': -100.99362531525065, 'ymax': 22.144829495711832}",dining and drinking > restaurant > mexican restaurant > taco restaurant,1
51206c68e4b0f554374f80b6,Tacos Don Carmelo,19.238519192688884,-103.7006282893754,,,,,,,,MX,2013-02-17,2021-08-12,,,,,,,,['4bf58dd8d48988d151941735'],['Dining and Drinking > Restaurant > Mexican Restaurant > Taco Restaurant'],"b'\x00\x00\x00\x00\x01\xc0Y\xec\xd7\x18\taD@3=\x0f\x98\x04\x11,'","{'xmin': -103.7006282893754, 'ymin': 19.238519192688884, 'xmax': -103.7006282893754, 'ymax': 19.238519192688884}",dining and drinking > restaurant > mexican restaurant > taco restaurant,1
53e3ab4c498ec6568c42b424,tacos el cuñaoo,22.06927292533299,-102.27457888343326,Av Juárez,,,,,,,MX,2014-08-07,2021-08-16,,,,,,,,['4bf58dd8d48988d151941735'],['Dining and Drinking > Restaurant > Mexican Restaurant > Taco Restaurant'],b'\x00\x00\x00\x00\x01\xc0Y\x91\x92\xb3O!(@6\x11\xbb\xde\xd4\xcd\xae',"{'xmin': -102.27457888343326, 'ymin': 22.06927292533299, 'xmax': -102.27457888343326, 'ymax': 22.06927292533299}",dining and drinking > restaurant > mexican restaurant > taco restaurant,1
565922d1498e846ddec96cd5,Tacos De Costilla,20.73602968465861,-103.36263491975681,,,,,,,,MX,2015-11-28,2021-08-21,,,,,,,,['4bf58dd8d48988d151941735'],['Dining and Drinking > Restaurant > Mexican Restaurant > Taco Restaurant'],b'\x00\x00\x00\x00\x01\xc0Y\xd75i\x18/\x8f@4\xbclq\x00~r',"{'xmin': -103.36263491975681, 'ymin': 20.73602968465861, 'xmax': -103.36263491975681, 'ymax': 20.73602968465861}",dining and drinking > restaurant > mexican restaurant > taco restaurant,1
4bbca7a48a4fb71334f13b9d,Barbacoa El Hijin,20.53282242157063,-100.8463069673468,Irrigacion,Celaya,Gto,,,,,MX,2010-04-07,2021-12-18,,,,,,,,['4bf58dd8d48988d151941735'],['Dining and Drinking > Restaurant > Mexican Restaurant > Taco Restaurant'],b'\x00\x00\x00\x00\x01\xc0Y6)\xe4\xb2\xc8j@4\x88g\x0c\xdb8\xac',"{'xmin': -100.8463069673468, 'ymin': 20.53282242157063, 'xmax': -100.8463069673468, 'ymax': 20.53282242157063}",dining and drinking > restaurant > mexican restaurant > taco restaurant,1
4ec6c21102d5888e9afeccc6,Taqueria Delfines,20.626662,-105.223393,,Puerto Vallarta,Jalisco,,,,,MX,2011-11-18,2020-11-26,,,,,,,,['4bf58dd8d48988d151941735'],['Dining and Drinking > Restaurant > Mexican Restaurant > Taco Restaurant'],"b""\x00\x00\x00\x00\x01\xc0ZNL\x12'I\xf1@4\xa0l\xeb\xbb\xa5]""","{'xmin': -105.223393, 'ymin': 20.626662, 'xmax': -105.223393, 'ymax': 20.626662}",dining and drinking > restaurant > mexican restaurant > taco restaurant,1
5d34de4c36eb450008a1c02a,Tacos Fonseca,20.746004,-103.385625,,Zapopan,JAL,45130,,,,MX,2019-07-21,2020-11-25,,,,,,,,['4bf58dd8d48988d151941735'],['Dining and Drinking > Restaurant > Mexican Restaurant > Taco Restaurant'],b'\x00\x00\x00\x00\x01\xc0Y\xd8\xae\x14z\xe1H@4\xbe\xfa\x1e>\xafh',"{'xmin': -103.385625, 'ymin': 20.746004, 'xmax': -103.385625, 'ymax': 20.746004}",dining and drinking > restaurant > mexican restaurant > taco restaurant,1
4f41307be4b0f6acbbff0f50,Birrieria Villaseñor,20.65282014259713,-105.22041236022173,,,,,,,,MX,2012-02-19,2023-12-21,,322 140 4242,,,,,,['4bf58dd8d48988d151941735' '4bf58dd8d48988d1c1941735'],"['Dining and Drinking > Restaurant > Mexican Restaurant > Taco Restaurant'
 'Dining and Drinking > Restaurant > Mexican Restaurant']",b'\x00\x00\x00\x00\x01\xc0ZN\x1b<q\xb2V@4\xa7\x1f8\x8a\x9f\xee',"{'xmin': -105.22041236022173, 'ymin': 20.65282014259713, 'xmax': -105.22041236022173, 'ymax': 20.65282014259713}","dining and drinking > restaurant > mexican restaurant > taco restaurant, dining and drinking > restaurant > mexican restaurant",1
562949b4498eddb59557b268,Alebayfran,21.042062759399414,-101.80411529541016,,,,,,,,MX,2015-10-22,2020-11-23,,,,,,,,['4bf58dd8d48988d151941735'],['Dining and Drinking > Restaurant > Mexican Restaurant > Taco Restaurant'],b'\x00\x00\x00\x00\x01\xc0Ysv\xa0\x00\x00\x00@5\n\xc4\xa0\x00\x00\x00',"{'xmin': -101.80411529541016, 'ymin': 21.042062759399414, 'xmax': -101.80411529541016, 'ymax': 21.042062759399414}",dining and drinking > restaurant > mexican restaurant > taco restaurant,1
5004b634e4b03f55b39c6482,Tortas Gigantes La Única,20.872349015190274,-101.50953029431707,Ignacio Allende 17,Romita,Guanajuato,36200,,,,MX,2012-07-17,2020-11-24,,432 745 2620,,,,,,['4bf58dd8d48988d151941735'],['Dining and Drinking > Restaurant > Mexican Restaurant > Taco Restaurant'],b'\x00\x00\x00\x00\x01\xc0Y`\x9c$\xf3\x9ap@4\xdfRC\xda\xf0\xa6',"{'xmin': -101.50953029431707, 'ymin': 20.872349015190274, 'xmax': -101.50953029431707, 'ymax': 20.872349015190274}",dining and drinking > restaurant > mexican restaurant > taco restaurant,1
51f3eb0b498e0e823894f2b4,Tacos de res Chuy,21.0195154517891,-101.8506634362736,Alvaro Obregón,San Francisco Del Rincón,Guanajuato,,,,,MX,2013-07-27,2020-11-22,,,,,,,,['4bf58dd8d48988d151941735'],['Dining and Drinking > Restaurant > Mexican Restaurant > Taco Restaurant'],b'\x00\x00\x00\x00\x01\xc0YvqE\r\xac\xae@5\x04\xfe\xf6\xf33k',"{'xmin': -101.8506634362736, 'ymin': 21.0195154517891, 'xmax': -101.8506634362736, 'ymax': 21.0195154517891}",dining and drinking > restaurant > mexican restaurant > taco restaurant,1
5c132d38bf7dde002cc4d984,Tacos Mazatlecos,20.627175,-103.460578,Av. Mariano Otero,Zapopan,JAL,45066,,,,MX,2018-12-14,2020-11-24,,,,,,,,['4bf58dd8d48988d151941735'],['Dining and Drinking > Restaurant > Mexican Restaurant > Taco Restaurant'],b'\x00\x00\x00\x00\x01\xc0Y\xddz\x1c%\xd0t@4\xa0\x8e\x8aq\xdej',"{'xmin': -103.460578, 'ymin': 20.627175, 'xmax': -103.460578, 'ymax': 20.627175}",dining and drinking > restaurant > mexican restaurant > taco restaurant,1
4fd56e95e4b0052fbc602684,Bbdhfu,21.8975264154728,-102.31291097374125,,,,,,,,MX,2012-06-11,2021-08-11,2012-12-20,,,,,,,['4bf58dd8d48988d151941735'],['Dining and Drinking > Restaurant > Mexican Restaurant > Taco Restaurant'],b'\x00\x00\x00\x00\x01\xc0Y\x94\x06\xbb\xbf\xb1\xce@5\xe5\xc4J\x89\xc0u',"{'xmin': -102.31291097374125, 'ymin': 21.8975264154728, 'xmax': -102.31291097374125, 'ymax': 21.8975264154728}",dining and drinking > restaurant > mexican restaurant > taco restaurant,1
633901c8db136b79c0273bd9,Tacos Al Carbon El Tapatio,20.627269,-103.481837,Heroico Colegio Militar,Zapopan,JAL,45066,,,,MX,2022-10-02,2022-10-02,,,,,,,,['4bf58dd8d48988d151941735'],['Dining and Drinking > Restaurant > Mexican Restaurant > Taco Restaurant'],b'\x00\x00\x00\x00\x01\xc0Y\xde\xd6j\xdb@-@4\xa0\x94\xb3\x80\xcbl',"{'xmin': -103.481837, 'ymin': 20.627269, 'xmax': -103.481837, 'ymax': 20.627269}",dining and drinking > restaurant > mexican restaurant > taco restaurant,1
4ed2ac5eb634dd29943e2ff9,Tacos Don Javier,20.743489,-103.361406,,Zapopan,Jalisco,,,,,MX,2011-11-27,2020-11-25,,,,,,,,['4bf58dd8d48988d151941735'],['Dining and Drinking > Restaurant > Mexican Restaurant > Taco Restaurant'],b'\x00\x00\x00\x00\x01\xc0Y\xd7!F\xa1\xa5\x01@4\xbeUK\x8b\xef\x8d',"{'xmin': -103.361406, 'ymin': 20.743489, 'xmax': -103.361406, 'ymax': 20.743489}",dining and drinking > restaurant > mexican restaurant > taco restaurant,1
56566e47498ebb765e968718,Tacos,20.72857093811035,-103.40829467773438,,,,,,,,MX,2015-11-26,2021-08-11,,,,,,,,['4bf58dd8d48988d151941735'],['Dining and Drinking > Restaurant > Mexican Restaurant > Taco Restaurant'],b'\x00\x00\x00\x00\x01\xc0Y\xda!\x80\x00\x00\x00@4\xba\x83\xa0\x00\x00\x00',"{'xmin': -103.40829467773438, 'ymin': 20.72857093811035, 'xmax': -103.40829467773438, 'ymax': 20.72857093811035}",dining and drinking > restaurant > mexican restaurant > taco restaurant,1
4e0ff33bb61c637b97a0512a,Tacos Alhondiga,21.018454007720155,-101.25894115935785,,Guanajuato,Guanajuato,,,,,MX,2011-07-03,2020-11-24,,,,,,,,['4bf58dd8d48988d151941735'],['Dining and Drinking > Restaurant > Mexican Restaurant > Taco Restaurant'],b'\x00\x00\x00\x00\x01\xc0YP\x92}\xf0\xc1\xf0@5\x04\xb9f\xdf\xa3a',"{'xmin': -101.25894115935785, 'ymin': 21.018454007720155, 'xmax': -101.25894115935785, 'ymax': 21.018454007720155}",dining and drinking > restaurant > mexican restaurant > taco restaurant,1
506cf553e4b0dbcc80c8823e,tacos Del isste En La Azteca,21.099421826336958,-101.64979300192306,,,,,,,,MX,2012-10-04,2021-08-13,,,,,,,,['4bf58dd8d48988d151941735'],['Dining and Drinking > Restaurant > Mexican Restaurant > Taco Restaurant'],b'\x00\x00\x00\x00\x01\xc0Yi\x965c\x1bx@5\x19s\xb5t\xa06',"{'xmin': -101.64979300192306, 'ymin': 21.099421826336958, 'xmax': -101.64979300192306, 'ymax': 21.099421826336958}",dining and drinking > restaurant > mexican restaurant > taco restaurant,1
55b30d22498ecddd83a27fad,Bebeto's,22.146758,-100.896185,Cordillera Oriental 1420,San Luis Potosi,San Luis Potosi,,,,,MX,2015-07-25,2020-11-23,,,,,,,,['4bf58dd8d48988d151941735'],['Dining and Drinking > Restaurant > Mexican Restaurant > Taco Restaurant'],b'\x00\x00\x00\x00\x01\xc0Y9[\x18T\x8a\x9c@6%\x91\xee\xaam&',"{'xmin': -100.896185, 'ymin': 22.146758, 'xmax': -100.896185, 'ymax': 22.146758}",dining and drinking > restaurant > mexican restaurant > taco restaurant,1
5e263472125b4c0007947570,Tacos Al Vapor D' León,21.100464,-101.64671,Blvd. Fco. González Bocanegra 4504,León,Guanajuato,37530,,,,MX,2020-01-20,2020-11-23,,,,,,,,['4bf58dd8d48988d151941735'],['Dining and Drinking > Restaurant > Mexican Restaurant > Taco Restaurant'],b'\x00\x00\x00\x00\x01\xc0Yic\xb2V\xff\xc1@5\x19\xb8\x02:l\xe3',"{'xmin': -101.64671, 'ymin': 21.100464, 'xmax': -101.64671, 'ymax': 21.100464}",dining and drinking > restaurant > mexican restaurant > taco restaurant,1
59d447c966611626d0501b84,Pepe's Tacos,20.733205,-103.349061,Auditorio Benito Juarez,,Zapopan,,,,,MX,2017-10-04,2021-08-13,,,,,,,,['4bf58dd8d48988d151941735'],['Dining and Drinking > Restaurant > Mexican Restaurant > Taco Restaurant'],b'\x00\x00\x00\x00\x01\xc0Y\xd6W\x03\xf2\xd3\xc8@4\xbb\xb3R\xa8C\x81',"{'xmin': -103.349061, 'ymin': 20.733205, 'xmax': -103.349061, 'ymax': 20.733205}",dining and drinking > restaurant > mexican restaurant > taco restaurant,1
455366ed67cf411efffd2e95,Restaurante Juanitos,20.715025,-105.202379,Altamirano 254,Puerto Vallarta,Jalisco,48280,,,,MX,2013-04-12,2023-12-06,,322 281 1387,,,,,,['4bf58dd8d48988d151941735'],['Dining and Drinking > Restaurant > Mexican Restaurant > Taco Restaurant'],b'\x00\x00\x00\x00\x01\xc0ZL\xf3\xc7\x0c\x99k@4\xb7\x0b\xe0\xde\xd2\x89',"{'xmin': -105.202379, 'ymin': 20.715025, 'xmax': -105.202379, 'ymax': 20.715025}",dining and drinking > restaurant > mexican restaurant > taco restaurant,1
52faec06498ecd46ffe614f6,Tacos Colosio,21.4745097996102,-104.8530579288257,,,,,,,,MX,2014-02-12,2021-08-11,,,,,,,,['4bf58dd8d48988d151941735'],['Dining and Drinking > Restaurant > Mexican Restaurant > Taco Restaurant'],b'\x00\x00\x00\x00\x01\xc0Z6\x98\x80Hy\x98@5yyyf\xf5\x13',"{'xmin': -104.8530579288257, 'ymin': 21.4745097996102, 'xmax': -104.8530579288257, 'ymax': 21.4745097996102}",dining and drinking > restaurant > mexican restaurant > taco restaurant,1
6157138f87efcf17cfdebca9,Tacos La Guera,22.163026,-101.044904,,San Luis Potosí,S.L.P.,78413,,,,MX,2021-10-01,2021-10-01,,,,,,,,['4bf58dd8d48988d151941735'],['Dining and Drinking > Restaurant > Mexican Restaurant > Taco Restaurant'],b'\x00\x00\x00\x00\x01\xc0YB\xdf\xb5\x06\xddj@6)\xbc\x12je\xcf',"{'xmin': -101.044904, 'ymin': 22.163026, 'xmax': -101.044904, 'ymax': 22.163026}",dining and drinking > restaurant > mexican restaurant > taco restaurant,1
5140bab9e4b0249df61b8eb1,El Monchis,20.684279285790424,-103.33678615743638,Esmeralda 647,Guadalajara,Jalisco,44270,,,,MX,2013-03-13,2021-08-13,,,,,,,,['4bf58dd8d48988d151941735'],['Dining and Drinking > Restaurant > Mexican Restaurant > Taco Restaurant'],"b'\x00\x00\x00\x00\x01\xc0Y\xd5\x8d\xe7\x86\xfb\xd3@4\xaf,\xeda\xcc\xd4'","{'xmin': -103.33678615743638, 'ymin': 20.684279285790424, 'xmax': -103.33678615743638, 'ymax': 20.684279285790424}",dining and drinking > restaurant > mexican restaurant > taco restaurant,1
57af94c1498efaea859caaff,El Mono,21.51421,-104.88868,,Tepic,Nayarit,,,,,MX,2016-08-13,2020-11-25,,,,,,,,['4bf58dd8d48988d1c1941735' '4bf58dd8d48988d151941735'],"['Dining and Drinking > Restaurant > Mexican Restaurant'
 'Dining and Drinking > Restaurant > Mexican Restaurant > Taco Restaurant']","b'\x00\x00\x00\x00\x01\xc0Z8\xe0""\x14&\xfe@5\x83\xa3D=F\xb2'","{'xmin': -104.88868, 'ymin': 21.51421, 'xmax': -104.88868, 'ymax': 21.51421}","dining and drinking > restaurant > mexican restaurant, dining and drinking > restaurant > mexican restaurant > taco restaurant",1
5525cf83498ed80e69ad61c5,Tacos Revolución,20.6004532820508,-105.23757035351346,Olas Altas 485,Puerto Vallarta,Jalisco,48630,,,,MX,2015-04-09,2020-11-22,,322 222 1362,http://tacosrevolucion.com.mx,,,,,['4bf58dd8d48988d151941735' '4bf58dd8d48988d1c1941735'],"['Dining and Drinking > Restaurant > Mexican Restaurant > Taco Restaurant'
 'Dining and Drinking > Restaurant > Mexican Restaurant']",b'\x00\x00\x00\x00\x01\xc0ZO4ZH\xb5\xba@4\x99\xb7Ni/\x1e',"{'xmin': -105.23757035351346, 'ymin': 20.6004532820508, 'xmax': -105.23757035351346, 'ymax': 20.6004532820508}","dining and drinking > restaurant > mexican restaurant > taco restaurant, dining and drinking > restaurant > mexican restaurant",1
554e327b498e6aeeddafc8ad,Tacos Al Vapor El Zorro,20.68783950805664,-103.3391342163086,Brillante Esq. Eulogio Parra,Guadalajara,Jalisco,44280,,,,MX,2015-05-09,2021-08-16,,,,,,,,['4bf58dd8d48988d151941735'],['Dining and Drinking > Restaurant > Mexican Restaurant > Taco Restaurant'],b'\x00\x00\x00\x00\x01\xc0Y\xd5\xb4`\x00\x00\x00@4\xb0\x16@\x00\x00\x00',"{'xmin': -103.3391342163086, 'ymin': 20.68783950805664, 'xmax': -103.3391342163086, 'ymax': 20.68783950805664}",dining and drinking > restaurant > mexican restaurant > taco restaurant,1
4fac843ae4b027b735f3be3c,Las Burritas,21.092964914803115,-101.64687574136727,,,,,,,,MX,2012-05-11,2021-08-14,,,,,,,,['4bf58dd8d48988d151941735'],['Dining and Drinking > Restaurant > Mexican Restaurant > Taco Restaurant'],b'\x00\x00\x00\x00\x01\xc0Yifi\x82o\xe2@5\x17\xcc\x8ct\xc1;',"{'xmin': -101.64687574136727, 'ymin': 21.092964914803115, 'xmax': -101.64687574136727, 'ymax': 21.092964914803115}",dining and drinking > restaurant > mexican restaurant > taco restaurant,1
615e9454ed7a2500fa18c8a8,Taquerías Huicho’s,20.600676,-105.237979,Francisca Rodríguez,Puerto Vallarta,JAL,48380,,,,MX,2021-10-07,2021-10-07,,,,,,,,['4bf58dd8d48988d151941735'],['Dining and Drinking > Restaurant > Mexican Restaurant > Taco Restaurant'],b'\x00\x00\x00\x00\x01\xc0ZO;\x0cE\x88\xa0@4\x99\xc5\xe6\xff}\xfa',"{'xmin': -105.237979, 'ymin': 20.600676, 'xmax': -105.237979, 'ymax': 20.600676}",dining and drinking > restaurant > mexican restaurant > taco restaurant,1
4db4de500437fa536a356450,Tacos Villa Teresa,21.92216243237913,-102.28504178222948,Av. Constitución,Aguascalientes,AGS,,,,,MX,2011-04-25,2020-11-25,,,,,,,,['4bf58dd8d48988d151941735'],['Dining and Drinking > Restaurant > Mexican Restaurant > Taco Restaurant'],b'\x00\x00\x00\x00\x01\xc0Y\x92>\x1f\xe3*\xd4@5\xec\x12\xd6P\xab\x0e',"{'xmin': -102.28504178222948, 'ymin': 21.92216243237913, 'xmax': -102.28504178222948, 'ymax': 21.92216243237913}",dining and drinking > restaurant > mexican restaurant > taco restaurant,1
50c16439e4b01a1f415678ad,Cenaduria,20.68897755650231,-103.30444737410937,Santa Fe,Guadalajara,Jalisco,,,,,MX,2012-12-07,2021-08-16,,,,,,,,['4bf58dd8d48988d151941735'],['Dining and Drinking > Restaurant > Mexican Restaurant > Taco Restaurant'],b'\x00\x00\x00\x00\x01\xc0Y\xd3|\x10\xd6\xc9\xc8@4\xb0`\xd5H\xda\xfc',"{'xmin': -103.30444737410937, 'ymin': 20.68897755650231, 'xmax': -103.30444737410937, 'ymax': 20.68897755650231}",dining and drinking > restaurant > mexican restaurant > taco restaurant,1
598a73d9356b49253b304bb8,Taqueria La Plazita,20.52481,-100.762327,La Laja,Celaya,GTO,,,,,MX,2017-08-09,2020-11-22,,,,,,,,['4bf58dd8d48988d151941735'],['Dining and Drinking > Restaurant > Mexican Restaurant > Taco Restaurant'],b'\x00\x00\x00\x00\x01\xc0Y0\xc9\xf7/v\xe6@4\x86Y\xf2\xba\x9d\x1f',"{'xmin': -100.762327, 'ymin': 20.52481, 'xmax': -100.762327, 'ymax': 20.52481}",dining and drinking > restaurant > mexican restaurant > taco restaurant,1
56babbf1498e706b12b7b15e,Tacos Rafa,21.129045235183206,-101.68296108582827,20 Enero,Leon,Gto,37320,,,,MX,2016-02-10,2020-11-23,,,,,,,,['4bf58dd8d48988d151941735'],['Dining and Drinking > Restaurant > Mexican Restaurant > Taco Restaurant'],b'\x00\x00\x00\x00\x01\xc0Yk\xb5\xa2j\x04\xad@5!\t\x1b\xc8\xd1\x06',"{'xmin': -101.68296108582827, 'ymin': 21.129045235183206, 'xmax': -101.68296108582827, 'ymax': 21.129045235183206}",dining and drinking > restaurant > mexican restaurant > taco restaurant,1
5c242c8b356b49002c16639b,Ta' Como Quiero,21.011057,-101.28049,carretera Guanajuato-Marfil km. 1.6  Local No. 2,Marfil,Guanajuato,36251,,,,MX,2018-12-27,2020-11-25,,,,,,,,['4bf58dd8d48988d151941735'],['Dining and Drinking > Restaurant > Mexican Restaurant > Taco Restaurant'],b'\x00\x00\x00\x00\x01\xc0YQ\xf3\x8cT6\xb9@5\x02\xd4\xa1\xaddR',"{'xmin': -101.28049, 'ymin': 21.011057, 'xmax': -101.28049, 'ymax': 21.011057}",dining and drinking > restaurant > mexican restaurant > taco restaurant,1
4e7b6be29a52e8caa0734a04,Chamorros Jimmys,20.689075103761283,-103.30783789412934,,,,,,,,MX,2011-09-22,2021-08-13,,,,,,,,['4bf58dd8d48988d151941735'],['Dining and Drinking > Restaurant > Mexican Restaurant > Taco Restaurant'],b'\x00\x00\x00\x00\x01\xc0Y\xd3\xb3\x9d\xb5\xf0R@4\xb0g9\xdb$|',"{'xmin': -103.30783789412934, 'ymin': 20.689075103761283, 'xmax': -103.30783789412934, 'ymax': 20.689075103761283}",dining and drinking > restaurant > mexican restaurant > taco restaurant,1
52deac41498ef4f820dffd51,Tacos Herma,20.665096282958984,-103.39068603515625,Nebulosa,Guadalajara,,,,,,MX,2014-01-21,2021-08-12,,,,,,,,['4bf58dd8d48988d151941735'],['Dining and Drinking > Restaurant > Mexican Restaurant > Taco Restaurant'],b'\x00\x00\x00\x00\x01\xc0Y\xd9\x01\x00\x00\x00\x00@4\xaaC\xc0\x00\x00\x00',"{'xmin': -103.39068603515625, 'ymin': 20.665096282958984, 'xmax': -103.39068603515625, 'ymax': 20.665096282958984}",dining and drinking > restaurant > mexican restaurant > taco restaurant,1
50a98431e4b0534d8e47dec9,tacos don chuy,20.72445884898734,-103.34062676011953,Victor Hugo 234,Zapopan,jalisco,45190,,,,MX,2012-11-19,2020-11-23,,,,,,,,['4bf58dd8d48988d151941735'],['Dining and Drinking > Restaurant > Mexican Restaurant > Taco Restaurant'],"b'\x00\x00\x00\x00\x01\xc0Y\xd5\xcc\xd4.\xb6\xc6@4\xb9v""\x97\xb2\xcc'","{'xmin': -103.34062676011953, 'ymin': 20.72445884898734, 'xmax': -103.34062676011953, 'ymax': 20.72445884898734}",dining and drinking > restaurant > mexican restaurant > taco restaurant,1
51ef16ba498eb0cf6bb732b6,taqueria los cuñados,21.841231912210556,-102.3183401356425,,,,,,,,MX,2013-07-23,2021-08-16,,,,,,,,['4bf58dd8d48988d151941735'],['Dining and Drinking > Restaurant > Mexican Restaurant > Taco Restaurant'],b'\x00\x00\x00\x00\x01\xc0Y\x94_\xafM\xe5\xae@5\xd7Z\xf9\x7fK\xbf',"{'xmin': -102.3183401356425, 'ymin': 21.841231912210556, 'xmax': -102.3183401356425, 'ymax': 21.841231912210556}",dining and drinking > restaurant > mexican restaurant > taco restaurant,1
4fb97a3de4b0d7a48dad6ab8,"Loncheria Goyo ""El Cuñado""",21.245963663822398,-102.33413149353312,El Parían,San Juan de los Lagos,JAL,,,,,MX,2012-05-20,2020-11-24,,,,,,,,['4bf58dd8d48988d151941735'],['Dining and Drinking > Restaurant > Mexican Restaurant > Taco Restaurant'],b'\x00\x00\x00\x00\x01\xc0Y\x95bi\x0fRu@5>\xf7y\x84\x1f\x1d',"{'xmin': -102.33413149353312, 'ymin': 21.245963663822398, 'xmax': -102.33413149353312, 'ymax': 21.245963663822398}",dining and drinking > restaurant > mexican restaurant > taco restaurant,1
5303671a11d274b778d2a673,Cocina Taco Pbil,19.688067,-101.195952,,,,,,,,MX,2014-02-18,2021-08-15,,,,,,,,['4bf58dd8d48988d151941735'],['Dining and Drinking > Restaurant > Mexican Restaurant > Taco Restaurant'],b'\x00\x00\x00\x00\x01\xc0YL\x8azA\xe5~@3\xb0%(\xaet\xf3',"{'xmin': -101.195952, 'ymin': 19.688067, 'xmax': -101.195952, 'ymax': 19.688067}",dining and drinking > restaurant > mexican restaurant > taco restaurant,1
52e2883e498e557378cff996,La Mexicana,21.188295,-101.746282,,,,,,,,MX,2014-01-24,2020-11-24,,,,,,,,['4bf58dd8d48988d151941735'],['Dining and Drinking > Restaurant > Mexican Restaurant > Taco Restaurant'],b'\x00\x00\x00\x00\x01\xc0Yo\xc3\x15\x93\xe5\xfb@504\x19\xe3\x00\x15',"{'xmin': -101.746282, 'ymin': 21.188295, 'xmax': -101.746282, 'ymax': 21.188295}",dining and drinking > restaurant > mexican restaurant > taco restaurant,1
5160f879e4b027d84680a1be,Tacos Martines,27.965027,-114.052352,,Guerrero Negro,Baja California Sur,23940,,,,MX,2013-04-07,2020-11-21,,,,,,,,['4bf58dd8d48988d151941735'],['Dining and Drinking > Restaurant > Mexican Restaurant > Taco Restaurant'],b'\x00\x00\x00\x00\x01\xc0\\\x83Y\xbc3\xf8U@;\xf7\x0c\x02l\xc1\xca',"{'xmin': -114.052352, 'ymin': 27.965027, 'xmax': -114.052352, 'ymax': 27.965027}",dining and drinking > restaurant > mexican restaurant > taco restaurant,1
5213ad4211d24d796319bcb9,Los Boli De Don Toño,21.893884,-102.31069,,,,,,,,MX,2013-08-20,2021-08-11,,,,,,,,['4bf58dd8d48988d151941735'],['Dining and Drinking > Restaurant > Mexican Restaurant > Taco Restaurant'],b'\x00\x00\x00\x00\x01\xc0Y\x93\xe2XOLn@5\xe4\xd5\x94\xf2j\xec',"{'xmin': -102.31069, 'ymin': 21.893884, 'xmax': -102.31069, 'ymax': 21.893884}",dining and drinking > restaurant > mexican restaurant > taco restaurant,1
610f76d62e1135039975a19e,Los Puchis,20.582342,-101.202118,213 Las Choapas,Salamanca,GTO,36730,,,,MX,2021-08-08,2021-08-08,,464 116 9330,,,,_los_puchis_,,['4bf58dd8d48988d151941735'],['Dining and Drinking > Restaurant > Mexican Restaurant > Taco Restaurant'],b'\x00\x00\x00\x00\x01\xc0YL\xef\x80U\xfb\xb5@4\x95\x14]\x85\x16U',"{'xmin': -101.202118, 'ymin': 20.582342, 'xmax': -101.202118, 'ymax': 20.582342}",dining and drinking > restaurant > mexican restaurant > taco restaurant,1
63686d8ea25b0260d2e5ea9d,El Cacheton,20.735097,-103.430621,,Zapopan,JAL,45136,,,,MX,2022-11-07,2022-11-07,,,,,,,,['4bf58dd8d48988d151941735' '4bf58dd8d48988d1c1941735'],"['Dining and Drinking > Restaurant > Mexican Restaurant > Taco Restaurant'
 'Dining and Drinking > Restaurant > Mexican Restaurant']","b'\x00\x00\x00\x00\x01\xc0Y\xdb\x8fKa\xfe""@4\xbc/Q&cA'","{'xmin': -103.430621, 'ymin': 20.735097, 'xmax': -103.430621, 'ymax': 20.735097}","dining and drinking > restaurant > mexican restaurant > taco restaurant, dining and drinking > restaurant > mexican restaurant",1
4e9c460c9adf277db8635f72,Tortas Y Flautas Max,20.719946408793124,-103.373090258012,Calle 8 #223,Zapopan,Jalisco,45150,,,,MX,2011-10-17,2020-11-24,,,,,,,,['4bf58dd8d48988d151941735'],['Dining and Drinking > Restaurant > Mexican Restaurant > Taco Restaurant'],"b""\x00\x00\x00\x00\x01\xc0Y\xd7\xe0\xb5\xf6'\x89@4\xb8Nhh\xa3\x9d""","{'xmin': -103.373090258012, 'ymin': 20.719946408793124, 'xmax': -103.373090258012, 'ymax': 20.719946408793124}",dining and drinking > restaurant > mexican restaurant > taco restaurant,1
537583ae498ea5b3cf958138,Tacos El Rey,21.022173,-101.862172,,,,,,,,MX,2014-05-16,2021-08-14,,,,,,,,['4bf58dd8d48988d151941735'],['Dining and Drinking > Restaurant > Mexican Restaurant > Taco Restaurant'],b'\x00\x00\x00\x00\x01\xc0Yw-\xd3w\xe1\xb9@5\x05\xad!5\xda\xad',"{'xmin': -101.862172, 'ymin': 21.022173, 'xmax': -101.862172, 'ymax': 21.022173}",dining and drinking > restaurant > mexican restaurant > taco restaurant,1
51f8796d498e409e64f78424,Tacos El Tio Jorch,20.719407,-103.387459,,,,,,,,MX,2013-07-31,2021-08-12,,,,,,,,['4bf58dd8d48988d151941735'],['Dining and Drinking > Restaurant > Mexican Restaurant > Taco Restaurant'],b'\x00\x00\x00\x00\x01\xc0Y\xd8\xcc \xd5b\x9e@4\xb8+\x0e\xa1\x83s',"{'xmin': -103.387459, 'ymin': 20.719407, 'xmax': -103.387459, 'ymax': 20.719407}",dining and drinking > restaurant > mexican restaurant > taco restaurant,1
51fdd033498eefe445b25816,"Tacos El Paisa ""De Arandas""",20.630226,-103.443367,,,,,,,,MX,2013-08-04,2021-08-12,,,,,,,,['4bf58dd8d48988d151941735'],['Dining and Drinking > Restaurant > Mexican Restaurant > Taco Restaurant'],b'\x00\x00\x00\x00\x01\xc0Y\xdc`\x1f\xfbH\n@4\xa1V}\xbb\x16\xc2',"{'xmin': -103.443367, 'ymin': 20.630226, 'xmax': -103.443367, 'ymax': 20.630226}",dining and drinking > restaurant > mexican restaurant > taco restaurant,1
5a4323e403132048f1928e2e,Tacos “Los Plebes”,20.67237,-100.750973,,Empalme Escobedo,GTO,38210,,,,MX,2017-12-27,2020-11-23,,,,,,,,['4bf58dd8d48988d151941735'],['Dining and Drinking > Restaurant > Mexican Restaurant > Taco Restaurant'],b'\x00\x00\x00\x00\x01\xc0Y0\x0f\xf1\x0e\xcbu@4\xac p\xb8\xcf\xc0',"{'xmin': -100.750973, 'ymin': 20.67237, 'xmax': -100.750973, 'ymax': 20.67237}",dining and drinking > restaurant > mexican restaurant > taco restaurant,1
5227ecb1498e8d61e39b22e3,Tacos Adela,20.63846118861814,-103.32535398890622,,,,,,,,MX,2013-09-05,2021-08-13,,,,,,,,['4bf58dd8d48988d151941735'],['Dining and Drinking > Restaurant > Mexican Restaurant > Taco Restaurant'],b'\x00\x00\x00\x00\x01\xc0Y\xd4\xd2\x99\x89~l@4\xa3r1D\xe1U',"{'xmin': -103.32535398890622, 'ymin': 20.63846118861814, 'xmax': -103.32535398890622, 'ymax': 20.63846118861814}",dining and drinking > restaurant > mexican restaurant > taco restaurant,1
53626767498ee1c3c1f60d38,"Tacos Don Beto ""César""",21.11562815258691,-101.70415797404502,,,,,,,,MX,2014-05-01,2021-08-14,,,,,,,,['4bf58dd8d48988d151941735'],['Dining and Drinking > Restaurant > Mexican Restaurant > Taco Restaurant'],b'\x00\x00\x00\x00\x01\xc0Ym\x10\xec\x9bol@5\x1d\x99\xce}\xdb\x91',"{'xmin': -101.70415797404502, 'ymin': 21.11562815258691, 'xmax': -101.70415797404502, 'ymax': 21.11562815258691}",dining and drinking > restaurant > mexican restaurant > taco restaurant,1
5636c284498ebe37489a046d,Tacos El Mil Focos,21.114151012232938,-101.69959913876919,Av La Piscina 907,León,Guanajuato,,,,,MX,2015-11-02,2020-11-22,,,,,,,,['4bf58dd8d48988d151941735'],['Dining and Drinking > Restaurant > Mexican Restaurant > Taco Restaurant'],b'\x00\x00\x00\x00\x01\xc0Yl\xc6;wT\xb3@5\x1d9\x000X\x84',"{'xmin': -101.69959913876919, 'ymin': 21.114151012232938, 'xmax': -101.69959913876919, 'ymax': 21.114151012232938}",dining and drinking > restaurant > mexican restaurant > taco restaurant,1
4e68c7af31513f0d3b4097ad,Tacos al Vapor la Ruca Jovén,20.727936838464174,-103.40893910899987,Santa Cecilia 767,Zapopan,Jalisco,45140,,,,MX,2011-09-08,2020-11-26,,,,,,,,['4bf58dd8d48988d151941735'],['Dining and Drinking > Restaurant > Mexican Restaurant > Taco Restaurant'],"b'\x00\x00\x00\x00\x01\xc0Y\xda,\x0e\xf0\xcdn@4\xbaZ\x11\x92\xc1\xdc'","{'xmin': -103.40893910899987, 'ymin': 20.727936838464174, 'xmax': -103.40893910899987, 'ymax': 20.727936838464174}",dining and drinking > restaurant > mexican restaurant > taco restaurant,1
5339dbfd498ebafa2930cef5,Taqueria ''Los Compás'',20.704963,-102.338238,Francisco I Madero #264,Arandas,Jalisco,47180,,,,MX,2014-03-31,2020-11-23,,,,,,,,['4bf58dd8d48988d151941735'],['Dining and Drinking > Restaurant > Mexican Restaurant > Taco Restaurant'],b'\x00\x00\x00\x00\x01\xc0Y\x95\xa5\xb0\xff\x10\xed@4\xb4xt\x85\xe3\xda',"{'xmin': -102.338238, 'ymin': 20.704963, 'xmax': -102.338238, 'ymax': 20.704963}",dining and drinking > restaurant > mexican restaurant > taco restaurant,1
4bd1c7b5a8b3a593ee56665f,Gorditas Dona Mago,20.666014385327905,-103.3498736189985,Mercado Mexicaltzingo,Guadalajara,Jalisco,,,,,MX,2010-04-23,2021-08-15,,,,,,,,['4bf58dd8d48988d151941735'],['Dining and Drinking > Restaurant > Mexican Restaurant > Taco Restaurant'],b'\x00\x00\x00\x00\x01\xc0Y\xd6dTQ\xd5;@4\xaa\x7f\xeb3\xa6\x1e',"{'xmin': -103.3498736189985, 'ymin': 20.666014385327905, 'xmax': -103.3498736189985, 'ymax': 20.666014385327905}",dining and drinking > restaurant > mexican restaurant > taco restaurant,1
5adb9f50b6eedb6f05fe4d64,Don Cadenas,21.906656,-102.297821,,Aguascalientes,AGS,20130,,,,MX,2018-04-21,2020-11-24,,,,,,,,['4bf58dd8d48988d151941735'],['Dining and Drinking > Restaurant > Mexican Restaurant > Taco Restaurant'],b'\x00\x00\x00\x00\x01\xc0Y\x93\x0f\x7f\xcf\xc3\xf8@5\xe8\x1a\x9b\x8c\xb8\xe1',"{'xmin': -102.297821, 'ymin': 21.906656, 'xmax': -102.297821, 'ymax': 21.906656}",dining and drinking > restaurant > mexican restaurant > taco restaurant,1
517b69ba498e36214e753356,Huaraches Pepe 's,20.798377990722656,-102.76213073730469,,,,,,,,MX,2013-04-27,2021-08-11,,,,,,,,['4bf58dd8d48988d151941735'],['Dining and Drinking > Restaurant > Mexican Restaurant > Taco Restaurant'],b'\x00\x00\x00\x00\x01\xc0Y\xb0\xc6\xc0\x00\x00\x00@4\xccb\x80\x00\x00\x00',"{'xmin': -102.76213073730469, 'ymin': 20.798377990722656, 'xmax': -102.76213073730469, 'ymax': 20.798377990722656}",dining and drinking > restaurant > mexican restaurant > taco restaurant,1
660dab2fcc94ae20c22178e4,El Pastor de Reyes,20.70419176186684,-103.34484279155731,Av circunvalacion División del norte  844,guadalajara,jalisco,44298,,,,MX,2024-04-03,2024-04-03,,33 2999 7195,,,,,,['4bf58dd8d48988d151941735'],['Dining and Drinking > Restaurant > Mexican Restaurant > Taco Restaurant'],b'\x00\x00\x00\x00\x01\xc0Y\xd6\x11\xe7\x80\x00\x00@4\xb4E\xe9KT\xa9',"{'xmin': -103.34484279155731, 'ymin': 20.70419176186684, 'xmax': -103.34484279155731, 'ymax': 20.70419176186684}",dining and drinking > restaurant > mexican restaurant > taco restaurant,1
54f517c8498e4cba19d2d198,Tacos De Carne Azada El Papi,21.094324111938477,-101.65794372558594,Alfredo Valadez,Leon,,,,,,MX,2015-03-03,2020-11-30,,,,,,,,['4bf58dd8d48988d151941735'],['Dining and Drinking > Restaurant > Mexican Restaurant > Taco Restaurant'],b'\x00\x00\x00\x00\x01\xc0Yj\x1b\xc0\x00\x00\x00@5\x18%\xa0\x00\x00\x00',"{'xmin': -101.65794372558594, 'ymin': 21.094324111938477, 'xmax': -101.65794372558594, 'ymax': 21.094324111938477}",dining and drinking > restaurant > mexican restaurant > taco restaurant,1
5b89db67bf7dde002c728347,Tacos Don Chuy,20.657803,-103.37207,Fresno esq. Durazno,Guadalajara,Jalisco,44909,,,,MX,2018-09-01,2021-08-14,,,,,,,,['4bf58dd8d48988d151941735'],['Dining and Drinking > Restaurant > Mexican Restaurant > Taco Restaurant'],b'\x00\x00\x00\x00\x01\xc0Y\xd7\xcf\xfe\xb0t\xa7@4\xa8e\xc7\x045\xf0',"{'xmin': -103.37207, 'ymin': 20.657803, 'xmax': -103.37207, 'ymax': 20.657803}",dining and drinking > restaurant > mexican restaurant > taco restaurant,1
52673f3a498e6d1654a85e6e,Tacos Beto (El Cuñado),21.821484679560395,-102.2705043943573,Av. San Sebastián,"Aguascalientes, AGS",Aguascalientes,20298,,,,MX,2013-10-23,2020-11-22,,,,,,,,['4bf58dd8d48988d151941735'],['Dining and Drinking > Restaurant > Mexican Restaurant > Taco Restaurant'],b'\x00\x00\x00\x00\x01\xc0Y\x91O\xf1\xa9\xcc\x17@5\xd2L\xd1\xe8\xe0\x7f',"{'xmin': -102.2705043943573, 'ymin': 21.821484679560395, 'xmax': -102.2705043943573, 'ymax': 21.821484679560395}",dining and drinking > restaurant > mexican restaurant > taco restaurant,1
505dff29e4b027df9c4a097f,"Tortas Ahogadas y Tacos Dorados ""El Güero""",20.7059241938317,-103.36313694425576,,,,,,,,MX,2012-09-22,2021-08-17,,,,,,,,['4bf58dd8d48988d151941735'],['Dining and Drinking > Restaurant > Mexican Restaurant > Taco Restaurant'],b'\x00\x00\x00\x00\x01\xc0Y\xd7=\xa2\xbc\xe3\x10@4\xb4\xb7r\xad\xf6Z',"{'xmin': -103.36313694425576, 'ymin': 20.7059241938317, 'xmax': -103.36313694425576, 'ymax': 20.7059241938317}",dining and drinking > restaurant > mexican restaurant > taco restaurant,1
52d99a10498e341b5baecad9,"""El Árbol"" Tacos y Quesadillas",20.677791,-103.372726,,,,,,,,MX,2014-01-17,2021-08-12,,,,,,,,['4bf58dd8d48988d151941735'],['Dining and Drinking > Restaurant > Mexican Restaurant > Taco Restaurant'],"b""\x00\x00\x00\x00\x01\xc0Y\xd7\xda\xbe'\x17\x9c@4\xad\x83\xb6\x02\x85\xec""","{'xmin': -103.372726, 'ymin': 20.677791, 'xmax': -103.372726, 'ymax': 20.677791}",dining and drinking > restaurant > mexican restaurant > taco restaurant,1
4e6b9b4262e1cd1d55382c88,Carnitas Muñoz,21.87505286813756,-102.29504253449865,Jose María Chavez 519,Aguascalientes,AGS,,,,,MX,2011-09-10,2020-11-23,,,,,,,,['4bf58dd8d48988d151941735'],['Dining and Drinking > Restaurant > Mexican Restaurant > Taco Restaurant'],b'\x00\x00\x00\x00\x01\xc0Y\x92\xe1\xfa\x15&q@5\xe0\x03v\xfa\xeb\xfc',"{'xmin': -102.29504253449865, 'ymin': 21.87505286813756, 'xmax': -102.29504253449865, 'ymax': 21.87505286813756}",dining and drinking > restaurant > mexican restaurant > taco restaurant,1
4ebf40855c5c3d470c822677,Lechon el Chicharo,21.876066059938502,-102.31197725158738,Av. Convencion Pte. 124,Aguascalientes,AGS,20070,,,,MX,2011-11-13,2020-11-25,,,,,,,,['4bf58dd8d48988d151941735'],['Dining and Drinking > Restaurant > Mexican Restaurant > Taco Restaurant'],b'\x00\x00\x00\x00\x01\xc0Y\x93\xf7oo*{@5\xe0E\xdd\x84\x92J',"{'xmin': -102.31197725158738, 'ymin': 21.876066059938502, 'xmax': -102.31197725158738, 'ymax': 21.876066059938502}",dining and drinking > restaurant > mexican restaurant > taco restaurant,1
5138051ce4b07fcaad93637b,La Gritona,22.153622,-101.002542,,,,,,,,MX,2013-03-07,2021-08-14,,,,,,,,['4bf58dd8d48988d151941735'],['Dining and Drinking > Restaurant > Mexican Restaurant > Taco Restaurant'],"b""\x00\x00\x00\x00\x01\xc0Y@)\xa5\xeb\xb7t@6'S\xc5y\xf24""","{'xmin': -101.002542, 'ymin': 22.153622, 'xmax': -101.002542, 'ymax': 22.153622}",dining and drinking > restaurant > mexican restaurant > taco restaurant,1
59d6d73fa4ba7c0c4546d10d,Tacos El Amigo,22.185757,-101.0,,San Luis Potosí,San Luis Potosí,78114,,,,MX,2017-10-06,2020-11-25,,,,,,,,['4bf58dd8d48988d151941735'],['Dining and Drinking > Restaurant > Mexican Restaurant > Taco Restaurant'],b'\x00\x00\x00\x00\x01\xc0Y@\x00\x00\x00\x00\x00@6/\x8d\xc5P\x00\xc9',"{'xmin': -101.0, 'ymin': 22.185757, 'xmax': -101.0, 'ymax': 22.185757}",dining and drinking > restaurant > mexican restaurant > taco restaurant,1
637c4b1a206dd65c82bf478e,Tacos La Bodega,22.136387,-100.9616,Laguna de Términos 545A,San Luis Potosí,San Luis Potosí,78350,,,,MX,2022-11-22,2022-11-22,,,,,,,,['4bf58dd8d48988d151941735'],['Dining and Drinking > Restaurant > Mexican Restaurant > Taco Restaurant'],"b'\x00\x00\x00\x00\x01\xc0Y=\x8a\xda\xb9\xf5Z@6""\xeaB(\x99|'","{'xmin': -100.9616, 'ymin': 22.136387, 'xmax': -100.9616, 'ymax': 22.136387}",dining and drinking > restaurant > mexican restaurant > taco restaurant,1
4fb5c687e4b04081a72a59a5,Tacos Dorados av. El Vigia,20.74391250700885,-103.39548502788817,,,,,,,,MX,2012-05-18,2021-08-13,,,,,,,,['4bf58dd8d48988d151941735'],['Dining and Drinking > Restaurant > Mexican Restaurant > Taco Restaurant'],b'\x00\x00\x00\x00\x01\xc0Y\xd9O\xa0o5\x97@4\xbeq\x0c\xd0\xb0:',"{'xmin': -103.39548502788817, 'ymin': 20.74391250700885, 'xmax': -103.39548502788817, 'ymax': 20.74391250700885}",dining and drinking > restaurant > mexican restaurant > taco restaurant,1
66875f5b37f4ad687d15a343,Los Jeques,21.95765,-102.30993,Calzada Navarra 912,Jesús María,Aguascalientes,20908,,,,MX,2024-07-05,2024-07-05,,,,,,,,['4bf58dd8d48988d151941735'],['Dining and Drinking > Restaurant > Mexican Restaurant > Taco Restaurant'],"b""\x00\x00\x00\x00\x01\xc0Y\x93\xd5\xe4\xa3\x83'@5\xf5(\x8c\xe7\x03\xb0""","{'xmin': -102.30993, 'ymin': 21.95765, 'xmax': -102.30993, 'ymax': 21.95765}",dining and drinking > restaurant > mexican restaurant > taco restaurant,1
591726092d2fd923f5103714,Tacos El Ranchero,20.746719,-103.391937,,Zapopan,JAL,45132,,,,MX,2017-05-13,2020-11-25,,,,,,,,['4bf58dd8d48988d151941735' '4bf58dd8d48988d1c1941735'],"['Dining and Drinking > Restaurant > Mexican Restaurant > Taco Restaurant'
 'Dining and Drinking > Restaurant > Mexican Restaurant']",b'\x00\x00\x00\x00\x01\xc0Y\xd9\x15~\xedE\xe9@4\xbf(\xf9\xf4MD',"{'xmin': -103.391937, 'ymin': 20.746719, 'xmax': -103.391937, 'ymax': 20.746719}","dining and drinking > restaurant > mexican restaurant > taco restaurant, dining and drinking > restaurant > mexican restaurant",1
535f0985498e4e2337a7c732,Asados Neto's,20.67586004701785,-103.42131362430571,a las Montañas esquina con George Haendel,"Zapopan, JAL",Jalisco,,,,,MX,2014-04-29,2020-11-23,,,,,,,,['4bf58dd8d48988d151941735'],['Dining and Drinking > Restaurant > Mexican Restaurant > Taco Restaurant'],b'\x00\x00\x00\x00\x01\xc0Y\xda\xf6\xcdkp%@4\xad\x05)\xfe\x9d\\',"{'xmin': -103.42131362430571, 'ymin': 20.67586004701785, 'xmax': -103.42131362430571, 'ymax': 20.67586004701785}",dining and drinking > restaurant > mexican restaurant > taco restaurant,1
573754d9498ebf37c3622bbc,tacos angel,20.630244,-103.066954,,,,,,,,MX,2016-05-14,2020-11-30,,,,,,,,['4bf58dd8d48988d151941735'],['Dining and Drinking > Restaurant > Mexican Restaurant > Taco Restaurant'],b'\x00\x00\x00\x00\x01\xc0Y\xc4H\xf9n\x15\x87@4\xa1W\xab\xb8\x80\x0f',"{'xmin': -103.066954, 'ymin': 20.630244, 'xmax': -103.066954, 'ymax': 20.630244}",dining and drinking > restaurant > mexican restaurant > taco restaurant,1
50bc3363e4b0ff66f91c0a3e,Taquería El Herradero,20.52531195495384,-100.81281196371056,Alvaro Obregon,"Celaya, Gto",,,,,,MX,2012-12-03,2020-11-22,,,,,,,,['4bf58dd8d48988d151941735'],['Dining and Drinking > Restaurant > Mexican Restaurant > Taco Restaurant'],"b'\x00\x00\x00\x00\x01\xc0Y4\x05\x1cx{\xcd@4\x86z\xd8""\xb9}'","{'xmin': -100.81281196371056, 'ymin': 20.52531195495384, 'xmax': -100.81281196371056, 'ymax': 20.52531195495384}",dining and drinking > restaurant > mexican restaurant > taco restaurant,1
63f45dd4220d353301aacaeb,Taquería del Barrio,20.682046829054716,-101.35892772677835,Boulevard Lazaro Cárdenas 3111,Irapuato,Guanajuato,36690,,,,MX,2023-02-21,2023-02-21,,462 431 0603,,,,,,['4bf58dd8d48988d151941735'],['Dining and Drinking > Restaurant > Mexican Restaurant > Taco Restaurant'],b'\x00\x00\x00\x00\x01\xc0YV\xf8\xac\x00\t\x00@4\xae\x9a\x9e\xf9!i',"{'xmin': -101.35892772677835, 'ymin': 20.682046829054716, 'xmax': -101.35892772677835, 'ymax': 20.682046829054716}",dining and drinking > restaurant > mexican restaurant > taco restaurant,1
508cb201e4b019412ccadd79,Tacos El Pollo,20.731945,-103.343405,,,,,,,,MX,2012-10-28,2021-08-11,,,,,,,,['4bf58dd8d48988d151941735'],['Dining and Drinking > Restaurant > Mexican Restaurant > Taco Restaurant'],b'\x00\x00\x00\x00\x01\xc0Y\xd5\xfaX\xf7\x12\x1b@4\xbb`\xbf]x\x81',"{'xmin': -103.343405, 'ymin': 20.731945, 'xmax': -103.343405, 'ymax': 20.731945}",dining and drinking > restaurant > mexican restaurant > taco restaurant,1
53e8623c498ec72439468ffc,tacos de a 5 pesos,21.893734,-102.292815,,,,,,,,MX,2014-08-11,2021-08-13,,,,,,,,['4bf58dd8d48988d151941735'],['Dining and Drinking > Restaurant > Mexican Restaurant > Taco Restaurant'],b'\x00\x00\x00\x00\x01\xc0Y\x92\xbd{ 1\xcf@5\xe4\xcb\xc0]R\xc1',"{'xmin': -102.292815, 'ymin': 21.893734, 'xmax': -102.292815, 'ymax': 21.893734}",dining and drinking > restaurant > mexican restaurant > taco restaurant,1
5801baf2d67c0d10d33327f8,Giro-Hatch,19.284172,-99.549131,,,,,,,,MX,2016-10-15,2021-08-12,,,,,,,,['4bf58dd8d48988d151941735'],['Dining and Drinking > Restaurant > Mexican Restaurant > Taco Restaurant'],b'\x00\x00\x00\x00\x01\xc0X\xe3$\xf6Y\x8e\x11@3H\xbf\x7f\x06p]',"{'xmin': -99.549131, 'ymin': 19.284172, 'xmax': -99.549131, 'ymax': 19.284172}",dining and drinking > restaurant > mexican restaurant > taco restaurant,1
52e5d416498e5b44551528a2,tacos de tripa el teco,19.98999631463281,-102.2851262996635,,,,,,,,MX,2014-01-27,2021-08-12,,,,,,,,['4bf58dd8d48988d151941735'],['Dining and Drinking > Restaurant > Mexican Restaurant > Taco Restaurant'],b'\x00\x00\x00\x00\x01\xc0Y\x92?\x82a\x121@3\xfdpf\x02\x82)',"{'xmin': -102.2851262996635, 'ymin': 19.98999631463281, 'xmax': -102.2851262996635, 'ymax': 19.98999631463281}",dining and drinking > restaurant > mexican restaurant > taco restaurant,1
4f64ed49e4b0c7552d47b0dd,"La Provision ""Taquitos De Arrachera""",19.684516,-101.170317,Dr Ignacio Chavez #68,,,,,,,MX,2012-03-17,2021-08-12,,,,,,,,['4bf58dd8d48988d151941735'],['Dining and Drinking > Restaurant > Mexican Restaurant > Taco Restaurant'],b'\x00\x00\x00\x00\x01\xc0YJ\xe6yF<\xfb@3\xaf<p\xc9\x96\xb7',"{'xmin': -101.170317, 'ymin': 19.684516, 'xmax': -101.170317, 'ymax': 19.684516}",dining and drinking > restaurant > mexican restaurant > taco restaurant,1
4f6b8ed5e4b0803c8b262335,The Pepetes,19.686478,-101.158558,,,,,,,,MX,2012-03-22,2021-08-13,,,,,,,,['4bf58dd8d48988d151941735'],['Dining and Drinking > Restaurant > Mexican Restaurant > Taco Restaurant'],b'\x00\x00\x00\x00\x01\xc0YJ%\xd0t!:@3\xaf\xbd\x05\xaflj',"{'xmin': -101.158558, 'ymin': 19.686478, 'xmax': -101.158558, 'ymax': 19.686478}",dining and drinking > restaurant > mexican restaurant > taco restaurant,1
5153c308e4b0a9b0b8c0aafb,LOS TACOS DEL EXTRA (El Isra Y El Pastor),19.322348243663964,-99.09741453535513,,,,,,,,MX,2013-03-28,2021-08-16,,,,,,,,['4bf58dd8d48988d151941735'],['Dining and Drinking > Restaurant > Mexican Restaurant > Taco Restaurant'],"b'\x00\x00\x00\x00\x01\xc0X\xc6<\n,\xe0W@3R\x85j\x1cu\xb3'","{'xmin': -99.09741453535513, 'ymin': 19.322348243663964, 'xmax': -99.09741453535513, 'ymax': 19.322348243663964}",dining and drinking > restaurant > mexican restaurant > taco restaurant,1
4fc24a88e4b0d6554ab8b4f4,Mixiotes Martínez,19.314618313877542,-99.16141832203085,,,,,,,,MX,2012-05-27,2021-08-12,,,,,,,,['4bf58dd8d48988d151941735'],['Dining and Drinking > Restaurant > Mexican Restaurant > Taco Restaurant'],b'\x00\x00\x00\x00\x01\xc0X\xcaT\xad\x83\x86A@3P\x8a\xd3h\xd3\xa3',"{'xmin': -99.16141832203085, 'ymin': 19.314618313877542, 'xmax': -99.16141832203085, 'ymax': 19.314618313877542}",dining and drinking > restaurant > mexican restaurant > taco restaurant,1
4bea1f8f62c0c9280392e0d4,Chemao,19.39963425547625,-102.05619335229747,,Uruapan,,,,,,MX,2010-05-12,2020-11-23,,,,,,,,['4bf58dd8d48988d151941735'],['Dining and Drinking > Restaurant > Mexican Restaurant > Taco Restaurant'],b'\x00\x00\x00\x00\x01\xc0Y\x83\x98\xac\x00\x97\xb2@3fNn9\xa1\xbe',"{'xmin': -102.05619335229747, 'ymin': 19.39963425547625, 'xmax': -102.05619335229747, 'ymax': 19.39963425547625}",dining and drinking > restaurant > mexican restaurant > taco restaurant,1
4e2a6261483bb05f05935089,Taqueria Copacabanito,19.296993294257195,-99.11353280780567,,Ciudad de México,Distrito Federal,04960,,,,MX,2011-07-23,2023-09-13,,,,,,,,['4bf58dd8d48988d151941735'],['Dining and Drinking > Restaurant > Mexican Restaurant > Taco Restaurant'],b'\x00\x00\x00\x00\x01\xc0X\xc7D\x1f\x1c#\x19@3L\x07\xc0\xa5\xf7I',"{'xmin': -99.11353280780567, 'ymin': 19.296993294257195, 'xmax': -99.11353280780567, 'ymax': 19.296993294257195}",dining and drinking > restaurant > mexican restaurant > taco restaurant,1
55e394aa498e5edc8ea41e0b,en la cocina,19.157590771540217,-96.11735016353316,,,,,,,,MX,2015-08-30,2020-11-26,,,,,,,,['4bf58dd8d48988d151941735'],['Dining and Drinking > Restaurant > Mexican Restaurant > Taco Restaurant'],b'\x00\x00\x00\x00\x01\xc0X\x07\x82\xaaB\xa3\x88@3(W\xdei\xea\xa9',"{'xmin': -96.11735016353316, 'ymin': 19.157590771540217, 'xmax': -96.11735016353316, 'ymax': 19.157590771540217}",dining and drinking > restaurant > mexican restaurant > taco restaurant,1
5b9df74560255e002c06725f,Los Cansados,19.272498,-99.13157,Calzada Mexico Gualupe,Ciudad de México,CDMX,16020,,,,MX,2018-09-16,2020-11-24,,,,,,,,['4bf58dd8d48988d151941735'],['Dining and Drinking > Restaurant > Mexican Restaurant > Taco Restaurant'],b'\x00\x00\x00\x00\x01\xc0X\xc8k\xa4\x93\xc8\x9f@3E\xc2m\xce9\xb4',"{'xmin': -99.13157, 'ymin': 19.272498, 'xmax': -99.13157, 'ymax': 19.272498}",dining and drinking > restaurant > mexican restaurant > taco restaurant,1
59ff6404a0215b3f5414f7a1,Barbacoa Fede,19.285112,-99.540474,,San Mateo Atenco,Estado de México,52105,,,,MX,2017-11-05,2020-11-24,,,,,,,,['4bf58dd8d48988d151941735'],['Dining and Drinking > Restaurant > Mexican Restaurant > Taco Restaurant'],b'\x00\x00\x00\x00\x01\xc0X\xe2\x97 B\x95\xa7@3H\xfd\x19\x9b\xb2y',"{'xmin': -99.540474, 'ymin': 19.285112, 'xmax': -99.540474, 'ymax': 19.285112}",dining and drinking > restaurant > mexican restaurant > taco restaurant,1
541d9c49498ee8757eddbb9d,Don virgilio,14.91593534801842,-92.26717219183817,,,,,,,,MX,2014-09-20,2021-08-14,,,,,,,,['4bf58dd8d48988d151941735'],['Dining and Drinking > Restaurant > Mexican Restaurant > Taco Restaurant'],b'\x00\x00\x00\x00\x01\xc0W\x11\x19Yd\x96\x1e@-\xd4\xf5zY\xfa\x9f',"{'xmin': -92.26717219183817, 'ymin': 14.91593534801842, 'xmax': -92.26717219183817, 'ymax': 14.91593534801842}",dining and drinking > restaurant > mexican restaurant > taco restaurant,1
5b40f7edacb00b0039739849,Las De Camarón,19.70442,-101.192796,Calle Santiago Tapia- 11,Morelia,MICH,58000,,,,MX,2018-07-07,2020-11-25,,,,,,,,['4bf58dd8d48988d151941735'],['Dining and Drinking > Restaurant > Mexican Restaurant > Taco Restaurant'],b'\x00\x00\x00\x00\x01\xc0YLV\xc5\x08\xb3-@3\xb4T\xde~\xa5\xf8',"{'xmin': -101.192796, 'ymin': 19.70442, 'xmax': -101.192796, 'ymax': 19.70442}",dining and drinking > restaurant > mexican restaurant > taco restaurant,1
529fc4ef498e7bc7a6679389,Taquería Juquilita Ayuuk,17.027847290039062,-96.07695770263672,,,,,,,,MX,2013-12-05,2021-08-14,,,,,,,,['4bf58dd8d48988d151941735'],['Dining and Drinking > Restaurant > Mexican Restaurant > Taco Restaurant'],b'\x00\x00\x00\x00\x01\xc0X\x04\xec\xe0\x00\x00\x00@1\x07!\x00\x00\x00\x00',"{'xmin': -96.07695770263672, 'ymin': 17.027847290039062, 'xmax': -96.07695770263672, 'ymax': 17.027847290039062}",dining and drinking > restaurant > mexican restaurant > taco restaurant,1
5c1ef3bc7b385f002cdb07e2,"Q-Ba, Tortas Ahogadas Y Costras",19.107162,-99.590838,,Tenango de Arista,Edomex,52305,,,,MX,2018-12-23,2020-11-25,,,,,,,,['4bf58dd8d48988d151941735'],['Dining and Drinking > Restaurant > Mexican Restaurant > Taco Restaurant'],b'\x00\x00\x00\x00\x01\xc0X\xe5\xd0J/\xce\xfb@3\x1bn\xf8\x05_\xbb',"{'xmin': -99.590838, 'ymin': 19.107162, 'xmax': -99.590838, 'ymax': 19.107162}",dining and drinking > restaurant > mexican restaurant > taco restaurant,1
4cb0d7571168a093a4652e23,Tacos De Canasta Los Especiales,19.288367251551072,-99.17921705100972,Ayuntamiento,Ciudad de México,DF,,,,,MX,2010-10-09,2020-11-26,,,,,,,,['4bf58dd8d48988d151941735'],['Dining and Drinking > Restaurant > Mexican Restaurant > Taco Restaurant'],b'\x00\x00\x00\x00\x01\xc0X\xcbxJ\xcb>:@3I\xd2o\xaa\xa66',"{'xmin': -99.17921705100972, 'ymin': 19.288367251551072, 'xmax': -99.17921705100972, 'ymax': 19.288367251551072}",dining and drinking > restaurant > mexican restaurant > taco restaurant,1
4f3f3196e4b0c47356d47890,Huaraches,19.30099224510256,-99.14919614894156,,,,,,,,MX,2012-02-18,2023-12-19,,755 553 0045,,,,,,['4bf58dd8d48988d151941735'],['Dining and Drinking > Restaurant > Mexican Restaurant > Taco Restaurant'],b'\x00\x00\x00\x00\x01\xc0X\xc9\x8cn\x01\x19)@3M\r\xd3\xe9\x10\xab',"{'xmin': -99.14919614894156, 'ymin': 19.30099224510256, 'xmax': -99.14919614894156, 'ymax': 19.30099224510256}",dining and drinking > restaurant > mexican restaurant > taco restaurant,1
5514e506498e8aa8ef20f00a,"Taquería ""El Pitt""",19.32049836401512,-99.07885093765358,,,,,,,,MX,2015-03-27,2021-08-14,,,,,,,,['4bf58dd8d48988d151941735'],['Dining and Drinking > Restaurant > Mexican Restaurant > Taco Restaurant'],b'\x00\x00\x00\x00\x01\xc0X\xc5\x0b\xe4\xcd\x9e\xca@3R\x0c.G\xdd\xcf',"{'xmin': -99.07885093765358, 'ymin': 19.32049836401512, 'xmax': -99.07885093765358, 'ymax': 19.32049836401512}",dining and drinking > restaurant > mexican restaurant > taco restaurant,1
50ef830fe4b009f2f494edb4,Tortilleria Méndez,19.191494,-96.151855,Circunvalación,,"Veracruz, Ver.",91700,,,,MX,2013-01-11,2023-05-05,,,,,,,,['4bf58dd8d48988d151941735'],['Dining and Drinking > Restaurant > Mexican Restaurant > Taco Restaurant'],b'\x00\x00\x00\x00\x01\xc0X\t\xb7\xfe\x08\xae\xfb@31\x05\xc03aV',"{'xmin': -96.151855, 'ymin': 19.191494, 'xmax': -96.151855, 'ymax': 19.191494}",dining and drinking > restaurant > mexican restaurant > taco restaurant,1
4f9cbfc0e4b0437370417584,taqueria CINDY,19.12378692626953,-99.57193756103516,,,,,,,,MX,2012-04-29,2020-11-24,,,,,,,,['4bf58dd8d48988d151941735'],['Dining and Drinking > Restaurant > Mexican Restaurant > Taco Restaurant'],b'\x00\x00\x00\x00\x01\xc0X\xe4\x9a\xa0\x00\x00\x00@3\x1f\xb0\x80\x00\x00\x00',"{'xmin': -99.57193756103516, 'ymin': 19.12378692626953, 'xmax': -99.57193756103516, 'ymax': 19.12378692626953}",dining and drinking > restaurant > mexican restaurant > taco restaurant,1
59e26ddd625a661709cbae90,Tacos De Cecina El Pariente,19.335092,-99.16125,Eje 10,Ciudad de México,CDMX,04369,,,,MX,2017-10-14,2020-11-22,,,,,,,,['56aa371be4b08b9a8d57350b' '4bf58dd8d48988d151941735'],"['Dining and Drinking > Food Stand'
 'Dining and Drinking > Restaurant > Mexican Restaurant > Taco Restaurant']",b'\x00\x00\x00\x00\x01\xc0X\xcaQ\xeb\x85\x1e\xb8@3U\xc8\x96\xdd&\xb7',"{'xmin': -99.16125, 'ymin': 19.335092, 'xmax': -99.16125, 'ymax': 19.335092}","dining and drinking > food stand, dining and drinking > restaurant > mexican restaurant > taco restaurant",1
4e2c8c3e8877b69d49ec0ee2,Los Taquitos De Roy,18.55524532497594,-99.60608121565264,,Taxco de Alarcón,Guerrero,,,,,MX,2011-07-24,2020-11-23,,,,,,,,['4bf58dd8d48988d151941735'],['Dining and Drinking > Restaurant > Mexican Restaurant > Taco Restaurant'],b'\x00\x00\x00\x00\x01\xc0X\xe6\xca\x08\xdd\xfc\xac@2\x8e$\x8e\xc0\x07O',"{'xmin': -99.60608121565264, 'ymin': 18.55524532497594, 'xmax': -99.60608121565264, 'ymax': 18.55524532497594}",dining and drinking > restaurant > mexican restaurant > taco restaurant,1
5621872e498ed5d0307e9be8,Tacos El Cubano,19.152173374738197,-96.13859511490647,,Veracruz,Veracruz-Llave,,,,,MX,2015-10-16,2023-12-20,,229 348 8360,,,,,,['4bf58dd8d48988d151941735'],['Dining and Drinking > Restaurant > Mexican Restaurant > Taco Restaurant'],"b""\x00\x00\x00\x00\x01\xc0X\x08\xde\xbe\x0bz'@3&\xf4\xd5\x93\xd2\x90""","{'xmin': -96.13859511490647, 'ymin': 19.152173374738197, 'xmax': -96.13859511490647, 'ymax': 19.152173374738197}",dining and drinking > restaurant > mexican restaurant > taco restaurant,1
5081cadde4b0e24bb2b518d1,Taquitos El Torito 2,18.920312,-99.235045,,,,,,,,MX,2012-10-19,2021-08-13,,,,,,,,['4bf58dd8d48988d151941735'],['Dining and Drinking > Restaurant > Mexican Restaurant > Taco Restaurant'],b'\x00\x00\x00\x00\x01\xc0X\xcf\n\xfa/\x05\xa7@2\xeb\x99\x916\x1d\xc9',"{'xmin': -99.235045, 'ymin': 18.920312, 'xmax': -99.235045, 'ymax': 18.920312}",dining and drinking > restaurant > mexican restaurant > taco restaurant,1
54f68133498e82a660f6f38b,antojitos en la banqueta,17.552965,-99.507538,,,,,,,,MX,2015-03-04,2021-08-16,,,,,,,,['4bf58dd8d48988d151941735'],['Dining and Drinking > Restaurant > Mexican Restaurant > Taco Restaurant'],b'\x00\x00\x00\x00\x01\xc0X\xe0{\x80\xa9\xde\x8b@1\x8d\x8f\x1d>\xd5(',"{'xmin': -99.507538, 'ymin': 17.552965, 'xmax': -99.507538, 'ymax': 17.552965}",dining and drinking > restaurant > mexican restaurant > taco restaurant,1
51c3c5e8498ec34c3a49e70d,Tacos sensei,19.260351,-99.125949,Av. Xoxhitepex,,,,,,,MX,2013-06-21,2021-08-15,,,,,,,,['4bf58dd8d48988d151941735'],['Dining and Drinking > Restaurant > Mexican Restaurant > Taco Restaurant'],b'\x00\x00\x00\x00\x01\xc0X\xc8\x0f\x8cd\xfd\xb1@3B\xa6\\\xf6{\x1c',"{'xmin': -99.125949, 'ymin': 19.260351, 'xmax': -99.125949, 'ymax': 19.260351}",dining and drinking > restaurant > mexican restaurant > taco restaurant,1
4f24ba07e4b04f6e698c9e25,Quesadillas Del Chabacano,19.30869011188863,-99.23383269863878,Chabacano 9,,,,,,,MX,2012-01-29,2021-08-10,,,,,,,,['4bf58dd8d48988d151941735'],['Dining and Drinking > Restaurant > Mexican Restaurant > Taco Restaurant'],b'\x00\x00\x00\x00\x01\xc0X\xce\xf7\x1dlX\xe5@3O\x06P\xaf)\x06',"{'xmin': -99.23383269863878, 'ymin': 19.30869011188863, 'xmax': -99.23383269863878, 'ymax': 19.30869011188863}",dining and drinking > restaurant > mexican restaurant > taco restaurant,1
554e6574498ec7eee38b6b06,El Payaso,19.11578941345215,-96.10601043701172,,,,,,,,MX,2015-05-09,2020-11-23,,,,,,,,['4bf58dd8d48988d151941735'],['Dining and Drinking > Restaurant > Mexican Restaurant > Taco Restaurant'],b'\x00\x00\x00\x00\x01\xc0X\x06\xc8\xe0\x00\x00\x00@3\x1d\xa4`\x00\x00\x00',"{'xmin': -96.10601043701172, 'ymin': 19.11578941345215, 'xmax': -96.10601043701172, 'ymax': 19.11578941345215}",dining and drinking > restaurant > mexican restaurant > taco restaurant,1
4cced5dcaa25a35d3adf220f,Tacos Doña Güicha,18.894529272075083,-96.9421513749698,Avenida 15,Cordoba,Veracruz,94550,,,,MX,2010-11-01,2023-12-18,,271 714 4882,,,,,,['4bf58dd8d48988d151941735'],['Dining and Drinking > Restaurant > Mexican Restaurant > Taco Restaurant'],b'\x00\x00\x00\x00\x01\xc0X<L5G\xd8\x1c@2\xe4\xff\xde\xd0\xe0\x8e',"{'xmin': -96.9421513749698, 'ymin': 18.894529272075083, 'xmax': -96.9421513749698, 'ymax': 18.894529272075083}",dining and drinking > restaurant > mexican restaurant > taco restaurant,1
4f25e8e4e4b050258cbdf57d,Taqueria El Guerrerense,18.969675961438845,-99.22572212227035,,Ocotepec,Morelos,,,,,MX,2012-01-30,2020-11-23,,,,,,,,['4bf58dd8d48988d151941735'],['Dining and Drinking > Restaurant > Mexican Restaurant > Taco Restaurant'],b'\x00\x00\x00\x00\x01\xc0X\xcer;3H\xa2@2\xf8<\xaf\x0e\x18\xe2',"{'xmin': -99.22572212227035, 'ymin': 18.969675961438845, 'xmax': -99.22572212227035, 'ymax': 18.969675961438845}",dining and drinking > restaurant > mexican restaurant > taco restaurant,1
4dd7e32bfa76ad96d12f9d41,Restaurante la fogata,19.30175167599793,-99.37380402811864,Autopista México-Toluca,,State of Mexico,,,,,MX,2011-05-21,2021-11-23,,,,,,,,['4bf58dd8d48988d151941735'],['Dining and Drinking > Restaurant > Mexican Restaurant > Taco Restaurant'],b'\x00\x00\x00\x00\x01\xc0X\xd7\xecg\xba\xf8}@3M?\x99\x0b\xec\x9f',"{'xmin': -99.37380402811864, 'ymin': 19.30175167599793, 'xmax': -99.37380402811864, 'ymax': 19.30175167599793}",dining and drinking > restaurant > mexican restaurant > taco restaurant,1
53daf72f498ed1599b1225d3,tacos de habanero,17.545183181762695,-99.49630737304688,,,,,,,,MX,2014-08-01,2021-08-15,,,,,,,,['4bf58dd8d48988d151941735'],['Dining and Drinking > Restaurant > Mexican Restaurant > Taco Restaurant'],b'\x00\x00\x00\x00\x01\xc0X\xdf\xc3\x80\x00\x00\x00@1\x8b\x91 \x00\x00\x00',"{'xmin': -99.49630737304688, 'ymin': 17.545183181762695, 'xmax': -99.49630737304688, 'ymax': 17.545183181762695}",dining and drinking > restaurant > mexican restaurant > taco restaurant,1
51887002498ebe73856c8ee9,Taquería Saavedra,18.962863,-99.238741,,,,,,,,MX,2013-05-07,2021-08-15,,,,,,,,['4bf58dd8d48988d151941735'],['Dining and Drinking > Restaurant > Mexican Restaurant > Taco Restaurant'],b'\x00\x00\x00\x00\x01\xc0X\xcfG\x88T\xcd\xb8@2\xf6~0\x87\x87H',"{'xmin': -99.238741, 'ymin': 18.962863, 'xmax': -99.238741, 'ymax': 18.962863}",dining and drinking > restaurant > mexican restaurant > taco restaurant,1
51677ab4e4b030958d54c71b,Burritos del santuario,19.703671,-103.467191,,,,,,,,MX,2013-04-12,2021-08-16,,,,,,,,['4bf58dd8d48988d151941735'],['Dining and Drinking > Restaurant > Mexican Restaurant > Taco Restaurant'],b'\x00\x00\x00\x00\x01\xc0Y\xdd\xe6u\x14\x7f\x13@3\xb4#\xc8\\$\xc4',"{'xmin': -103.467191, 'ymin': 19.703671, 'xmax': -103.467191, 'ymax': 19.703671}",dining and drinking > restaurant > mexican restaurant > taco restaurant,1
4d992a28af3d236acfeb4dc7,Señor Tacos,19.152810039334273,-96.13960659402706,Juncos casi esquina Robles,Veracruz,,91940,,,,MX,2011-04-04,2020-11-26,,229 126 9000,,,,,,['4bf58dd8d48988d151941735' '4bf58dd8d48988d1cb941735'],"['Dining and Drinking > Restaurant > Mexican Restaurant > Taco Restaurant'
 'Dining and Drinking > Food Truck']","b""\x00\x00\x00\x00\x01\xc0X\x08\xefP~\xe9\xbd@3'\x1e\x8f\tp\xf1""","{'xmin': -96.13960659402706, 'ymin': 19.152810039334273, 'xmax': -96.13960659402706, 'ymax': 19.152810039334273}","dining and drinking > restaurant > mexican restaurant > taco restaurant, dining and drinking > food truck",1
53bc024f498e1eb378388b31,tacos de canasta guacamayas,18.93654152248425,-99.24463904868435,Ávila Camacho,Cuernavaca,Morelos,,,,,MX,2014-07-08,2020-11-24,,,,,,,,['4bf58dd8d48988d151941735'],['Dining and Drinking > Restaurant > Mexican Restaurant > Taco Restaurant'],b'\x00\x00\x00\x00\x01\xc0X\xcf\xa8*\x8a[ @2\xef\xc1/jjy',"{'xmin': -99.24463904868435, 'ymin': 18.93654152248425, 'xmax': -99.24463904868435, 'ymax': 18.93654152248425}",dining and drinking > restaurant > mexican restaurant > taco restaurant,1
50e90ee4e4b0aa6e0237d563,La penúltima,19.314796447753906,-99.16510772705078,,,,,,,,MX,2013-01-06,2021-08-17,,,,,,,,['4bf58dd8d48988d151941735'],['Dining and Drinking > Restaurant > Mexican Restaurant > Taco Restaurant'],b'\x00\x00\x00\x00\x01\xc0X\xca\x91 \x00\x00\x00@3P\x96\x80\x00\x00\x00',"{'xmin': -99.16510772705078, 'ymin': 19.314796447753906, 'xmax': -99.16510772705078, 'ymax': 19.314796447753906}",dining and drinking > restaurant > mexican restaurant > taco restaurant,1
5873a37af63c545017b0c828,Los Originales,18.952223,-99.249546,,,,,,,,MX,2017-01-09,2021-08-14,,,,,,,,['4bf58dd8d48988d151941735'],['Dining and Drinking > Restaurant > Mexican Restaurant > Taco Restaurant'],b'\x00\x00\x00\x00\x01\xc0X\xcf\xf8\x8f\xc96?@2\xf3\xc4\xe2\xf3\x7f\xbf',"{'xmin': -99.249546, 'ymin': 18.952223, 'xmax': -99.249546, 'ymax': 18.952223}",dining and drinking > restaurant > mexican restaurant > taco restaurant,1
511305c9e4b04a2f88867871,taqueria las ranas,19.291662216186523,-99.05841064453125,Huachinango,Mexico,,,,,,MX,2013-02-07,2020-11-30,,,,,,,,['4bf58dd8d48988d151941735'],['Dining and Drinking > Restaurant > Mexican Restaurant > Taco Restaurant'],b'\x00\x00\x00\x00\x01\xc0X\xc3\xbd\x00\x00\x00\x00@3J\xaa`\x00\x00\x00',"{'xmin': -99.05841064453125, 'ymin': 19.291662216186523, 'xmax': -99.05841064453125, 'ymax': 19.291662216186523}",dining and drinking > restaurant > mexican restaurant > taco restaurant,1
4dab51520437dccbd81aef80,Cecina Kiosko Chiconcuac,18.782223489267956,-99.2081889677197,,Chiconcuac,MOR,,,,,MX,2011-04-17,2020-11-22,,,,,,,,['4bf58dd8d48988d151941735'],['Dining and Drinking > Restaurant > Mexican Restaurant > Taco Restaurant'],b'\x00\x00\x00\x00\x01\xc0X\xcdR\xf7\xd1\xef\xa0@2\xc8?\xccp\x91\xa2',"{'xmin': -99.2081889677197, 'ymin': 18.782223489267956, 'xmax': -99.2081889677197, 'ymax': 18.782223489267956}",dining and drinking > restaurant > mexican restaurant > taco restaurant,1
4fde1a52e4b0ef4c398592a3,Taquitos,17.963861,-102.203664,A Lado De Radio Azul,,,,,,,MX,2012-06-17,2021-08-10,,,,,,,,['4bf58dd8d48988d151941735'],['Dining and Drinking > Restaurant > Mexican Restaurant > Taco Restaurant'],b'\x00\x00\x00\x00\x01\xc0Y\x8d\x08\xd4\xba\xd7\xd8@1\xf6\xbf\x980\xe3\xce',"{'xmin': -102.203664, 'ymin': 17.963861, 'xmax': -102.203664, 'ymax': 17.963861}",dining and drinking > restaurant > mexican restaurant > taco restaurant,1
5015d874e4b06a029f1aafa5,Taqueria El Perico Consentido,19.285996955633596,-99.51273995323714,,,,,,,,MX,2012-07-30,2021-08-16,,,,,,,,['4bf58dd8d48988d151941735'],['Dining and Drinking > Restaurant > Mexican Restaurant > Taco Restaurant'],b'\x00\x00\x00\x00\x01\xc0X\xe0\xd0\xbb<\xa0d@3I7\x18\xb33\xad',"{'xmin': -99.51273995323714, 'ymin': 19.285996955633596, 'xmax': -99.51273995323714, 'ymax': 19.285996955633596}",dining and drinking > restaurant > mexican restaurant > taco restaurant,1
4d314719c6cba35d44b9157a,Tacos Arabes Tony,19.288157531258367,-99.65062581197033,Morelos,Toluca de Lerdo,MEX,,,,,MX,2011-01-15,2023-12-21,,722 215 8512,,,,,,['4bf58dd8d48988d151941735'],['Dining and Drinking > Restaurant > Mexican Restaurant > Taco Restaurant'],b'\x00\x00\x00\x00\x01\xc0X\xe9\xa3\xdar\x16%@3I\xc4\xb1$\xd9\xcd',"{'xmin': -99.65062581197033, 'ymin': 19.288157531258367, 'xmax': -99.65062581197033, 'ymax': 19.288157531258367}",dining and drinking > restaurant > mexican restaurant > taco restaurant,1
55010b55498e3471c2e66bc2,Tacos Árabes de la Morelos,16.870352524516488,-99.90325032859354,,,,,,,,MX,2015-03-12,2021-08-10,,,,,,,,['4bf58dd8d48988d151941735'],['Dining and Drinking > Restaurant > Mexican Restaurant > Taco Restaurant'],b'\x00\x00\x00\x00\x01\xc0X\xf9\xce\xdawZF@0\xde\xcflL\xca\x13',"{'xmin': -99.90325032859354, 'ymin': 16.870352524516488, 'xmax': -99.90325032859354, 'ymax': 16.870352524516488}",dining and drinking > restaurant > mexican restaurant > taco restaurant,1
57c1c244498e379ca443322d,Antojaría las orugas,18.832681,-99.226682,"Calle Emiliano Zapata, #100",Temixco,MOR,62590,,,,MX,2016-08-27,2020-11-24,,,,,,,,['4bf58dd8d48988d151941735'],['Dining and Drinking > Restaurant > Mexican Restaurant > Taco Restaurant'],b'\x00\x00\x00\x00\x01\xc0X\xce\x81\xf58%\xe1@2\xd5*\x94\xff\x00&',"{'xmin': -99.226682, 'ymin': 18.832681, 'xmax': -99.226682, 'ymax': 18.832681}",dining and drinking > restaurant > mexican restaurant > taco restaurant,1
6116e4abcd8c7d77d958ae7e,Tacos Las Asadas,19.309877,-99.1565,,Ciudad de México,Ciudad de México,04600,,,,MX,2021-08-13,2021-08-13,,,,,,,,"['4bf58dd8d48988d1c1941735' '4bf58dd8d48988d151941735'
 '4bf58dd8d48988d16c941735']","['Dining and Drinking > Restaurant > Mexican Restaurant'
 'Dining and Drinking > Restaurant > Mexican Restaurant > Taco Restaurant'
 'Dining and Drinking > Restaurant > Burger Joint']",b'\x00\x00\x00\x00\x01\xc0X\xca\x04\x18\x93t\xbc@3OT\x19\\\xc8X',"{'xmin': -99.1565, 'ymin': 19.309877, 'xmax': -99.1565, 'ymax': 19.309877}","dining and drinking > restaurant > mexican restaurant, dining and drinking > restaurant > mexican restaurant > taco restaurant, dining and drinking > restaurant > burger joint",1
53deb7e5498ec09a274c331d,tacos los compadres,19.328189849853516,-99.12306213378906,,,,,,,,MX,2014-08-03,2021-08-12,,,,,,,,['4bf58dd8d48988d151941735'],['Dining and Drinking > Restaurant > Mexican Restaurant > Taco Restaurant'],b'\x00\x00\x00\x00\x01\xc0X\xc7\xe0@\x00\x00\x00@3T\x04@\x00\x00\x00',"{'xmin': -99.12306213378906, 'ymin': 19.328189849853516, 'xmax': -99.12306213378906, 'ymax': 19.328189849853516}",dining and drinking > restaurant > mexican restaurant > taco restaurant,1
58b30f7c1174203d15c1d7f5,Barbacoa Geovanny,19.309958,-99.10112,Candelaria Pérez,,,,,,,MX,2017-02-26,2021-08-16,,,,,,,,['4bf58dd8d48988d151941735'],['Dining and Drinking > Restaurant > Mexican Restaurant > Taco Restaurant'],"b'\x00\x00\x00\x00\x01\xc0X\xc6x\xc0\x05>-@3OYhQ""2'","{'xmin': -99.10112, 'ymin': 19.309958, 'xmax': -99.10112, 'ymax': 19.309958}",dining and drinking > restaurant > mexican restaurant > taco restaurant,1
5ce96ae051950e002c0dac5e,Tacopolis,17.55043,-99.505512,"Paseo Alejandro Cervantes Delgado #3, Col Progreso",Chilpancingo de los Bravo,GRO,39050,,,,MX,2019-05-25,2023-09-12,,,,,,,,"['4bf58dd8d48988d151941735' '4bf58dd8d48988d1c1941735'
 '4bf58dd8d48988d1df931735']","['Dining and Drinking > Restaurant > Mexican Restaurant > Taco Restaurant'
 'Dining and Drinking > Restaurant > Mexican Restaurant'
 'Dining and Drinking > Restaurant > BBQ Joint']",b'\x00\x00\x00\x00\x01\xc0X\xe0ZO\x00\xef\x13@1\x8c\xe8\xfb\x00\xbc\xbe',"{'xmin': -99.505512, 'ymin': 17.55043, 'xmax': -99.505512, 'ymax': 17.55043}","dining and drinking > restaurant > mexican restaurant > taco restaurant, dining and drinking > restaurant > mexican restaurant, dining and drinking > restaurant > bbq joint",1
5bc0043be17910002cadd32d,Taqueria Maguey,19.308702,-99.10465,Calz de las bombas,Ciudad de México,Ciudad de México,04918,,,,MX,2018-10-12,2020-11-22,,,,,,,,['4bf58dd8d48988d151941735'],['Dining and Drinking > Restaurant > Mexican Restaurant > Taco Restaurant'],"b'\x00\x00\x00\x00\x01\xc0X\xc6\xb2\x95\xe9\xe1\xb1@3O\x07\x18""5\xb5'","{'xmin': -99.10465, 'ymin': 19.308702, 'xmax': -99.10465, 'ymax': 19.308702}",dining and drinking > restaurant > mexican restaurant > taco restaurant,1
5e1aa400bb134f0007ee1471,Los 3 Chinelos,19.281437,-99.165235,,Ciudad de México,CDMX,14090,,,,MX,2020-01-12,2020-11-25,,,,,,,,['4bf58dd8d48988d151941735'],['Dining and Drinking > Restaurant > Mexican Restaurant > Taco Restaurant'],b'\x00\x00\x00\x00\x01\xc0X\xca\x935\xd2I\xe4@3H\x0cAV\xe2e',"{'xmin': -99.165235, 'ymin': 19.281437, 'xmax': -99.165235, 'ymax': 19.281437}",dining and drinking > restaurant > mexican restaurant > taco restaurant,1
4f661a84e4b08383b31d183e,Tacos El Don,19.274514990953403,-99.18849644649136,,,,,,,,MX,2012-03-18,2021-08-13,,,,,,,,['4bf58dd8d48988d151941735'],['Dining and Drinking > Restaurant > Mexican Restaurant > Taco Restaurant'],b'\x00\x00\x00\x00\x01\xc0X\xcc\x10SfE\xed@3FF\x9dLh\x17',"{'xmin': -99.18849644649136, 'ymin': 19.274514990953403, 'xmax': -99.18849644649136, 'ymax': 19.274514990953403}",dining and drinking > restaurant > mexican restaurant > taco restaurant,1
4b9d42cdf964a520fc9d36e3,"Carnitas ""El Doc""",18.91222881189831,-99.2208607909921,Av. Díaz Ordaz 63,Cuernavac,Morelos,,,,,MX,2010-03-14,2023-12-21,,777 312 2700,,,,,,['4bf58dd8d48988d151941735' '4bf58dd8d48988d1c1941735'],"['Dining and Drinking > Restaurant > Mexican Restaurant > Taco Restaurant'
 'Dining and Drinking > Restaurant > Mexican Restaurant']","b'\x00\x00\x00\x00\x01\xc0X\xce""\x95L\x91\xe8@2\xe9\x87\xd3\xd1\x92z'","{'xmin': -99.2208607909921, 'ymin': 18.91222881189831, 'xmax': -99.2208607909921, 'ymax': 18.91222881189831}","dining and drinking > restaurant > mexican restaurant > taco restaurant, dining and drinking > restaurant > mexican restaurant",1
5d75b6294a3a31000836a197,Taquería Peral,17.547537,-98.578804,,Tlapa,Guerrero,41304,,,,MX,2019-09-09,2020-11-30,,,,,,,,['4bf58dd8d48988d151941735'],['Dining and Drinking > Restaurant > Mexican Restaurant > Taco Restaurant'],b'\x00\x00\x00\x00\x01\xc0X\xa5\x0b\x1f\xee\xb2\xd1@1\x8c+b\x84Y\x96',"{'xmin': -98.578804, 'ymin': 17.547537, 'xmax': -98.578804, 'ymax': 17.547537}",dining and drinking > restaurant > mexican restaurant > taco restaurant,1
