fsq_place_id,name,latitude,longitude,address,locality,region,postcode,admin_region,post_town,po_box,country,date_created,date_refreshed,date_closed,tel,website,email,facebook_id,instagram,twitter,fsq_category_ids,fsq_category_labels,geom,bbox,labels_str,taco_restaurant
856a04a16f454eedd6843f31,Taqueiros,,,Perif de la juventud s n s/n,Chihuahua,Chihuahua,31217,,,,MX,2010-11-04,2023-12-06,,614 414 6828,,,,,,['4bf58dd8d48988d151941735' '4bf58dd8d48988d11d951735'],"['Dining and Drinking > Restaurant > Mexican Restaurant > Taco Restaurant'
 'Retail > Food and Beverage Retail > Butcher']",,"{'xmin': None, 'ymin': None, 'xmax': None, 'ymax': None}","dining and drinking > restaurant > mexican restaurant > taco restaurant, retail > food and beverage retail > butcher",1
4e7f703c30f8de1c654b9fa0,Tacos de birria la carreta,32.48448,-116.91929,Fracc kino,Tijuana,BC,,,,,MX,2011-09-25,2020-11-25,,,,,,,,['4bf58dd8d48988d151941735'],['Dining and Drinking > Restaurant > Mexican Restaurant > Taco Restaurant'],b'\x00\x00\x00\x00\x01\xc0]:\xd5\xa5\xb9b\x8d@@>\x03p\xcd\xc8u',"{'xmin': -116.91929, 'ymin': 32.48448, 'xmax': -116.91929, 'ymax': 32.48448}",dining and drinking > restaurant > mexican restaurant > taco restaurant,1
518adbcc498ea24673ad70d4,Alambres Aztecas,31.865455627441406,-116.6195297241211,,,,,,,,MX,2013-05-08,2021-08-17,,,,,,,,['4bf58dd8d48988d151941735'],['Dining and Drinking > Restaurant > Mexican Restaurant > Taco Restaurant'],"b""\x00\x00\x00\x00\x01\xc0]'\xa6`\x00\x00\x00@?\xdd\x8e\x80\x00\x00\x00""","{'xmin': -116.6195297241211, 'ymin': 31.865455627441406, 'xmax': -116.6195297241211, 'ymax': 31.865455627441406}",dining and drinking > restaurant > mexican restaurant > taco restaurant,1
527eeda411d234922876769f,tacos de carne asada El Toluco,32.6307399985304,-115.42871826802505,,,,,,,,MX,2013-11-10,2021-08-12,,,,,,,,['4bf58dd8d48988d151941735'],['Dining and Drinking > Restaurant > Mexican Restaurant > Taco Restaurant'],b'\x00\x00\x00\x00\x01\xc0\\\xdbp\x1e\xbf\x17b@@P\xbc\x16\x98\xfb\xcc',"{'xmin': -115.42871826802505, 'ymin': 32.6307399985304, 'xmax': -115.42871826802505, 'ymax': 32.6307399985304}",dining and drinking > restaurant > mexican restaurant > taco restaurant,1
5377e1cb498e4a4600ffd521,Tacos El  Mexican,32.53546142578125,-117.00724029541016,,,,,,,,MX,2014-05-17,2021-08-17,,,,,,,,['4bf58dd8d48988d151941735'],['Dining and Drinking > Restaurant > Mexican Restaurant > Taco Restaurant'],b'\x00\x00\x00\x00\x01\xc0]@v\xa0\x00\x00\x00@@D\x8a\x00\x00\x00\x00',"{'xmin': -117.00724029541016, 'ymin': 32.53546142578125, 'xmax': -117.00724029541016, 'ymax': 32.53546142578125}",dining and drinking > restaurant > mexican restaurant > taco restaurant,1
5250ba4c498e73ce1191fa77,Tacos Guzman,32.381625,-117.066801,Emiliano Zapata 299,Rosarito,Baja California,22710,,,,MX,2013-10-06,2020-11-25,,,,,,,,['4bf58dd8d48988d151941735'],['Dining and Drinking > Restaurant > Mexican Restaurant > Taco Restaurant'],b'\x00\x00\x00\x00\x01\xc0]DFw\xb3\x95\xc4@@0\xd9\x16\x87+\x02',"{'xmin': -117.066801, 'ymin': 32.381625, 'xmax': -117.066801, 'ymax': 32.381625}",dining and drinking > restaurant > mexican restaurant > taco restaurant,1
5fde733922667940b02d8805,Chito’s Taco Shop,32.52481,-117.019873,,Tijuana,BC,22010,,,,MX,2020-12-19,2023-08-05,2023-08-05,,,,,,,['4bf58dd8d48988d151941735' '4bf58dd8d48988d1c1941735'],"['Dining and Drinking > Restaurant > Mexican Restaurant > Taco Restaurant'
 'Dining and Drinking > Restaurant > Mexican Restaurant']","b'\x00\x00\x00\x00\x01\xc0]AE\x99gD\xb3@@C,\xf9]N\x90'","{'xmin': -117.019873, 'ymin': 32.52481, 'xmax': -117.019873, 'ymax': 32.52481}","dining and drinking > restaurant > mexican restaurant > taco restaurant, dining and drinking > restaurant > mexican restaurant",1
4f2c44fae4b01c385e363dec,"Tacos de Pescado y Camaron ""Cielito Lindo""",32.63498435230694,-115.5754720695941,,,,,,,,MX,2012-02-03,2021-08-12,,,,,,,,['4bf58dd8d48988d151941735'],['Dining and Drinking > Restaurant > Mexican Restaurant > Taco Restaurant'],b'\x00\x00\x00\x00\x01\xc0\\\xe4\xd4\x88\xcd\xaa\xc2@@QG*\xd1P\xa5',"{'xmin': -115.5754720695941, 'ymin': 32.63498435230694, 'xmax': -115.5754720695941, 'ymax': 32.63498435230694}",dining and drinking > restaurant > mexican restaurant > taco restaurant,1
4e02311f88776240d3f75d61,Mercado Tizapan,32.525941,-117.029397,,,,,,,,MX,2011-06-22,2021-08-13,,,,,,,,['4bf58dd8d48988d151941735'],['Dining and Drinking > Restaurant > Mexican Restaurant > Taco Restaurant'],b'\x00\x00\x00\x00\x01\xc0]A\xe1\xa3\xf4fo@@CR\x08\xe1P\x12',"{'xmin': -117.029397, 'ymin': 32.525941, 'xmax': -117.029397, 'ymax': 32.525941}",dining and drinking > restaurant > mexican restaurant > taco restaurant,1
5331b187498ec968b01ee7e1,Guisa-taco,32.60219955444336,-115.3954086303711,,,,,,,,MX,2014-03-25,2021-08-15,,,,,,,,['4bf58dd8d48988d151941735'],['Dining and Drinking > Restaurant > Mexican Restaurant > Taco Restaurant'],b'\x00\x00\x00\x00\x01\xc0\\\xd9N`\x00\x00\x00@@M\x14\xe0\x00\x00\x00',"{'xmin': -115.3954086303711, 'ymin': 32.60219955444336, 'xmax': -115.3954086303711, 'ymax': 32.60219955444336}",dining and drinking > restaurant > mexican restaurant > taco restaurant,1
4e9e4097b8f7dc8c48c11182,La michoacana,32.579305,-115.471799,,Mexicali,Baja California,,,,,MX,2011-10-19,2020-11-23,2013-03-20,,,,,,,['4bf58dd8d48988d1cb941735' '4bf58dd8d48988d151941735'],"['Dining and Drinking > Food Truck'
 'Dining and Drinking > Restaurant > Mexican Restaurant > Taco Restaurant']",b'\x00\x00\x00\x00\x01\xc0\\\xde1\xf4n\xd2F@@J&\xaa\x8e\xb4c',"{'xmin': -115.471799, 'ymin': 32.579305, 'xmax': -115.471799, 'ymax': 32.579305}","dining and drinking > food truck, dining and drinking > restaurant > mexican restaurant > taco restaurant",1
5d17aad45cbbb2002fb48f9d,Birrieria El Dorado,32.514006,-116.862523,,Tijuana,BC,22204,,,,MX,2019-06-29,2020-11-25,,,,,,,,['4bf58dd8d48988d151941735'],['Dining and Drinking > Restaurant > Mexican Restaurant > Taco Restaurant'],b'\x00\x00\x00\x00\x01\xc0]73\x93\xabC\x0f@@A\xca\xf2\xd7\xf9Q',"{'xmin': -116.862523, 'ymin': 32.514006, 'xmax': -116.862523, 'ymax': 32.514006}",dining and drinking > restaurant > mexican restaurant > taco restaurant,1
523b58a211d20eddbd475a56,Tacos de La K,32.66633,-115.458832,,Mexicali,BCN,,,,,MX,2013-09-19,2020-11-21,,,,,,,,['4bf58dd8d48988d151941735'],['Dining and Drinking > Restaurant > Mexican Restaurant > Taco Restaurant'],b'\x00\x00\x00\x00\x01\xc0\\\xdd]\x80\xe4\x96\xee@@UJM++\xfe',"{'xmin': -115.458832, 'ymin': 32.66633, 'xmax': -115.458832, 'ymax': 32.66633}",dining and drinking > restaurant > mexican restaurant > taco restaurant,1
5784014fcd1066b3244e9b67,"Tacos de birria ""El Chapo""",32.523488,-116.92785,,,,,,,,MX,2016-07-11,2021-08-14,,,,,,,,['4bf58dd8d48988d151941735'],['Dining and Drinking > Restaurant > Mexican Restaurant > Taco Restaurant'],b'\x00\x00\x00\x00\x01\xc0];a\xe4\xf7e\xfe@@C\x01\xa7\x9f\xec\x9a',"{'xmin': -116.92785, 'ymin': 32.523488, 'xmax': -116.92785, 'ymax': 32.523488}",dining and drinking > restaurant > mexican restaurant > taco restaurant,1
52b9d8ca498e13b5cfcf255b,Mariscos Rincon del Puerto,31.890438079833984,-116.69122314453125,Calle M,Ensenada,Baja California,22760,,,,MX,2013-12-24,2020-11-22,,646 131 7536,,,,,,['4bf58dd8d48988d151941735'],['Dining and Drinking > Restaurant > Mexican Restaurant > Taco Restaurant'],"b'\x00\x00\x00\x00\x01\xc0],=\x00\x00\x00\x00@?\xe3\xf3\xc0\x00\x00\x00'","{'xmin': -116.69122314453125, 'ymin': 31.890438079833984, 'xmax': -116.69122314453125, 'ymax': 31.890438079833984}",dining and drinking > restaurant > mexican restaurant > taco restaurant,1
4fee1a10e4b078413a4fa85b,El tizoncito,32.5153479,-117.073945,"San Angel, Periférico sur 4020",,,,,,,MX,2012-06-29,2021-08-14,,,,,,,,['4bf58dd8d48988d151941735'],['Dining and Drinking > Restaurant > Mexican Restaurant > Taco Restaurant'],"b'\x00\x00\x00\x00\x01\xc0]D\xbb\x83\xcf,\xf9@@A\xf6\xeb\x84G\xf9'","{'xmin': -117.073945, 'ymin': 32.5153479, 'xmax': -117.073945, 'ymax': 32.5153479}",dining and drinking > restaurant > mexican restaurant > taco restaurant,1
5d200e1cbf5e0e0027b49707,Burritos Y Tacos Baja 1000,32.492304,-116.876885,,Tijuana,BC,22789,,,,MX,2019-07-06,2020-11-21,,,,,,,,['4bf58dd8d48988d151941735'],['Dining and Drinking > Restaurant > Mexican Restaurant > Taco Restaurant'],b'\x00\x00\x00\x00\x01\xc0]8\x1e\xe2CV\x97@@?\x03\xd1E\xd8Q',"{'xmin': -116.876885, 'ymin': 32.492304, 'xmax': -116.876885, 'ymax': 32.492304}",dining and drinking > restaurant > mexican restaurant > taco restaurant,1
4f11ae28e4b000502c460956,Birria Mercado de Todos,32.507450203204456,-116.97730592765743,,,,,,,,MX,2012-01-14,2020-11-23,,,,,,,,['4bf58dd8d48988d151941735'],['Dining and Drinking > Restaurant > Mexican Restaurant > Taco Restaurant'],b'\x00\x00\x00\x00\x01\xc0]>\x8c.)^p@@@\xf4 \xd5\x8eL',"{'xmin': -116.97730592765743, 'ymin': 32.507450203204456, 'xmax': -116.97730592765743, 'ymax': 32.507450203204456}",dining and drinking > restaurant > mexican restaurant > taco restaurant,1
4de84a76d1648c9796302d34,"Tacos Jimenes con ""S""",21.897423778581697,-102.26604945529583,Comerciantes 407,Aguascalientes,AGS,20199,,,,MX,2011-06-03,2020-11-23,,,,,,,,['4bf58dd8d48988d151941735'],['Dining and Drinking > Restaurant > Mexican Restaurant > Taco Restaurant'],b'\x00\x00\x00\x00\x01\xc0Y\x91\x06\xf4KgO@5\xe5\xbd\x90\x93\xa9@',"{'xmin': -102.26604945529583, 'ymin': 21.897423778581697, 'xmax': -102.26604945529583, 'ymax': 21.897423778581697}",dining and drinking > restaurant > mexican restaurant > taco restaurant,1
54729b9a498e7ddb1b9f4d2c,Tacos de av. La Paz,20.650379357632843,-103.44213166925856,Av. La Paz #1138,Guadalajara,Jalisco,44100,,,,MX,2014-11-24,2020-11-30,,,,,,,,['4bf58dd8d48988d151941735'],['Dining and Drinking > Restaurant > Mexican Restaurant > Taco Restaurant'],b'\x00\x00\x00\x00\x01\xc0Y\xdcK\xe2\xa0\xffs@4\xa6\x7fB\xf7\x06\xcc',"{'xmin': -103.44213166925856, 'ymin': 20.650379357632843, 'xmax': -103.44213166925856, 'ymax': 20.650379357632843}",dining and drinking > restaurant > mexican restaurant > taco restaurant,1
5050c931e4b044b0250d40b9,Tacos Joven,20.679662704467773,-103.35984802246094,,,,,,,,MX,2012-09-12,2021-08-16,,,,,,,,['4bf58dd8d48988d151941735'],['Dining and Drinking > Restaurant > Mexican Restaurant > Taco Restaurant'],b'\x00\x00\x00\x00\x01\xc0Y\xd7\x07\xc0\x00\x00\x00@4\xad\xfe`\x00\x00\x00',"{'xmin': -103.35984802246094, 'ymin': 20.679662704467773, 'xmax': -103.35984802246094, 'ymax': 20.679662704467773}",dining and drinking > restaurant > mexican restaurant > taco restaurant,1
53e04d4a498e332eaf5f9c3d,"La carreta de ""DON CHAVA""",20.681448,-103.435495,,,,,,,,MX,2014-08-05,2021-08-14,,,,,,,,['4bf58dd8d48988d151941735'],['Dining and Drinking > Restaurant > Mexican Restaurant > Taco Restaurant'],b'\x00\x00\x00\x00\x01\xc0Y\xdb\xdf&k\xa4\x94@4\xaes`I\xec\xb3',"{'xmin': -103.435495, 'ymin': 20.681448, 'xmax': -103.435495, 'ymax': 20.681448}",dining and drinking > restaurant > mexican restaurant > taco restaurant,1
53c1eb03498e93dc5c632462,Cenaduria El Antojo,20.126957,-101.18938,,,,,,,,MX,2014-07-13,2021-08-11,,,,,,,,['4bf58dd8d48988d151941735'],['Dining and Drinking > Restaurant > Mexican Restaurant > Taco Restaurant'],b'\x00\x00\x00\x00\x01\xc0YL\x1e\xcdJ\xa1\x0e@4 \x80A\x02\xff\x8f',"{'xmin': -101.18938, 'ymin': 20.126957, 'xmax': -101.18938, 'ymax': 20.126957}",dining and drinking > restaurant > mexican restaurant > taco restaurant,1
505e741ee4b0a054468e7c6e,Taqueria la Michoacana,20.39576270240472,-101.20434444661196,,,,,,,,MX,2012-09-23,2021-08-14,,,,,,,,['4bf58dd8d48988d151941735'],['Dining and Drinking > Restaurant > Mexican Restaurant > Taco Restaurant'],b'\x00\x00\x00\x00\x01\xc0YM\x13\xfa\xba\xd4S@4eP\xb4W\xce\x0b',"{'xmin': -101.20434444661196, 'ymin': 20.39576270240472, 'xmax': -101.20434444661196, 'ymax': 20.39576270240472}",dining and drinking > restaurant > mexican restaurant > taco restaurant,1
4f475739e4b08f45db7fbe7f,tacos che,20.6946260318314,-103.36276465623534,avenida americas 924,guadalajara,jalisco,,,,,MX,2012-02-24,2023-12-21,,33 3616 6874,,,,,,['4bf58dd8d48988d151941735'],['Dining and Drinking > Restaurant > Mexican Restaurant > Taco Restaurant'],b'\x00\x00\x00\x00\x01\xc0Y\xd77\x89?\xab;@4\xb1\xd3\x02\xf9\xaa\x87',"{'xmin': -103.36276465623534, 'ymin': 20.6946260318314, 'xmax': -103.36276465623534, 'ymax': 20.6946260318314}",dining and drinking > restaurant > mexican restaurant > taco restaurant,1
6126f6b00890ab7817ed1a50,Tacos Alex,20.74396,-105.27704,,,Nayarit,63735,,,,MX,2021-08-26,2021-08-26,,,,,,,,['4bf58dd8d48988d151941735'],['Dining and Drinking > Restaurant > Mexican Restaurant > Taco Restaurant'],b'\x00\x00\x00\x00\x01\xc0ZQ\xbb\x05\xfa\xeb\xc4@4\xbet)\x9d\x88<',"{'xmin': -105.27704, 'ymin': 20.74396, 'xmax': -105.27704, 'ymax': 20.74396}",dining and drinking > restaurant > mexican restaurant > taco restaurant,1
50cb4ab7e4b0262ed7bc90eb,Tacos de la basura,20.73160960859812,-103.36324411828167,Av. Periférico Norte 1493,Zapopan,Jalisco,,,,,MX,2012-12-14,2020-11-26,,,,,,,,['4bf58dd8d48988d151941735'],['Dining and Drinking > Restaurant > Mexican Restaurant > Taco Restaurant'],b'\x00\x00\x00\x00\x01\xc0Y\xd7?dB\x1e\xfc@4\xbbJ\xc4n^H',"{'xmin': -103.36324411828167, 'ymin': 20.73160960859812, 'xmax': -103.36324411828167, 'ymax': 20.73160960859812}",dining and drinking > restaurant > mexican restaurant > taco restaurant,1
51bde5eb498e121ab3c2277e,Carnitas Los Buhos,22.1942455,-101.0015888,Modulo 33,San Carlos,Morelos,,,,,MX,2013-06-16,2021-08-14,,,,,,,,['4bf58dd8d48988d151941735'],['Dining and Drinking > Restaurant > Mexican Restaurant > Taco Restaurant'],b'\x00\x00\x00\x00\x01\xc0Y@\x1a\x07\xe9\x02\x8d@61\xba\x12\xb5\xe5*',"{'xmin': -101.0015888, 'ymin': 22.1942455, 'xmax': -101.0015888, 'ymax': 22.1942455}",dining and drinking > restaurant > mexican restaurant > taco restaurant,1
5028778fe4b067a862d29271,Taqueria los Reyes,20.81340217590332,-102.76555633544922,,,,,,,,MX,2012-08-13,2021-08-13,,,,,,,,['4bf58dd8d48988d151941735'],['Dining and Drinking > Restaurant > Mexican Restaurant > Taco Restaurant'],b'\x00\x00\x00\x00\x01\xc0Y\xb0\xfe\xe0\x00\x00\x00@4\xd0; \x00\x00\x00',"{'xmin': -102.76555633544922, 'ymin': 20.81340217590332, 'xmax': -102.76555633544922, 'ymax': 20.81340217590332}",dining and drinking > restaurant > mexican restaurant > taco restaurant,1
4fe38999e4b0675f95bf6103,"Tacos Al Pastor ""Lento Lopez""",20.681815,-103.357015,,Guadalajara,Jalisco,,,,,MX,2012-06-21,2021-08-11,,,,,,,,['4bf58dd8d48988d151941735'],['Dining and Drinking > Restaurant > Mexican Restaurant > Taco Restaurant'],b'\x00\x00\x00\x00\x01\xc0Y\xd6\xd9UqK\x9d@4\xae\x8bm\x86\xec\x18',"{'xmin': -103.357015, 'ymin': 20.681815, 'xmax': -103.357015, 'ymax': 20.681815}",dining and drinking > restaurant > mexican restaurant > taco restaurant,1
580b8df038fa9e6be0349e62,Tacos Efren,20.677833,-103.369103,,,,,,,,MX,2016-10-22,2021-08-15,,,,,,,,['4bf58dd8d48988d151941735'],['Dining and Drinking > Restaurant > Mexican Restaurant > Taco Restaurant'],b'\x00\x00\x00\x00\x01\xc0Y\xd7\x9fb0v\xc0@4\xad\x86v\xa7&J',"{'xmin': -103.369103, 'ymin': 20.677833, 'xmax': -103.369103, 'ymax': 20.677833}",dining and drinking > restaurant > mexican restaurant > taco restaurant,1
508176bde4b00dc4a1258b32,Tacos de Puerco,20.684682861490685,-103.33279904684191,,,,,,,,MX,2012-10-19,2021-08-15,,,,,,,,['4bf58dd8d48988d151941735'],['Dining and Drinking > Restaurant > Mexican Restaurant > Taco Restaurant'],b'\x00\x00\x00\x00\x01\xc0Y\xd5L\x94_\x94\xdd@4\xafG`B;\xf4',"{'xmin': -103.33279904684191, 'ymin': 20.684682861490685, 'xmax': -103.33279904684191, 'ymax': 20.684682861490685}",dining and drinking > restaurant > mexican restaurant > taco restaurant,1
4e40906f45dd246ccb6f9d26,Tacos Roy San Javier,21.02699648537167,-101.25965522237455,,Guanajuato,Guanajuato,,,,,MX,2011-08-09,2020-11-25,,,,,,,,['4bf58dd8d48988d151941735'],['Dining and Drinking > Restaurant > Mexican Restaurant > Taco Restaurant'],b'\x00\x00\x00\x00\x01\xc0YP\x9e0\xf0\x15e@5\x06\xe9=\xdd\xc7<',"{'xmin': -101.25965522237455, 'ymin': 21.02699648537167, 'xmax': -101.25965522237455, 'ymax': 21.02699648537167}",dining and drinking > restaurant > mexican restaurant > taco restaurant,1
58e9b3f9bbec660f96413059,Taco Burguerx,21.487682,-104.89892,Calle Iturbide 235,Tepic,Nayarit,63180,,,,MX,2017-04-09,2020-11-23,,,,,,,,['4bf58dd8d48988d151941735'],['Dining and Drinking > Restaurant > Mexican Restaurant > Taco Restaurant'],b'\x00\x00\x00\x00\x01\xc0Z9\x87\xe7\xc0n\x1a@5|\xd8\xba@\xd9\x0e',"{'xmin': -104.89892, 'ymin': 21.487682, 'xmax': -104.89892, 'ymax': 21.487682}",dining and drinking > restaurant > mexican restaurant > taco restaurant,1
4fb54bdce4b0cc9e7824f731,tacos sahuayo,20.618739185091393,-103.42272830739437,,,,,,,,MX,2012-05-17,2023-12-19,,322 783 7692,,,,,,['4bf58dd8d48988d151941735'],['Dining and Drinking > Restaurant > Mexican Restaurant > Taco Restaurant'],b'\x00\x00\x00\x00\x01\xc0Y\xdb\r\xfb\x07\xd6\x8b@4\x9ee\xb0\xf4\xb8\xa2',"{'xmin': -103.42272830739437, 'ymin': 20.618739185091393, 'xmax': -103.42272830739437, 'ymax': 20.618739185091393}",dining and drinking > restaurant > mexican restaurant > taco restaurant,1
50f9843de4b058068253b2c3,Tacos De Suadero,20.64211144824341,-103.36505480888616,Calle 3 Esq Calle 8,Guadalajara,Jalisco,,,,,MX,2013-01-18,2021-08-12,,,,,,,,['4bf58dd8d48988d151941735'],['Dining and Drinking > Restaurant > Mexican Restaurant > Taco Restaurant'],b'\x00\x00\x00\x00\x01\xc0Y\xd7]\x0e\xd8Zx@4\xa4ajv\x97\xb7',"{'xmin': -103.36505480888616, 'ymin': 20.64211144824341, 'xmax': -103.36505480888616, 'ymax': 20.64211144824341}",dining and drinking > restaurant > mexican restaurant > taco restaurant,1
4f09d5efe4b033211b1762c8,Los Ahogad'os,19.689856540102987,-101.17924762738083,Gildardo Magaña,,,,,,,MX,2012-01-08,2021-08-15,,,,,,,,['4bf58dd8d48988d151941735'],['Dining and Drinking > Restaurant > Mexican Restaurant > Taco Restaurant'],b'\x00\x00\x00\x00\x01\xc0YKx\xcb\n_\x1f@3\xb0\x9ap.\xac\x8e',"{'xmin': -101.17924762738083, 'ymin': 19.689856540102987, 'xmax': -101.17924762738083, 'ymax': 19.689856540102987}",dining and drinking > restaurant > mexican restaurant > taco restaurant,1
58d922ea8190793d23e1f172,Tacos De Canasta,20.542197,-100.806249,,Celaya,GTO,38010,,,,MX,2017-03-27,2020-11-26,,,,,,,,['4bf58dd8d48988d151941735'],['Dining and Drinking > Restaurant > Mexican Restaurant > Taco Restaurant'],b'\x00\x00\x00\x00\x01\xc0Y3\x99\x95g\xdb\xb1@4\x8a\xcdl.\xfdD',"{'xmin': -100.806249, 'ymin': 20.542197, 'xmax': -100.806249, 'ymax': 20.542197}",dining and drinking > restaurant > mexican restaurant > taco restaurant,1
5799693d498e43917c5f512c,Taquería La Tostada,22.155909,-101.00395,,,,,,,,MX,2016-07-28,2021-08-12,,,,,,,,['4bf58dd8d48988d151941735'],['Dining and Drinking > Restaurant > Mexican Restaurant > Taco Restaurant'],"b""\x00\x00\x00\x00\x01\xc0Y@@\xb7\x804n@6'\xe9\xa6\xf8&\xee""","{'xmin': -101.00395, 'ymin': 22.155909, 'xmax': -101.00395, 'ymax': 22.155909}",dining and drinking > restaurant > mexican restaurant > taco restaurant,1
527f2f71498e8d519d6ec275,Brazitacos,20.698736170394547,-101.3771135690385,,,,,,,,MX,2013-11-10,2021-08-10,,,,,,,,['4bf58dd8d48988d151941735'],['Dining and Drinking > Restaurant > Mexican Restaurant > Taco Restaurant'],"b'\x00\x00\x00\x00\x01\xc0YX""\xa0\xf3y|@4\xb2\xe0_\xa8`z'","{'xmin': -101.3771135690385, 'ymin': 20.698736170394547, 'xmax': -101.3771135690385, 'ymax': 20.698736170394547}",dining and drinking > restaurant > mexican restaurant > taco restaurant,1
5946c7d9002f4c4e85477421,Carnitas Chino,20.722803,-103.319414,,Guadalajara,JAL,44700,,,,MX,2017-06-18,2021-08-13,,,,,,,,['4bf58dd8d48988d151941735'],['Dining and Drinking > Restaurant > Mexican Restaurant > Taco Restaurant'],b'\x00\x00\x00\x00\x01\xc0Y\xd4qGj\xf8\x9c@4\xb9\t\x9e\x0es`',"{'xmin': -103.319414, 'ymin': 20.722803, 'xmax': -103.319414, 'ymax': 20.722803}",dining and drinking > restaurant > mexican restaurant > taco restaurant,1
53c89cdb498e7f3aa74f9891,Kekas La Chilanguita,22.147715,-100.889548,Av Villas Del Sol 515,Soledad De Graciano Sánchez,San Luis Potosí,,,,,MX,2014-07-18,2020-11-24,,,,,,,,['4bf58dd8d48988d151941735'],['Dining and Drinking > Restaurant > Mexican Restaurant > Taco Restaurant'],b'\x00\x00\x00\x00\x01\xc0Y8\xeeZ\xbc\x0e9@6%\xd0\xa6v \xef',"{'xmin': -100.889548, 'ymin': 22.147715, 'xmax': -100.889548, 'ymax': 22.147715}",dining and drinking > restaurant > mexican restaurant > taco restaurant,1
4fa1f66ee4b018dc45c20195,Super Tacos Sonora,21.5314762,-104.8726664,Calle Azucena,Tepic,Nayarit,63000,,,,MX,2012-05-03,2020-11-24,,,,,,,,['4bf58dd8d48988d151941735'],['Dining and Drinking > Restaurant > Mexican Restaurant > Taco Restaurant'],"b'\x00\x00\x00\x00\x01\xc0Z7\xd9\xc4,\x14[@5\x88\x0e\xd3\x01\x9a4'","{'xmin': -104.8726664, 'ymin': 21.5314762, 'xmax': -104.8726664, 'ymax': 21.5314762}",dining and drinking > restaurant > mexican restaurant > taco restaurant,1
53e05401498ea6e4b87e7eca,asa2 lps norteños,20.676387336927984,-103.45137723305771,Av Central,Ciudad Granja,,,,,,MX,2014-08-05,2020-11-23,,,,,,,,['4bf58dd8d48988d151941735'],['Dining and Drinking > Restaurant > Mexican Restaurant > Taco Restaurant'],"b""\x00\x00\x00\x00\x01\xc0Y\xdc\xe3]U\x89\x14@4\xad'\xb8s\x88\xc3""","{'xmin': -103.45137723305771, 'ymin': 20.676387336927984, 'xmax': -103.45137723305771, 'ymax': 20.676387336927984}",dining and drinking > restaurant > mexican restaurant > taco restaurant,1
537ea6bc498ee5d4ff0fb71c,Tacos,19.684899,-101.199557,Av. Universidad,Morelia,Michoacán,,,,,MX,2014-05-23,2020-11-23,,,,,,,,['4bf58dd8d48988d151941735'],['Dining and Drinking > Restaurant > Mexican Restaurant > Taco Restaurant'],"b'\x00\x00\x00\x00\x01\xc0YL\xc5\x8a\xb9,\x06@3\xafU\x8av\x10('","{'xmin': -101.199557, 'ymin': 19.684899, 'xmax': -101.199557, 'ymax': 19.684899}",dining and drinking > restaurant > mexican restaurant > taco restaurant,1
558cc540498ede23f92afe02,Pueblo Magico,20.63220443785088,-103.43020598654712,Araceli Souza,Paseos Del Sol,jalisco,,,,,MX,2015-06-26,2021-08-15,,,,,,,,['4bf58dd8d48988d151941735'],['Dining and Drinking > Restaurant > Mexican Restaurant > Taco Restaurant'],b'\x00\x00\x00\x00\x01\xc0Y\xdb\x88~\xb0\xb0\xda@4\xa1\xd8&h\xf4\xa2',"{'xmin': -103.43020598654712, 'ymin': 20.63220443785088, 'xmax': -103.43020598654712, 'ymax': 20.63220443785088}",dining and drinking > restaurant > mexican restaurant > taco restaurant,1
535968d7498e41d8b0663fd5,Barilochito C.U.,19.68636866858885,-101.20686720511976,Avenida Universidad,Morelia,Michoacán de Ocampo,58066,,,,MX,2014-04-24,2020-11-22,,443 204 4452,,,,,,['4bf58dd8d48988d151941735'],['Dining and Drinking > Restaurant > Mexican Restaurant > Taco Restaurant'],b'\x00\x00\x00\x00\x01\xc0YM=O\xf2&\xad@3\xaf\xb5\xdbh\x96\x93',"{'xmin': -101.20686720511976, 'ymin': 19.68636866858885, 'xmax': -101.20686720511976, 'ymax': 19.68636866858885}",dining and drinking > restaurant > mexican restaurant > taco restaurant,1
56f74eb2cd102dca41979f88,el señor de los taquillos,21.15911,-100.930744,,,,,,,,MX,2016-03-27,2021-08-11,,,,,,,,['4bf58dd8d48988d151941735'],['Dining and Drinking > Restaurant > Mexican Restaurant > Taco Restaurant'],b'\x00\x00\x00\x00\x01\xc0Y;\x91OH<\xb0@5(\xbbn\xd6wp',"{'xmin': -100.930744, 'ymin': 21.15911, 'xmax': -100.930744, 'ymax': 21.15911}",dining and drinking > restaurant > mexican restaurant > taco restaurant,1
548a3b81498e96c3ac6dc730,Tacos Spanky,21.16208143985729,-100.93657299636453,,,,,,,,MX,2014-12-12,2021-08-17,,,,,,,,['4bf58dd8d48988d151941735'],['Dining and Drinking > Restaurant > Mexican Restaurant > Taco Restaurant'],b'\x00\x00\x00\x00\x01\xc0Y;\xf0\xcf\xddl\xf4@5)~+Sy\xc4',"{'xmin': -100.93657299636453, 'ymin': 21.16208143985729, 'xmax': -100.93657299636453, 'ymax': 21.16208143985729}",dining and drinking > restaurant > mexican restaurant > taco restaurant,1
4f0bb9ede4b020a8d8fe869e,"Tacos ""Luz Eléctrica""",20.338885028986244,-102.02012638667917,Miguel Hidalgo esquina 16 de Septiembre,La Piedad,Michoacán de Ocampo,,,,,MX,2012-01-10,2020-11-25,,,,,,,,['4bf58dd8d48988d151941735'],['Dining and Drinking > Restaurant > Mexican Restaurant > Taco Restaurant'],b'\x00\x00\x00\x00\x01\xc0Y\x81I\xc0/$\xb7@4V\xc1+T\x99\x95',"{'xmin': -102.02012638667917, 'ymin': 20.338885028986244, 'xmax': -102.02012638667917, 'ymax': 20.338885028986244}",dining and drinking > restaurant > mexican restaurant > taco restaurant,1
57aa8928498e9d580f134df3,Va! Tacos Vallarta,20.67372,-103.404717,La Gran Plaza Fashion Mall,,,,,,,MX,2016-08-10,2021-08-12,,,,,,,,['4bf58dd8d48988d151941735'],['Dining and Drinking > Restaurant > Mexican Restaurant > Taco Restaurant'],b'\x00\x00\x00\x00\x01\xc0Y\xd9\xe6\xe2!\xc8\xa8@4\xacx\xe9\xf6\xa9?',"{'xmin': -103.404717, 'ymin': 20.67372, 'xmax': -103.404717, 'ymax': 20.67372}",dining and drinking > restaurant > mexican restaurant > taco restaurant,1
5376bd7811d2b93afe2892c2,"Tacos ""La Prima""",20.522217,-100.794652,,,,,,,,MX,2014-05-17,2021-08-14,,,,,,,,['4bf58dd8d48988d151941735'],['Dining and Drinking > Restaurant > Mexican Restaurant > Taco Restaurant'],b'\x00\x00\x00\x00\x01\xc0Y2\xdb\x94\x0f\xec\xdd@4\x85\xb0\x03hjM',"{'xmin': -100.794652, 'ymin': 20.522217, 'xmax': -100.794652, 'ymax': 20.522217}",dining and drinking > restaurant > mexican restaurant > taco restaurant,1
5667a23c498eeb01233558e3,Don Toribio Taco & Cantina,20.710613250732422,-105.27608489990234,Plaza Parabien,Nuevo Vallarta,Jalisco,,,,,MX,2015-12-09,2020-11-23,,322 306 0597,,,,,,['4bf58dd8d48988d151941735'],['Dining and Drinking > Restaurant > Mexican Restaurant > Taco Restaurant'],b'\x00\x00\x00\x00\x01\xc0ZQ\xab`\x00\x00\x00@4\xb5\xea\xc0\x00\x00\x00',"{'xmin': -105.27608489990234, 'ymin': 20.710613250732422, 'xmax': -105.27608489990234, 'ymax': 20.710613250732422}",dining and drinking > restaurant > mexican restaurant > taco restaurant,1
53fd08b2498e6664d51eb8ed,Taquería Las Carpas,21.50842717301286,-104.89207266763233,Allende 3,Tepic,Nayarit,63000,,,,MX,2014-08-26,2023-12-19,,311 212 8976,,,,,,['4bf58dd8d48988d151941735'],['Dining and Drinking > Restaurant > Mexican Restaurant > Taco Restaurant'],b'\x00\x00\x00\x00\x01\xc0Z9\x17\xb7\xf5H\xba@5\x82(H\x80|\xeb',"{'xmin': -104.89207266763233, 'ymin': 21.50842717301286, 'xmax': -104.89207266763233, 'ymax': 21.50842717301286}",dining and drinking > restaurant > mexican restaurant > taco restaurant,1
513962c2e4b05447356fa214,Restaurante Arandas Jalisco,20.482506,-100.963142,,,,,,,,MX,2013-03-08,2021-08-17,,,,,,,,['4bf58dd8d48988d151941735'],['Dining and Drinking > Restaurant > Mexican Restaurant > Taco Restaurant'],b'\x00\x00\x00\x00\x01\xc0Y=\xa4\x1eW\xd9\xdc@4{\x85\x83b\x1f\xb0',"{'xmin': -100.963142, 'ymin': 20.482506, 'xmax': -100.963142, 'ymax': 20.482506}",dining and drinking > restaurant > mexican restaurant > taco restaurant,1
4e9f073d02d576b6556ec423,Tacos de Canasta Chabelita,20.678004180194936,-105.24882482177712,,,,,,,,MX,2011-10-19,2021-08-13,,,,,,,,['4bf58dd8d48988d151941735'],['Dining and Drinking > Restaurant > Mexican Restaurant > Taco Restaurant'],b'\x00\x00\x00\x00\x01\xc0ZO\xec\xbe\xf1\xfd\xcf@4\xad\x91\xae\x94}\x11',"{'xmin': -105.24882482177712, 'ymin': 20.678004180194936, 'xmax': -105.24882482177712, 'ymax': 20.678004180194936}",dining and drinking > restaurant > mexican restaurant > taco restaurant,1
532159cc11d2f6df03370a32,Taco Magno,20.674606678747715,-103.3814029564252,,Guadalajara,Jalisco,,,,,MX,2014-03-13,2021-08-14,,,,,,,,['4bf58dd8d48988d151941735'],['Dining and Drinking > Restaurant > Mexican Restaurant > Taco Restaurant'],b'\x00\x00\x00\x00\x01\xc0Y\xd8h\xe7\xf2\x1cj@4\xac\xb3\x05\xf6\xe2v',"{'xmin': -103.3814029564252, 'ymin': 20.674606678747715, 'xmax': -103.3814029564252, 'ymax': 20.674606678747715}",dining and drinking > restaurant > mexican restaurant > taco restaurant,1
55f1a6e4498e570d3d1fd3f0,"Tacos de canasta ""Caro""",21.875330258494436,-102.25041359269413,,,,,,,,MX,2015-09-10,2021-08-12,,,,,,,,['4bf58dd8d48988d151941735'],['Dining and Drinking > Restaurant > Mexican Restaurant > Taco Restaurant'],b'\x00\x00\x00\x00\x01\xc0Y\x90\x06\xc6\xbb\xc6\x17@5\xe0\x15\xa4\xd1n\xce',"{'xmin': -102.25041359269413, 'ymin': 21.875330258494436, 'xmax': -102.25041359269413, 'ymax': 21.875330258494436}",dining and drinking > restaurant > mexican restaurant > taco restaurant,1
57088b75498ebe45cb496f10,Arrachaz Altozano,19.66804088772674,-101.16776618519572,Plaza Estella,,,,,,,MX,2016-04-09,2020-11-23,,,,,,,,['4bf58dd8d48988d151941735'],['Dining and Drinking > Restaurant > Mexican Restaurant > Taco Restaurant'],b'\x00\x00\x00\x00\x01\xc0YJ\xbc\xaea\xb2\x94@3\xab\x04\xbaE-Z',"{'xmin': -101.16776618519572, 'ymin': 19.66804088772674, 'xmax': -101.16776618519572, 'ymax': 19.66804088772674}",dining and drinking > restaurant > mexican restaurant > taco restaurant,1
50d53550e4b079542ff3166f,Tacos El Bolis,19.10831642150879,-104.31478118896484,,,,,,,,MX,2012-12-22,2021-08-19,,,,,,,,['4bf58dd8d48988d151941735'],['Dining and Drinking > Restaurant > Mexican Restaurant > Taco Restaurant'],b'\x00\x00\x00\x00\x01\xc0Z\x14%`\x00\x00\x00@3\x1b\xba\xa0\x00\x00\x00',"{'xmin': -104.31478118896484, 'ymin': 19.10831642150879, 'xmax': -104.31478118896484, 'ymax': 19.10831642150879}",dining and drinking > restaurant > mexican restaurant > taco restaurant,1
5d92bd4891658c00089f07aa,Villamelones,20.720748,-103.363224,Colinas del Capitolio 2548,Zapopan,JAL,45170,,,,MX,2019-10-01,2020-11-23,,844 122 1219,,,,,,"['4bf58dd8d48988d16c941735' '4bf58dd8d48988d16f941735'
 '4bf58dd8d48988d151941735']","['Dining and Drinking > Restaurant > Burger Joint'
 'Dining and Drinking > Restaurant > Hot Dog Joint'
 'Dining and Drinking > Restaurant > Mexican Restaurant > Taco Restaurant']",b'\x00\x00\x00\x00\x01\xc0Y\xd7?\x0f\xe0G\xd4@4\xb8\x82\xf0\xe0\xa8L',"{'xmin': -103.363224, 'ymin': 20.720748, 'xmax': -103.363224, 'ymax': 20.720748}","dining and drinking > restaurant > burger joint, dining and drinking > restaurant > hot dog joint, dining and drinking > restaurant > mexican restaurant > taco restaurant",1
5a0d0d9ebd400971f52654c4,Los Carnalitos,21.116676,-101.695949,,León,GTO,37420,,,,MX,2017-11-16,2020-11-23,,,,,,,,['4bf58dd8d48988d151941735'],['Dining and Drinking > Restaurant > Mexican Restaurant > Taco Restaurant'],b'\x00\x00\x00\x00\x01\xc0Yl\x8am\xac\xab\xc5@5\x1d\xdezt:d',"{'xmin': -101.695949, 'ymin': 21.116676, 'xmax': -101.695949, 'ymax': 21.116676}",dining and drinking > restaurant > mexican restaurant > taco restaurant,1
5b8813ec2c2d18002d7a41fd,Tacos Campestre,21.927259,-102.318716,,Aguascalientes,AGS,20119,,,,MX,2018-08-30,2020-11-24,,,,,,,,['4bf58dd8d48988d151941735'],['Dining and Drinking > Restaurant > Mexican Restaurant > Taco Restaurant'],b'\x00\x00\x00\x00\x01\xc0Y\x94e\xd7\xcb-\x90@5\xed`\xd8\x87\xeb\xf2',"{'xmin': -102.318716, 'ymin': 21.927259, 'xmax': -102.318716, 'ymax': 21.927259}",dining and drinking > restaurant > mexican restaurant > taco restaurant,1
657f7364e7cf7025970ed743,El Peron Tacos,20.315591,-105.318684,,El Tuito,Jal.,48400,,,,MX,2023-12-17,2023-12-17,,,,,,,,['4bf58dd8d48988d151941735'],['Dining and Drinking > Restaurant > Mexican Restaurant > Taco Restaurant'],b'\x00\x00\x00\x00\x01\xc0ZTeQ\x93p\x8b@4P\xca\x92_\xe9u',"{'xmin': -105.318684, 'ymin': 20.315591, 'xmax': -105.318684, 'ymax': 20.315591}",dining and drinking > restaurant > mexican restaurant > taco restaurant,1
50dbc5c2e4b067e5d251e112,Taqueria Davicho,20.64748661238338,-101.34110867216398,Ignacio Leon Ornelas,Irapuato,,,,,,MX,2012-12-27,2020-11-25,,,,,,,,['4bf58dd8d48988d151941735'],['Dining and Drinking > Restaurant > Mexican Restaurant > Taco Restaurant'],b'\x00\x00\x00\x00\x01\xc0YU\xd4\xb9w\xd4\xe2@4\xa5\xc1\xae\xc0\xc8\xd1',"{'xmin': -101.34110867216398, 'ymin': 20.64748661238338, 'xmax': -101.34110867216398, 'ymax': 20.64748661238338}",dining and drinking > restaurant > mexican restaurant > taco restaurant,1
4ff10815e4b092e4b2a54e4d,"Tacos ""Chepe""",19.671820363747617,-101.19241003525742,Antonio Plaza 17‎ Morelia‎ Michoacán de Ocampo México,,,,,,,MX,2012-07-02,2021-08-15,,,,,,,,['4bf58dd8d48988d151941735'],['Dining and Drinking > Restaurant > Mexican Restaurant > Taco Restaurant'],b'\x00\x00\x00\x00\x01\xc0YLPr.6\x95@3\xab\xfck[\x155',"{'xmin': -101.19241003525742, 'ymin': 19.671820363747617, 'xmax': -101.19241003525742, 'ymax': 19.671820363747617}",dining and drinking > restaurant > mexican restaurant > taco restaurant,1
4a341ca6c7634a6aa2f74af7,Quesadillas Medias Blancas,21.147629,-101.644503,Medias Blancas 217,León,Guanajuato,37239,,,,MX,2013-05-29,2023-12-06,,477 776 5425,,,,,,['4bf58dd8d48988d151941735'],['Dining and Drinking > Restaurant > Mexican Restaurant > Taco Restaurant'],b'\x00\x00\x00\x00\x01\xc0Yi?\x89\x82\xcb!@5%\xcb\x03\x9e\xf0\xf1',"{'xmin': -101.644503, 'ymin': 21.147629, 'xmax': -101.644503, 'ymax': 21.147629}",dining and drinking > restaurant > mexican restaurant > taco restaurant,1
50cc9335e4b03ef079ac1474,Tacos De Guisado,20.641395085540506,-103.34579850418284,,Guadalajara,Jalisco,,,,,MX,2012-12-15,2021-08-13,,,,,,,,['4bf58dd8d48988d151941735'],['Dining and Drinking > Restaurant > Mexican Restaurant > Taco Restaurant'],b'\x00\x00\x00\x00\x01\xc0Y\xd6!\x90\x0c\x9e%@4\xa42w\xe46+',"{'xmin': -103.34579850418284, 'ymin': 20.641395085540506, 'xmax': -103.34579850418284, 'ymax': 20.641395085540506}",dining and drinking > restaurant > mexican restaurant > taco restaurant,1
5aaf27d8cd441c1ee9fa8fca,Don Taco,20.960434,-101.29789,,Guanajuato,GTO,36263,,,,MX,2018-03-19,2020-11-22,,,,,,,,['4bf58dd8d48988d151941735'],['Dining and Drinking > Restaurant > Mexican Restaurant > Taco Restaurant'],b'\x00\x00\x00\x00\x01\xc0YS\x10\xa17\xf3\x8c@4\xf5\xdf\x00\xab\xf7j',"{'xmin': -101.29789, 'ymin': 20.960434, 'xmax': -101.29789, 'ymax': 20.960434}",dining and drinking > restaurant > mexican restaurant > taco restaurant,1
5126ecede4b059af4d457f44,tacos la tia Laura,21.501249313354492,-104.9100570678711,,,,,,,,MX,2013-02-22,2021-08-13,,,,,,,,['4bf58dd8d48988d151941735'],['Dining and Drinking > Restaurant > Mexican Restaurant > Taco Restaurant'],b'\x00\x00\x00\x00\x01\xc0Z:>`\x00\x00\x00@5\x80Q\xe0\x00\x00\x00',"{'xmin': -104.9100570678711, 'ymin': 21.501249313354492, 'xmax': -104.9100570678711, 'ymax': 21.501249313354492}",dining and drinking > restaurant > mexican restaurant > taco restaurant,1
51cde428498ea57fe5c5348a,Tacosteño,20.721161,-103.363758,Enrique Gómez Carrillo #5516,Zapopan,Jalisco,,,,,MX,2013-06-28,2020-11-24,,,,,,,,['4bf58dd8d48988d1ce941735' '4bf58dd8d48988d151941735'],"['Dining and Drinking > Restaurant > Seafood Restaurant'
 'Dining and Drinking > Restaurant > Mexican Restaurant > Taco Restaurant']",b'\x00\x00\x00\x00\x01\xc0Y\xd7G\xcf\xa2j#@4\xb8\x9e\x01\xde&\x91',"{'xmin': -103.363758, 'ymin': 20.721161, 'xmax': -103.363758, 'ymax': 20.721161}","dining and drinking > restaurant > seafood restaurant, dining and drinking > restaurant > mexican restaurant > taco restaurant",1
557cf7df498ed2645a65ccd7,"Tacos ""El Divino""",20.7691,-103.439146,,,,,,,,MX,2015-06-14,2021-08-15,,,,,,,,['4bf58dd8d48988d151941735'],['Dining and Drinking > Restaurant > Mexican Restaurant > Taco Restaurant'],b'\x00\x00\x00\x00\x01\xc0Y\xdc\x1a\xf7\xd3\n\xd4@4\xc4\xe3\xbc\xd3Z\x86',"{'xmin': -103.439146, 'ymin': 20.7691, 'xmax': -103.439146, 'ymax': 20.7691}",dining and drinking > restaurant > mexican restaurant > taco restaurant,1
8f652d44afb248f172f016ef,Tacos y Tortas Tin Tan,21.151682,-101.733641,Salamina 224A,León,Guanajuato,37358,,,,MX,2013-03-30,2023-12-06,,477 758 5646,,,,,,['4bf58dd8d48988d151941735'],['Dining and Drinking > Restaurant > Mexican Restaurant > Taco Restaurant'],b'\x00\x00\x00\x00\x01\xc0Yn\xf3\xf9a\x80N@5&\xd4\xa1\xaddR',"{'xmin': -101.733641, 'ymin': 21.151682, 'xmax': -101.733641, 'ymax': 21.151682}",dining and drinking > restaurant > mexican restaurant > taco restaurant,1
5a072f6cbed483485cdd5cad,El Sazón,20.637602,-103.403854,,Zapopan,Jalisco,45086,,,,MX,2017-11-11,2020-11-23,,,,,,,,['4bf58dd8d48988d151941735'],['Dining and Drinking > Restaurant > Mexican Restaurant > Taco Restaurant'],b'\x00\x00\x00\x00\x01\xc0Y\xd9\xd8\xber\x96\xf6@4\xa39\xe2y\xdd<',"{'xmin': -103.403854, 'ymin': 20.637602, 'xmax': -103.403854, 'ymax': 20.637602}",dining and drinking > restaurant > mexican restaurant > taco restaurant,1
569ab220498eb50a957f23ef,Libertad #104,21.120651,-101.67753,Libertad #104,Leon,guanajuato,37000,,,,MX,2016-01-16,2020-11-23,,,,,,,,['4bf58dd8d48988d151941735'],['Dining and Drinking > Restaurant > Mexican Restaurant > Taco Restaurant'],b'\x00\x00\x00\x00\x01\xc0Yk\\\xa6\xca\x03\xc5@5\x1e\xe2\xfb\xe3:\xcd',"{'xmin': -101.67753, 'ymin': 21.120651, 'xmax': -101.67753, 'ymax': 21.120651}",dining and drinking > restaurant > mexican restaurant > taco restaurant,1
4e7398a0b61c804a2e09d5a2,Gorditas y carnitas Maria,21.891788072352604,-102.49965454252589,,,,,,,,MX,2011-09-16,2020-11-24,,,,,,,,['4bf58dd8d48988d151941735'],['Dining and Drinking > Restaurant > Mexican Restaurant > Taco Restaurant'],b'\x00\x00\x00\x00\x01\xc0Y\x9f\xfaW\x0b\xdc\x94@5\xe4L9\x1d\xb7\xa2',"{'xmin': -102.49965454252589, 'ymin': 21.891788072352604, 'xmax': -102.49965454252589, 'ymax': 21.891788072352604}",dining and drinking > restaurant > mexican restaurant > taco restaurant,1
516ae158e4b0b2ce6f7b2e32,Tortas Ahogadas Quique Junior,19.259354,-103.714649,,,,,,,,MX,2013-04-14,2021-08-13,,,,,,,,['4bf58dd8d48988d151941735'],['Dining and Drinking > Restaurant > Mexican Restaurant > Taco Restaurant'],b'\x00\x00\x00\x00\x01\xc0Y\xed\xbc\xcf(\xc7\x9f@3Be\x06\x14\x167',"{'xmin': -103.714649, 'ymin': 19.259354, 'xmax': -103.714649, 'ymax': 19.259354}",dining and drinking > restaurant > mexican restaurant > taco restaurant,1
4f75435de4b07c4ad78582a9,El Rincon del Asadero,21.168642115666223,-101.65243249902446,,,,,,,,MX,2012-03-30,2021-08-10,,,,,,,,['4bf58dd8d48988d151941735'],['Dining and Drinking > Restaurant > Mexican Restaurant > Taco Restaurant'],"b'\x00\x00\x00\x00\x01\xc0Yi\xc1t=\x8a\x16@5+,!3\x83\xc2'","{'xmin': -101.65243249902446, 'ymin': 21.168642115666223, 'xmax': -101.65243249902446, 'ymax': 21.168642115666223}",dining and drinking > restaurant > mexican restaurant > taco restaurant,1
5a445e0f3b83074376f64ebc,Tacos Picho,19.10074,-104.30255,Naranjo 39,Manzanillo,Colima,28219,,,,MX,2017-12-28,2020-11-25,,,,,,,,['4bf58dd8d48988d151941735'],['Dining and Drinking > Restaurant > Mexican Restaurant > Taco Restaurant'],"b""\x00\x00\x00\x00\x01\xc0Z\x13\\\xfa\xac\xd9\xe8@3\x19\xca\x18\xbdf'""","{'xmin': -104.30255, 'ymin': 19.10074, 'xmax': -104.30255, 'ymax': 19.10074}",dining and drinking > restaurant > mexican restaurant > taco restaurant,1
52ee81a3498ef60e42e7ea79,Carnitas Los Contreras,21.510374170081203,-104.89228364590866,,,,,,,,MX,2014-02-02,2021-08-12,,,,,,,,['4bf58dd8d48988d151941735'],['Dining and Drinking > Restaurant > Mexican Restaurant > Taco Restaurant'],"b'\x00\x00\x00\x00\x01\xc0Z9\x1b,\xdd{\xbc@5\x82\xa7\xe1\xb18\xcf'","{'xmin': -104.89228364590866, 'ymin': 21.510374170081203, 'xmax': -104.89228364590866, 'ymax': 21.510374170081203}",dining and drinking > restaurant > mexican restaurant > taco restaurant,1
4e5c59eb1495cac419395087,Tacos El Paisita,20.69263688392316,-103.364705078476,,Guadalajara,Jalisco,,,,,MX,2011-08-30,2021-08-16,,,,,,,,['4bf58dd8d48988d151941735'],['Dining and Drinking > Restaurant > Mexican Restaurant > Taco Restaurant'],b'\x00\x00\x00\x00\x01\xc0Y\xd7WS\xf8/U@4\xb1P\xa6\x9ct\r',"{'xmin': -103.364705078476, 'ymin': 20.69263688392316, 'xmax': -103.364705078476, 'ymax': 20.69263688392316}",dining and drinking > restaurant > mexican restaurant > taco restaurant,1
4f5ce892e4b053fd690bcb18,El Birrias,21.51406,-104.894337,,,,,,,,MX,2012-03-11,2023-12-19,,311 217 1704,,,,,,['4bf58dd8d48988d151941735'],['Dining and Drinking > Restaurant > Mexican Restaurant > Taco Restaurant'],b'\x00\x00\x00\x00\x01\xc0Z9<\xd1A\xa6\x93@5\x83\x99o\xa8.\x88',"{'xmin': -104.894337, 'ymin': 21.51406, 'xmax': -104.894337, 'ymax': 21.51406}",dining and drinking > restaurant > mexican restaurant > taco restaurant,1
4ee39113f790897ecf8b2205,"Tacos Al Vapor ""Don David""",20.695168852692635,-103.3749999642359,Colomos a un costado American School,Guadalajara,Jalisco,,,,,MX,2011-12-10,2021-08-12,,,,,,,,['4bf58dd8d48988d151941735'],['Dining and Drinking > Restaurant > Mexican Restaurant > Taco Restaurant'],b'\x00\x00\x00\x00\x01\xc0Y\xd7\xff\xff\xd9\x99=@4\xb1\xf6\x95\xff\x83A',"{'xmin': -103.3749999642359, 'ymin': 20.695168852692635, 'xmax': -103.3749999642359, 'ymax': 20.695168852692635}",dining and drinking > restaurant > mexican restaurant > taco restaurant,1
52c4e2bc11d245740ded0e0c,Tacos Punta Perula,21.444653820000983,-104.89962244337055,Xalisco Centro,,,,,,,MX,2014-01-02,2021-08-14,,,,,,,,['4bf58dd8d48988d151941735'],['Dining and Drinking > Restaurant > Mexican Restaurant > Taco Restaurant'],b'\x00\x00\x00\x00\x01\xc0Z9\x93j\x03A\x8b@5q\xd4\xd5.\xf2\x19',"{'xmin': -104.89962244337055, 'ymin': 21.444653820000983, 'xmax': -104.89962244337055, 'ymax': 21.444653820000983}",dining and drinking > restaurant > mexican restaurant > taco restaurant,1
5708a678498e3b4e7d9d57a7,Tacos Arandas,20.644241886560568,-103.29034596676807,Rio Nilo 3390,Guadalajara,Jalisco,44860,,,,MX,2016-04-09,2021-08-12,,,,,,,,['4bf58dd8d48988d151941735'],['Dining and Drinking > Restaurant > Mexican Restaurant > Taco Restaurant'],b'\x00\x00\x00\x00\x01\xc0Y\xd2\x95\x07?\xf2\xd7@4\xa4\xed\tI}\xb1',"{'xmin': -103.29034596676807, 'ymin': 20.644241886560568, 'xmax': -103.29034596676807, 'ymax': 20.644241886560568}",dining and drinking > restaurant > mexican restaurant > taco restaurant,1
52c78848498ed41cb04e0a20,Tacos fredy`s,21.01969973099086,-101.26364632047958,Tepetapa,,,,,,,MX,2014-01-04,2021-08-15,,,,,,,,['4bf58dd8d48988d151941735'],['Dining and Drinking > Restaurant > Mexican Restaurant > Taco Restaurant'],b'\x00\x00\x00\x00\x01\xc0YP\xdf\x94\xd1\n\xea@5\x05\x0b\n\xa4X\x83',"{'xmin': -101.26364632047958, 'ymin': 21.01969973099086, 'xmax': -101.26364632047958, 'ymax': 21.01969973099086}",dining and drinking > restaurant > mexican restaurant > taco restaurant,1
5aff036861e53b002c39e57a,Tres De Barbacha,20.667604,-103.366184,Vidrio 1855,Guadalajara,JAL,44150,,,,MX,2018-05-18,2021-08-12,,33 3370 8396,,,598514377172684.0,tresdebarbacha,,"['4bf58dd8d48988d1c1941735' '4bf58dd8d48988d151941735'
 '4bf58dd8d48988d16e941735']","['Dining and Drinking > Restaurant > Mexican Restaurant'
 'Dining and Drinking > Restaurant > Mexican Restaurant > Taco Restaurant'
 'Dining and Drinking > Restaurant > Fast Food Restaurant']",b'\x00\x00\x00\x00\x01\xc0Y\xd7o\x8f\x04\x14b@4\xaa\xe8\x18\x82\xad\xc5',"{'xmin': -103.366184, 'ymin': 20.667604, 'xmax': -103.366184, 'ymax': 20.667604}","dining and drinking > restaurant > mexican restaurant, dining and drinking > restaurant > mexican restaurant > taco restaurant, dining and drinking > restaurant > fast food restaurant",1
65d7ffb73fa91c4265665691,Tripitas Del Rosario,21.156815,-101.683014,,León de los Aldama,Guanajuato,37125,,,,MX,2024-02-23,2024-02-23,,,,,,,,['4bf58dd8d48988d151941735'],['Dining and Drinking > Restaurant > Mexican Restaurant > Taco Restaurant'],b'\x00\x00\x00\x00\x01\xc0Yk\xb6\x80Z-s@5(%\x07 \x85\xb2',"{'xmin': -101.683014, 'ymin': 21.156815, 'xmax': -101.683014, 'ymax': 21.156815}",dining and drinking > restaurant > mexican restaurant > taco restaurant,1
4f11e662e4b07e9ecaeecdcb,Quesadillas Mr. Tianguis,20.711921667284322,-103.36008534275726,,,,,,,,MX,2012-01-14,2021-08-13,,,,,,,,['4bf58dd8d48988d151941735'],['Dining and Drinking > Restaurant > Mexican Restaurant > Taco Restaurant'],b'\x00\x00\x00\x00\x01\xc0Y\xd7\x0b\xa3d\xbaT@4\xb6@\x7f\x96L\xca',"{'xmin': -103.36008534275726, 'ymin': 20.711921667284322, 'xmax': -103.36008534275726, 'ymax': 20.711921667284322}",dining and drinking > restaurant > mexican restaurant > taco restaurant,1
54cdab7c498ed2bdfc530fba,"tacos ""El chino""",20.663265,-101.335276,,,,,,,,MX,2015-02-01,2021-08-17,,,,,,,,['4bf58dd8d48988d151941735'],['Dining and Drinking > Restaurant > Mexican Restaurant > Taco Restaurant'],b'\x00\x00\x00\x00\x01\xc0YUu)w\xc8\x8e@4\xa9\xcb\xbc+\x94\xd9',"{'xmin': -101.335276, 'ymin': 20.663265, 'xmax': -101.335276, 'ymax': 20.663265}",dining and drinking > restaurant > mexican restaurant > taco restaurant,1
559546bb498e3eb862597be2,Cilantro,20.655432321803016,-103.38923930217129,,,,,,,,MX,2015-07-02,2021-08-12,,,,,,,,['4bf58dd8d48988d151941735'],['Dining and Drinking > Restaurant > Mexican Restaurant > Taco Restaurant'],b'\x00\x00\x00\x00\x01\xc0Y\xd8\xe9K\xf6I0@4\xa7\xcai\xa2\xe2\xa3',"{'xmin': -103.38923930217129, 'ymin': 20.655432321803016, 'xmax': -103.38923930217129, 'ymax': 20.655432321803016}",dining and drinking > restaurant > mexican restaurant > taco restaurant,1
547a8019498ef6bf85decf60,"Tacos de cabeza ""Taco Pepe""",19.674203503406854,-101.21975852285091,,,,,,,,MX,2014-11-30,2021-08-16,,,,,,,,['4bf58dd8d48988d151941735'],['Dining and Drinking > Restaurant > Mexican Restaurant > Taco Restaurant'],"b""\x00\x00\x00\x00\x01\xc0YN\x10\x86\r*]@3\xac\x98\x99\xcd\xfb'""","{'xmin': -101.21975852285091, 'ymin': 19.674203503406854, 'xmax': -101.21975852285091, 'ymax': 19.674203503406854}",dining and drinking > restaurant > mexican restaurant > taco restaurant,1
53855d89498e94fb75804dc8,Taquería La Guelaguetza,19.255494,-103.726278,,,,,,,,MX,2014-05-28,2021-08-11,,,,,,,,['4bf58dd8d48988d151941735'],['Dining and Drinking > Restaurant > Mexican Restaurant > Taco Restaurant'],b'\x00\x00\x00\x00\x01\xc0Y\xee{V\xb8sy@3Ah\x0e\x06S\x00',"{'xmin': -103.726278, 'ymin': 19.255494, 'xmax': -103.726278, 'ymax': 19.255494}",dining and drinking > restaurant > mexican restaurant > taco restaurant,1
50e11577e4b08361cb89590f,Tacos Sahuayo El Paisa,20.612934903876365,-105.23284829227697,Morelos,Puerto Vallarta,Jalisco,48300,,,,MX,2012-12-31,2020-11-23,,,,,,,,['4bf58dd8d48988d151941735'],['Dining and Drinking > Restaurant > Mexican Restaurant > Taco Restaurant'],b'\x00\x00\x00\x00\x01\xc0ZN\xe6\xfc\x86\x10\x94@4\x9c\xe9MF\xb9\xd4',"{'xmin': -105.23284829227697, 'ymin': 20.612934903876365, 'xmax': -105.23284829227697, 'ymax': 20.612934903876365}",dining and drinking > restaurant > mexican restaurant > taco restaurant,1
4cbfa271acd48cfa5034453f,Mr. Chapetes,21.874686328897635,-102.31085857619728,Nieto,Aguascalientes,AGS,,,,,MX,2010-10-21,2020-11-25,,,,,,,,['4bf58dd8d48988d151941735'],['Dining and Drinking > Restaurant > Mexican Restaurant > Taco Restaurant'],b'\x00\x00\x00\x00\x01\xc0Y\x93\xe5\x1b^\x9c\xb3@5\xdf\xebqx\xdf\xa7',"{'xmin': -102.31085857619728, 'ymin': 21.874686328897635, 'xmax': -102.31085857619728, 'ymax': 21.874686328897635}",dining and drinking > restaurant > mexican restaurant > taco restaurant,1
64eff54be5c3ab7569515d55,Tacos Esteban,21.101515,-101.634433,,León,Gto.,37500,,,,MX,2023-08-31,2023-08-31,,,,,,,,['4bf58dd8d48988d151941735'],['Dining and Drinking > Restaurant > Mexican Restaurant > Taco Restaurant'],b'\x00\x00\x00\x00\x01\xc0Yh\x9a\x8c\xde\xa04@5\x19\xfc\xe3\x15\r\xae',"{'xmin': -101.634433, 'ymin': 21.101515, 'xmax': -101.634433, 'ymax': 21.101515}",dining and drinking > restaurant > mexican restaurant > taco restaurant,1
634f5627a2039268086fe58e,Tacos Chayo,19.279755,-104.78744,,La Manzanilla,Jalisco,48898,,,,MX,2022-10-19,2022-10-19,,,,,,,,['4bf58dd8d48988d151941735'],['Dining and Drinking > Restaurant > Mexican Restaurant > Taco Restaurant'],b'\x00\x00\x00\x00\x01\xc0Z2ej\xbd\xe3\xfc@3G\x9e\x06\x0f\xe4z',"{'xmin': -104.78744, 'ymin': 19.279755, 'xmax': -104.78744, 'ymax': 19.279755}",dining and drinking > restaurant > mexican restaurant > taco restaurant,1
55aa93ce498e9265d4336bcc,Tacos El Fello,20.636131286621094,-103.26289367675781,,,,,,,,MX,2015-07-18,2021-08-10,,,,,,,,['4bf58dd8d48988d151941735'],['Dining and Drinking > Restaurant > Mexican Restaurant > Taco Restaurant'],b'\x00\x00\x00\x00\x01\xc0Y\xd0\xd3@\x00\x00\x00@4\xa2\xd9\x80\x00\x00\x00',"{'xmin': -103.26289367675781, 'ymin': 20.636131286621094, 'xmax': -103.26289367675781, 'ymax': 20.636131286621094}",dining and drinking > restaurant > mexican restaurant > taco restaurant,1
544b044e498ef327cb935b5d,tacos El Tapatio,19.102913,-104.325875,,,,,,,,MX,2014-10-25,2021-08-11,,,,,,,,['4bf58dd8d48988d151941735'],['Dining and Drinking > Restaurant > Mexican Restaurant > Taco Restaurant'],"b'\x00\x00\x00\x00\x01\xc0Z\x14\xdb""\xd0\xe5`@3\x1aX\x81\xa1UP'","{'xmin': -104.325875, 'ymin': 19.102913, 'xmax': -104.325875, 'ymax': 19.102913}",dining and drinking > restaurant > mexican restaurant > taco restaurant,1
535b425011d281035b27f593,El rincón del taco,20.726646718838303,-102.3377161737197,Hidalgo,Arandas,Jalisco,,,,,MX,2014-04-26,2020-11-25,,348 100 6690,,,,,,['4bf58dd8d48988d151941735'],['Dining and Drinking > Restaurant > Mexican Restaurant > Taco Restaurant'],"b""\x00\x00\x00\x00\x01\xc0Y\x95\x9d$L]5@4\xba\x05\x84\xf5'\xfe""","{'xmin': -102.3377161737197, 'ymin': 20.726646718838303, 'xmax': -102.3377161737197, 'ymax': 20.726646718838303}",dining and drinking > restaurant > mexican restaurant > taco restaurant,1
5a2c884d2632ec49782fdd9c,Santo Cuervo Taqueria,20.513452,-100.79571,Paseo Del Bajio,Celaya,GTO,38080,,,,MX,2017-12-10,2023-12-19,,461 183 8268,,,,,,['4bf58dd8d48988d151941735'],['Dining and Drinking > Restaurant > Mexican Restaurant > Taco Restaurant'],b'\x00\x00\x00\x00\x01\xc0Y2\xec\xe9\xa2\xc6i@4\x83q\x97\x1c\x10\xd8',"{'xmin': -100.79571, 'ymin': 20.513452, 'xmax': -100.79571, 'ymax': 20.513452}",dining and drinking > restaurant > mexican restaurant > taco restaurant,1
4fa19a66e4b05b7ee5c0fbf8,Tacos al pastor El Oasis,20.67804418685735,-103.34936865323304,,,,,,,,MX,2012-05-02,2021-08-11,2014-11-14,,,,,,,['4bf58dd8d48988d151941735'],['Dining and Drinking > Restaurant > Mexican Restaurant > Taco Restaurant'],b'\x00\x00\x00\x00\x01\xc0Y\xd6\\\x0eV\xf8\x8b@4\xad\x94M\xc7\xcb\x94',"{'xmin': -103.34936865323304, 'ymin': 20.67804418685735, 'xmax': -103.34936865323304, 'ymax': 20.67804418685735}",dining and drinking > restaurant > mexican restaurant > taco restaurant,1
55fcc02b498e1dfe1e114daa,Tacos El Pacho,20.666684,-103.271365,,,,,,,,MX,2015-09-19,2021-08-17,,,,,,,,['4bf58dd8d48988d151941735'],['Dining and Drinking > Restaurant > Mexican Restaurant > Taco Restaurant'],b'\x00\x00\x00\x00\x01\xc0Y\xd1^\x0bN\x11\xdc@4\xaa\xab\xcdx\xc47',"{'xmin': -103.271365, 'ymin': 20.666684, 'xmax': -103.271365, 'ymax': 20.666684}",dining and drinking > restaurant > mexican restaurant > taco restaurant,1
53e9ba41498e3da8aca9986c,Tacos Pa La Banda,21.013162,-101.251211,Campanero 19,"Guanajuato, GTO",guanajuato,36000,,,,MX,2014-08-12,2020-11-23,2015-05-09,473 652 2205,,,,,,['4bf58dd8d48988d151941735'],['Dining and Drinking > Restaurant > Mexican Restaurant > Taco Restaurant'],b'\x00\x00\x00\x00\x01\xc0YP\x13\xd7MYO@5\x03^\x95\xb7\x8c\xca',"{'xmin': -101.251211, 'ymin': 21.013162, 'xmax': -101.251211, 'ymax': 21.013162}",dining and drinking > restaurant > mexican restaurant > taco restaurant,1
5c5c9d7935811b002ce1782f,Los Fritacos,21.90358864494218,-102.29608425826882,Calle ébano 218,Aguascalientes,Aguascalientes,20218,,,,MX,2019-02-07,2020-11-24,,449 867 3489,,,,,vamt55,['4bf58dd8d48988d151941735'],['Dining and Drinking > Restaurant > Mexican Restaurant > Taco Restaurant'],b'\x00\x00\x00\x00\x01\xc0Y\x92\xf3\x0bc\x88\x00@5\xe7Q\x95\xdf\x10I',"{'xmin': -102.29608425826882, 'ymin': 21.90358864494218, 'xmax': -102.29608425826882, 'ymax': 21.90358864494218}",dining and drinking > restaurant > mexican restaurant > taco restaurant,1
55c02073498ee99def3f78d0,Restaurante Los Abuelos,20.488183123975936,-105.44760998670934,Yelapa Jalisco,Yelapa,,,,,,MX,2015-08-04,2023-12-21,,322 151 3463,,,,,,['4bf58dd8d48988d151941735'],['Dining and Drinking > Restaurant > Mexican Restaurant > Taco Restaurant'],b'\x00\x00\x00\x00\x01\xc0Z\\\xa5\xa4[\x91\xe5@4|\xf9\x91\xb7\xef\x8e',"{'xmin': -105.44760998670934, 'ymin': 20.488183123975936, 'xmax': -105.44760998670934, 'ymax': 20.488183123975936}",dining and drinking > restaurant > mexican restaurant > taco restaurant,1
4e06a57e1f6e21103388767c,Tacos (Gonvill),21.118904068061447,-101.6508503800289,,León,Guanajuato,,,,,MX,2011-06-26,2020-11-23,,,,,,,,['4bf58dd8d48988d151941735'],['Dining and Drinking > Restaurant > Mexican Restaurant > Taco Restaurant'],b'\x00\x00\x00\x00\x01\xc0Yi\xa7\x88Z4\r@5\x1ep\x7f;\xafn',"{'xmin': -101.6508503800289, 'ymin': 21.118904068061447, 'xmax': -101.6508503800289, 'ymax': 21.118904068061447}",dining and drinking > restaurant > mexican restaurant > taco restaurant,1
52fa7e5c498e3e3e08325812,Lonches y Tacos Armando,20.634325,-103.400173,,,,,,,,MX,2014-02-11,2021-08-14,,,,,,,,['4bf58dd8d48988d151941735'],['Dining and Drinking > Restaurant > Mexican Restaurant > Taco Restaurant'],b'\x00\x00\x00\x00\x01\xc0Y\xd9\x9co6\xef\x80@4\xa2c\x1f\x8a\t\x03',"{'xmin': -103.400173, 'ymin': 20.634325, 'xmax': -103.400173, 'ymax': 20.634325}",dining and drinking > restaurant > mexican restaurant > taco restaurant,1
55df39ec498e061c651a950e,Tacos De Birria Memos,20.665969555913303,-103.34987062536278,,Guadalajara,,,,,,MX,2015-08-27,2021-08-15,,,,,,,,['4bf58dd8d48988d151941735'],['Dining and Drinking > Restaurant > Mexican Restaurant > Taco Restaurant'],b'\x00\x00\x00\x00\x01\xc0Y\xd6dG\xc3p\xe9@4\xaa|\xfb\x16\xc7\x7f',"{'xmin': -103.34987062536278, 'ymin': 20.665969555913303, 'xmax': -103.34987062536278, 'ymax': 20.665969555913303}",dining and drinking > restaurant > mexican restaurant > taco restaurant,1
59d307d309e2831101d9fc3a,La Costanera,20.691445,-103.398663,,Guadalajara,JAL,44670,,,,MX,2017-10-03,2021-08-15,,,,,,,,['4bf58dd8d48988d151941735'],['Dining and Drinking > Restaurant > Mexican Restaurant > Taco Restaurant'],b'\x00\x00\x00\x00\x01\xc0Y\xd9\x83\xb1\xd0\xc8\x04@4\xb1\x02\x8a\x1d\xfb\x94',"{'xmin': -103.398663, 'ymin': 20.691445, 'xmax': -103.398663, 'ymax': 20.691445}",dining and drinking > restaurant > mexican restaurant > taco restaurant,1
581d45eea1f07550d0b0edcd,Taqueria El Jardin De Los Abuelos,21.151344,-101.65698,Villa de las Torres,,,,,,,MX,2016-11-05,2021-08-16,,,,,,,,['4bf58dd8d48988d151941735'],['Dining and Drinking > Restaurant > Mexican Restaurant > Taco Restaurant'],"b'\x00\x00\x00\x00\x01\xc0Yj\x0b\xf5\xd7\x88\x12@5&\xbez\xfar""'","{'xmin': -101.65698, 'ymin': 21.151344, 'xmax': -101.65698, 'ymax': 21.151344}",dining and drinking > restaurant > mexican restaurant > taco restaurant,1
4ec28373be7b04923da2856f,Tianguis Gourmet UNIVA,20.661428420603027,-103.42045243790848,,Zapopan,Jalisco,,,,,MX,2011-11-15,2020-11-23,,,,,,,,"['4bf58dd8d48988d147941735' '4bf58dd8d48988d151941735'
 '4bf58dd8d48988d1c1941735']","['Dining and Drinking > Restaurant > Diner'
 'Dining and Drinking > Restaurant > Mexican Restaurant > Taco Restaurant'
 'Dining and Drinking > Restaurant > Mexican Restaurant']","b'\x00\x00\x00\x00\x01\xc0Y\xda\xe8\xb1W\x95\xc9@4\xa9S_{""\x8b'","{'xmin': -103.42045243790848, 'ymin': 20.661428420603027, 'xmax': -103.42045243790848, 'ymax': 20.661428420603027}","dining and drinking > restaurant > diner, dining and drinking > restaurant > mexican restaurant > taco restaurant, dining and drinking > restaurant > mexican restaurant",1
54171153498eadffcbb22b7a,"tacos ""El Padrino""",20.39444747707168,-101.19985785811076,,,,,,,,MX,2014-09-15,2021-08-23,,,,,,,,['4bf58dd8d48988d151941735'],['Dining and Drinking > Restaurant > Mexican Restaurant > Taco Restaurant'],b'\x00\x00\x00\x00\x01\xc0YL\xcax\x9d\x1b\xcc@4d\xfa\x82\x86\x038',"{'xmin': -101.19985785811076, 'ymin': 20.39444747707168, 'xmax': -101.19985785811076, 'ymax': 20.39444747707168}",dining and drinking > restaurant > mexican restaurant > taco restaurant,1
532f44b8498e96e0e238f677,tacos de barbacoa leo,21.909957885742188,-102.37274169921875,,,,,,,,MX,2014-03-23,2020-11-24,,,,,,,,['4bf58dd8d48988d151941735'],['Dining and Drinking > Restaurant > Mexican Restaurant > Taco Restaurant'],b'\x00\x00\x00\x00\x01\xc0Y\x97\xdb\x00\x00\x00\x00@5\xe8\xf3\x00\x00\x00\x00',"{'xmin': -102.37274169921875, 'ymin': 21.909957885742188, 'xmax': -102.37274169921875, 'ymax': 21.909957885742188}",dining and drinking > restaurant > mexican restaurant > taco restaurant,1
540c917c498ef527c983c1ee,Santo Tacote,20.821068471918505,-103.45164817534562,,,,,,,,MX,2014-09-07,2020-11-30,,,,,,,,['4bf58dd8d48988d151941735'],['Dining and Drinking > Restaurant > Mexican Restaurant > Taco Restaurant'],b'\x00\x00\x00\x00\x01\xc0Y\xdc\xe7\xcd\xbf\x9a\x15@4\xd21\x8b\x1a\xaa\xab',"{'xmin': -103.45164817534562, 'ymin': 20.821068471918505, 'xmax': -103.45164817534562, 'ymax': 20.821068471918505}",dining and drinking > restaurant > mexican restaurant > taco restaurant,1
50705cd8e4b09a19d75d961b,Tacos sudados Chinoixtle,21.112607955932617,-101.67304229736328,,,,,,,,MX,2012-10-06,2021-08-16,,,,,,,,['4bf58dd8d48988d151941735'],['Dining and Drinking > Restaurant > Mexican Restaurant > Taco Restaurant'],b'\x00\x00\x00\x00\x01\xc0Yk\x13 \x00\x00\x00@5\x1c\xd3\xe0\x00\x00\x00',"{'xmin': -101.67304229736328, 'ymin': 21.112607955932617, 'xmax': -101.67304229736328, 'ymax': 21.112607955932617}",dining and drinking > restaurant > mexican restaurant > taco restaurant,1
51f18453498e683436cc98f0,Molino y Tortilleria Guzmán,20.69849995244197,-101.34801165516379,,,,,,,,MX,2013-07-25,2021-08-17,,,,,,,,['4bf58dd8d48988d151941735'],['Dining and Drinking > Restaurant > Mexican Restaurant > Taco Restaurant'],b'\x00\x00\x00\x00\x01\xc0YVE\xd2\xadc\x8a@4\xb2\xd0\xe4\x93\xfe\xee',"{'xmin': -101.34801165516379, 'ymin': 20.69849995244197, 'xmax': -101.34801165516379, 'ymax': 20.69849995244197}",dining and drinking > restaurant > mexican restaurant > taco restaurant,1
500350bfe4b086066f90cfc8,Taqueria Arandas,21.099761016563114,-101.63703922247926,Centromax,Leon,Guanajuato,,,,,MX,2012-07-15,2020-11-23,,,,,,,,['4bf58dd8d48988d151941735'],['Dining and Drinking > Restaurant > Mexican Restaurant > Taco Restaurant'],b'\x00\x00\x00\x00\x01\xc0Yh\xc5@(\xb4U@5\x19\x89\xf0\x1f\x8d\xe6',"{'xmin': -101.63703922247926, 'ymin': 21.099761016563114, 'xmax': -101.63703922247926, 'ymax': 21.099761016563114}",dining and drinking > restaurant > mexican restaurant > taco restaurant,1
52ad7c37498e756d1978bfb2,taqueria el guero,31.314755,-113.539947,,,,,,,,MX,2013-12-15,2021-08-13,,,,,,,,['4bf58dd8d48988d151941735'],['Dining and Drinking > Restaurant > Mexican Restaurant > Taco Restaurant'],b'\x00\x00\x00\x00\x01\xc0\\b\x8e}\xdc\xa4\xb1@?P\x93\xc8\x9f@\xa3',"{'xmin': -113.539947, 'ymin': 31.314755, 'xmax': -113.539947, 'ymax': 31.314755}",dining and drinking > restaurant > mexican restaurant > taco restaurant,1
6395f4530bd261606d121d26,Carnitas Don Beef,20.684719,-103.43858,Ramon Corona 5786 A Col Jocotan,Zapopan,JAL,45017,,,,MX,2022-12-11,2022-12-11,,,,,,,,['4bf58dd8d48988d151941735'],['Dining and Drinking > Restaurant > Mexican Restaurant > Taco Restaurant'],b'\x00\x00\x00\x00\x01\xc0Y\xdc\x11\xb1\xd9+\x80@4\xafI\xbe\x8f\xf3(',"{'xmin': -103.43858, 'ymin': 20.684719, 'xmax': -103.43858, 'ymax': 20.684719}",dining and drinking > restaurant > mexican restaurant > taco restaurant,1
52a3cc96498e415704f37931,taqueria de maria,19.943854,-103.762769,,,,,,,,MX,2013-12-08,2021-08-12,,,,,,,,['4bf58dd8d48988d151941735'],['Dining and Drinking > Restaurant > Mexican Restaurant > Taco Restaurant'],b'\x00\x00\x00\x00\x01\xc0Y\xf0\xd15\x11Y\xc5@3\xf1\xa0jn2\xe4',"{'xmin': -103.762769, 'ymin': 19.943854, 'xmax': -103.762769, 'ymax': 19.943854}",dining and drinking > restaurant > mexican restaurant > taco restaurant,1
4eb894d38b81a81f91e38d3a,Tacos Genio,20.676611,-103.453315,,Zapopan,Jalisco,,,,,MX,2011-11-08,2020-11-23,,,,,,,,['4bf58dd8d48988d151941735'],['Dining and Drinking > Restaurant > Mexican Restaurant > Taco Restaurant'],b'\x00\x00\x00\x00\x01\xc0Y\xdd\x03\x1c\xea\xf2R@4\xad6`\xe5\x1d&',"{'xmin': -103.453315, 'ymin': 20.676611, 'xmax': -103.453315, 'ymax': 20.676611}",dining and drinking > restaurant > mexican restaurant > taco restaurant,1
52884ea011d2c4e258b16751,Taqueria Madero,21.882603463393636,-102.29081027611382,Madero 353,Aguascalientes,Aguascalientes,20000,,,,MX,2013-11-17,2020-11-22,,449 915 6022,,,,,,['4bf58dd8d48988d151941735'],['Dining and Drinking > Restaurant > Mexican Restaurant > Taco Restaurant'],b'\x00\x00\x00\x00\x01\xc0Y\x92\x9c\xa2\xb4O\xf9@5\xe1\xf2L\xf2\x9c\xac',"{'xmin': -102.29081027611382, 'ymin': 21.882603463393636, 'xmax': -102.29081027611382, 'ymax': 21.882603463393636}",dining and drinking > restaurant > mexican restaurant > taco restaurant,1
4f4ab1c2e4b04a41314c70d5,Tortas El Furby,20.644184092655223,-103.2931239627127,,,,,,,,MX,2012-02-26,2021-08-14,,,,,,,,['4bf58dd8d48988d151941735'],['Dining and Drinking > Restaurant > Mexican Restaurant > Taco Restaurant'],b'\x00\x00\x00\x00\x01\xc0Y\xd2\xc2\x8b\x02a\x99@4\xa4\xe9?\xaa\x8e\xc0',"{'xmin': -103.2931239627127, 'ymin': 20.644184092655223, 'xmax': -103.2931239627127, 'ymax': 20.644184092655223}",dining and drinking > restaurant > mexican restaurant > taco restaurant,1
5376f1e411d27506bfecf536,NachiTacos,20.90089225769043,-100.75128173828125,Salida A Celada #9. Privada Lopez,San Miguel de Allende,Guanajuato,37760,,,,MX,2014-03-22,2021-12-19,,415 121 0937,,,,,,['4bf58dd8d48988d151941735'],['Dining and Drinking > Restaurant > Mexican Restaurant > Taco Restaurant'],b'\x00\x00\x00\x00\x01\xc0Y0\x15\x00\x00\x00\x00@4\xe6\xa0\xe0\x00\x00\x00',"{'xmin': -100.75128173828125, 'ymin': 20.90089225769043, 'xmax': -100.75128173828125, 'ymax': 20.90089225769043}",dining and drinking > restaurant > mexican restaurant > taco restaurant,1
6188a442d04a155d38acde01,La Turbina,20.604002,-103.411714,,Tlaquepaque,JAL,45604,,,,MX,2021-11-08,2021-11-08,,,,,,,,['4bf58dd8d48988d151941735'],['Dining and Drinking > Restaurant > Mexican Restaurant > Taco Restaurant'],b'\x00\x00\x00\x00\x01\xc0Y\xdaY\x85\xadS\x8b@4\x9a\x9f\xe0\x04\xb7\xf6',"{'xmin': -103.411714, 'ymin': 20.604002, 'xmax': -103.411714, 'ymax': 20.604002}",dining and drinking > restaurant > mexican restaurant > taco restaurant,1
53a11a97498e3bbc390c3ce9,Ara's Tacos,31.311542510986328,-113.54098510742188,,,,,,,,MX,2014-06-18,2021-08-11,,,,,,,,['4bf58dd8d48988d151941735'],['Dining and Drinking > Restaurant > Mexican Restaurant > Taco Restaurant'],b'\x00\x00\x00\x00\x01\xc0\\b\x9f\x80\x00\x00\x00@?O\xc1@\x00\x00\x00',"{'xmin': -113.54098510742188, 'ymin': 31.311542510986328, 'xmax': -113.54098510742188, 'ymax': 31.311542510986328}",dining and drinking > restaurant > mexican restaurant > taco restaurant,1
4d3755e2c47db1f7010aefa5,Asa2 Los Norteños,20.6843942605891,-103.39295099222882,Manuel Acuña,Guadalajara,JAL,,,,,MX,2011-01-19,2021-08-14,,,,,,,,['4bf58dd8d48988d151941735' '4bf58dd8d48988d1c1941735'],"['Dining and Drinking > Restaurant > Mexican Restaurant > Taco Restaurant'
 'Dining and Drinking > Restaurant > Mexican Restaurant']",b'\x00\x00\x00\x00\x01\xc0Y\xd9&\x1b\xeb#m@4\xaf4vV\xcc\xe0',"{'xmin': -103.39295099222882, 'ymin': 20.6843942605891, 'xmax': -103.39295099222882, 'ymax': 20.6843942605891}","dining and drinking > restaurant > mexican restaurant > taco restaurant, dining and drinking > restaurant > mexican restaurant",1
51813720498e85106d1a573b,Birrieria Limon,20.649886423965754,-103.27296800983844,,,,,,,,MX,2013-05-01,2021-08-16,,,,,,,,['4bf58dd8d48988d151941735'],['Dining and Drinking > Restaurant > Mexican Restaurant > Taco Restaurant'],b'\x00\x00\x00\x00\x01\xc0Y\xd1xN\xd0\xc7\x0f@4\xa6^\xf4\xe9\x0c\x1c',"{'xmin': -103.27296800983844, 'ymin': 20.649886423965754, 'xmax': -103.27296800983844, 'ymax': 20.649886423965754}",dining and drinking > restaurant > mexican restaurant > taco restaurant,1
4d69cc534c46370492f9a7b3,Tacos Rubén,21.513156866253528,-104.89607571030761,Leon 184,Tepic,Nayarit,63000,,,,MX,2011-02-27,2020-11-24,,,,,,,,['4bf58dd8d48988d151941735'],['Dining and Drinking > Restaurant > Mexican Restaurant > Taco Restaurant'],b'\x00\x00\x00\x00\x01\xc0Z9YM\xef\xa0\xb7@5\x83^?\x96F\xd9',"{'xmin': -104.89607571030761, 'ymin': 21.513156866253528, 'xmax': -104.89607571030761, 'ymax': 21.513156866253528}",dining and drinking > restaurant > mexican restaurant > taco restaurant,1
4e87bc862c5bfb0a49155e49,"Tacos ""jairo""",20.08786315,-101.52350891,Narcizo Mendoza,Puruandiro,MICH,58500,,,,MX,2011-10-02,2020-11-23,,,,,,,,['4bf58dd8d48988d151941735'],['Dining and Drinking > Restaurant > Mexican Restaurant > Taco Restaurant'],b'\x00\x00\x00\x00\x01\xc0Ya\x81+\x83\xe7V@4\x16~3\x0b\xc6\x07',"{'xmin': -101.52350891, 'ymin': 20.08786315, 'xmax': -101.52350891, 'ymax': 20.08786315}",dining and drinking > restaurant > mexican restaurant > taco restaurant,1
554441d9498e20c7924c4c5d,Los Panteras,21.907953,-101.383208,,,,,,,,MX,2015-05-02,2020-11-24,,,,,,,,['4bf58dd8d48988d151941735'],['Dining and Drinking > Restaurant > Mexican Restaurant > Taco Restaurant'],b'\x00\x00\x00\x00\x01\xc0YX\x86z\xd8\xe42@5\xe8o\x9b\x99N\x1a',"{'xmin': -101.383208, 'ymin': 21.907953, 'xmax': -101.383208, 'ymax': 21.907953}",dining and drinking > restaurant > mexican restaurant > taco restaurant,1
4db05af4a86e63d21158130e,Tacos  Los Perez,21.188287570470727,-104.63529511817775,,,NAY,,,,,MX,2011-04-21,2020-11-24,,,,,,,,['4bf58dd8d48988d151941735'],['Dining and Drinking > Restaurant > Mexican Restaurant > Taco Restaurant'],b'\x00\x00\x00\x00\x01\xc0Z(\xa8\xac\xda\xf8q@503\x9d=jB',"{'xmin': -104.63529511817775, 'ymin': 21.188287570470727, 'xmax': -104.63529511817775, 'ymax': 21.188287570470727}",dining and drinking > restaurant > mexican restaurant > taco restaurant,1
4d894b50d85f370459c3e4db,"Taqueria ""Los Cuñados""",19.692403731379432,-101.18933094460016,Lago de Patzcuaro,Morelia,Michoacán,,,,,MX,2011-03-23,2021-12-15,,,,,,,,['4bf58dd8d48988d151941735'],['Dining and Drinking > Restaurant > Mexican Restaurant > Taco Restaurant'],b'\x00\x00\x00\x00\x01\xc0YL\x1d\xff\x89\xcbl@3\xb1A^\xf5\xe7-',"{'xmin': -101.18933094460016, 'ymin': 19.692403731379432, 'xmax': -101.18933094460016, 'ymax': 19.692403731379432}",dining and drinking > restaurant > mexican restaurant > taco restaurant,1
6022a2135b2b961c4882ee16,Tacos El Palote,21.171474,-101.679596,,León,Guanajuato,37130,,,,MX,2021-02-09,2021-02-09,,,,,,,,['4bf58dd8d48988d151941735'],['Dining and Drinking > Restaurant > Mexican Restaurant > Taco Restaurant'],b'\x00\x00\x00\x00\x01\xc0Yk~\x808\x9f\x84@5+\xe5\xb8V\x1dC',"{'xmin': -101.679596, 'ymin': 21.171474, 'xmax': -101.679596, 'ymax': 21.171474}",dining and drinking > restaurant > mexican restaurant > taco restaurant,1
56c3ef1e498ef97789f449f3,Los “Rocha”,20.008059,-101.021354,,,,,,,,MX,2016-02-17,2021-08-16,,,,,,,,['4bf58dd8d48988d151941735'],['Dining and Drinking > Restaurant > Mexican Restaurant > Taco Restaurant'],"b""\x00\x00\x00\x00\x01\xc0YA]\xdd*\xe8\xe2@4\x02\x10'\x95p?""","{'xmin': -101.021354, 'ymin': 20.008059, 'xmax': -101.021354, 'ymax': 20.008059}",dining and drinking > restaurant > mexican restaurant > taco restaurant,1
56c7ddee498e30a8e9a65ced,"Tacos ""Los Güeros""",21.127073,-101.71381,,,,,,,,MX,2016-02-20,2021-08-13,,,,,,,,['4bf58dd8d48988d151941735'],['Dining and Drinking > Restaurant > Mexican Restaurant > Taco Restaurant'],b'\x00\x00\x00\x00\x01\xc0Ym\xaf\x10#c\xb2@5 \x87\xdb+4a',"{'xmin': -101.71381, 'ymin': 21.127073, 'xmax': -101.71381, 'ymax': 21.127073}",dining and drinking > restaurant > mexican restaurant > taco restaurant,1
5851637676b8b25ebc59fe59,La Milpa,20.583602890709052,-103.3809071266043,,,,,,,,MX,2016-12-14,2021-08-12,,,,,,,,['4bf58dd8d48988d151941735'],['Dining and Drinking > Restaurant > Mexican Restaurant > Taco Restaurant'],b'\x00\x00\x00\x00\x01\xc0Y\xd8`\xc8H\xe5\x0b@4\x95f\xff\xc1rJ',"{'xmin': -103.3809071266043, 'ymin': 20.583602890709052, 'xmax': -103.3809071266043, 'ymax': 20.583602890709052}",dining and drinking > restaurant > mexican restaurant > taco restaurant,1
5233e79811d24cf78beb8d5e,Tacos York's,21.490638668400567,-104.87855923921795,,,,,,,,MX,2013-09-14,2021-08-16,,,,,,,,['4bf58dd8d48988d151941735'],['Dining and Drinking > Restaurant > Mexican Restaurant > Taco Restaurant'],b'\x00\x00\x00\x00\x01\xc0Z8:P\x88\x02\x8b@5}\x9a~\xea\xee\xf5',"{'xmin': -104.87855923921795, 'ymin': 21.490638668400567, 'xmax': -104.87855923921795, 'ymax': 21.490638668400567}",dining and drinking > restaurant > mexican restaurant > taco restaurant,1
4ef5502261af302a98a3c434,Tacos Cuellar,21.09698158818491,-101.67027726440217,Col. Buenos Aires,,,,,,,MX,2011-12-24,2021-08-16,,,,,,,,['4bf58dd8d48988d151941735'],['Dining and Drinking > Restaurant > Mexican Restaurant > Taco Restaurant'],b'\x00\x00\x00\x00\x01\xc0Yj\xe5\xd2\x9cw\x05@5\x18\xd3\xc9\r\x91~',"{'xmin': -101.67027726440217, 'ymin': 21.09698158818491, 'xmax': -101.67027726440217, 'ymax': 21.09698158818491}",dining and drinking > restaurant > mexican restaurant > taco restaurant,1
51eac710498ec47cd7ca077a,Tostadería La Guadalupana,20.72508263207987,-103.38977528291608,,,,,,,,MX,2013-07-20,2022-12-26,,,,,,,,['4bf58dd8d48988d151941735'],['Dining and Drinking > Restaurant > Mexican Restaurant > Taco Restaurant'],b'\x00\x00\x00\x00\x01\xc0Y\xd8\xf2\x14\x07:z@4\xb9\x9f\x03\xef\xae?',"{'xmin': -103.38977528291608, 'ymin': 20.72508263207987, 'xmax': -103.38977528291608, 'ymax': 20.72508263207987}",dining and drinking > restaurant > mexican restaurant > taco restaurant,1
6275f069c2391d5e9d6b9898,Ta’ Bihu,17.064161,-96.721333,,Oaxaca de Juárez,OAX,68000,,,,MX,2022-05-07,2022-05-07,,,,,,,,['4bf58dd8d48988d151941735'],['Dining and Drinking > Restaurant > Mexican Restaurant > Taco Restaurant'],b'\x00\x00\x00\x00\x01\xc0X.*Q\xe3!\xa3@1\x10l\xda\xf4\xad\xbc',"{'xmin': -96.721333, 'ymin': 17.064161, 'xmax': -96.721333, 'ymax': 17.064161}",dining and drinking > restaurant > mexican restaurant > taco restaurant,1
647a8271cdacaa4592c981e1,3 Hermanos,16.603798,-98.982816,,Copala,GRO,41874,,,,MX,2023-06-02,2023-06-02,,,,,,,,['4bf58dd8d48988d151941735'],['Dining and Drinking > Restaurant > Mexican Restaurant > Taco Restaurant'],b'\x00\x00\x00\x00\x01\xc0X\xbe\xe6u\x14\x7f\x13@0\x9a\x92\x81wc\xe5',"{'xmin': -98.982816, 'ymin': 16.603798, 'xmax': -98.982816, 'ymax': 16.603798}",dining and drinking > restaurant > mexican restaurant > taco restaurant,1
5d9bf435d0717a000811863d,Los Bigotes,19.238786,-99.159964,Carretera Federal Mexico- Cuernavaca,Ciudad de México,CDMX,14490,,,,MX,2019-10-08,2020-11-30,,,,,,,,['4bf58dd8d48988d151941735'],['Dining and Drinking > Restaurant > Mexican Restaurant > Taco Restaurant'],"b'\x00\x00\x00\x00\x01\xc0X\xca<\xd9\xa5""d@3=!\x14L\xbe\x1f'","{'xmin': -99.159964, 'ymin': 19.238786, 'xmax': -99.159964, 'ymax': 19.238786}",dining and drinking > restaurant > mexican restaurant > taco restaurant,1
54d9a792498e4523df804c0f,taqueria don goyo,19.253158,-99.061619,,,,,,,,MX,2015-02-10,2021-08-10,,,,,,,,['4bf58dd8d48988d151941735'],['Dining and Drinking > Restaurant > Mexican Restaurant > Taco Restaurant'],b'\x00\x00\x00\x00\x01\xc0X\xc3\xf1\x90\xd1s\xfb@3@\xce\xf6r\xb8\x84',"{'xmin': -99.061619, 'ymin': 19.253158, 'xmax': -99.061619, 'ymax': 19.253158}",dining and drinking > restaurant > mexican restaurant > taco restaurant,1
4d2537a038d0236ab844eab6,"Taqueria ""El Gordo de Galeana""",19.2545814431039,-99.10022942005217,Calle Galeana,Mexico,,,,,,MX,2011-01-06,2020-11-23,,,,,,,,['4bf58dd8d48988d151941735'],['Dining and Drinking > Restaurant > Mexican Restaurant > Taco Restaurant'],"b""\x00\x00\x00\x00\x01\xc0X\xc6j(\xa8N'@3A,?\xdcL\xbb""","{'xmin': -99.10022942005217, 'ymin': 19.2545814431039, 'xmax': -99.10022942005217, 'ymax': 19.2545814431039}",dining and drinking > restaurant > mexican restaurant > taco restaurant,1
5548ee00498e0f4f7c4d032a,"mixtas ""sin limòn""",17.963642,-102.197698,,,,,,,,MX,2015-05-05,2021-08-16,,,,,,,,['4bf58dd8d48988d151941735'],['Dining and Drinking > Restaurant > Mexican Restaurant > Taco Restaurant'],b'\x00\x00\x00\x00\x01\xc0Y\x8c\xa7\x15\x83\x1f\x04@1\xf6\xb1=\xfb\rR',"{'xmin': -102.197698, 'ymin': 17.963642, 'xmax': -102.197698, 'ymax': 17.963642}",dining and drinking > restaurant > mexican restaurant > taco restaurant,1
504ab75ae4b0d1cf335840be,Quesadillas Y Sopes Doña Teresita,19.306484,-99.169527,,,,,,,,MX,2012-09-08,2021-08-12,,,,,,,,['4bf58dd8d48988d151941735'],['Dining and Drinking > Restaurant > Mexican Restaurant > Taco Restaurant'],b'\x00\x00\x00\x00\x01\xc0X\xca\xd9\x87\xc62\x7f@3Nu\xbcD\xbfM',"{'xmin': -99.169527, 'ymin': 19.306484, 'xmax': -99.169527, 'ymax': 19.306484}",dining and drinking > restaurant > mexican restaurant > taco restaurant,1
5511b177498eca6da78d791b,Tacos El Mexicanisimo,19.28350815621515,-99.6755422600745,,,,,,,,MX,2015-03-24,2021-08-12,,,,,,,,['4bf58dd8d48988d151941735'],['Dining and Drinking > Restaurant > Mexican Restaurant > Taco Restaurant'],b'\x00\x00\x00\x00\x01\xc0X\xeb<\x15\x9a\x85\x7f@3H\x93\xfd\x93\x17\xe4',"{'xmin': -99.6755422600745, 'ymin': 19.28350815621515, 'xmax': -99.6755422600745, 'ymax': 19.28350815621515}",dining and drinking > restaurant > mexican restaurant > taco restaurant,1
54ba9da7498e63100fab4c3c,"Tacos ""Linares""",19.699961393638148,-101.16247942166136,,,,,,,,MX,2015-01-17,2021-08-17,,,,,,,,['4bf58dd8d48988d151941735'],['Dining and Drinking > Restaurant > Mexican Restaurant > Taco Restaurant'],b'\x00\x00\x00\x00\x01\xc0YJf\x10\x16\x93\xbf@3\xb30\xab~#p',"{'xmin': -101.16247942166136, 'ymin': 19.699961393638148, 'xmax': -101.16247942166136, 'ymax': 19.699961393638148}",dining and drinking > restaurant > mexican restaurant > taco restaurant,1
609757e993007475c6842ec5,Tacos “La Monumental”,19.273397,-99.604459,,Metepec,Edomex,52177,,,,MX,2021-05-09,2021-05-09,,,,,,,,['4bf58dd8d48988d151941735'],['Dining and Drinking > Restaurant > Mexican Restaurant > Taco Restaurant'],b'\x00\x00\x00\x00\x01\xc0X\xe6\xaft\xcd1w@3E\xfdX\x85\xd3\x13',"{'xmin': -99.604459, 'ymin': 19.273397, 'xmax': -99.604459, 'ymax': 19.273397}",dining and drinking > restaurant > mexican restaurant > taco restaurant,1
5766b7dd498edbcfbd987533,Tacos del ranchero,19.323772,-99.15647,,,,,,,,MX,2016-06-19,2021-08-13,,,,,,,,['4bf58dd8d48988d151941735'],['Dining and Drinking > Restaurant > Mexican Restaurant > Taco Restaurant'],b'\x00\x00\x00\x00\x01\xc0X\xca\x03\x9a\xbf3\x87@3R\xe2\xb8\xc7\\K',"{'xmin': -99.15647, 'ymin': 19.323772, 'xmax': -99.15647, 'ymax': 19.323772}",dining and drinking > restaurant > mexican restaurant > taco restaurant,1
518328c4498e21dbe9ee6326,Tacos Rafa,19.294004660155824,-99.58213600220601,,,,,,,,MX,2013-05-03,2021-08-13,,,,,,,,['4bf58dd8d48988d151941735'],['Dining and Drinking > Restaurant > Mexican Restaurant > Taco Restaurant'],b'\x00\x00\x00\x00\x01\xc0X\xe5A\xb7\\\xd3#@3KC\xe3\xb0=\xa9',"{'xmin': -99.58213600220601, 'ymin': 19.294004660155824, 'xmax': -99.58213600220601, 'ymax': 19.294004660155824}",dining and drinking > restaurant > mexican restaurant > taco restaurant,1
5aa1effb2f97ec268b9631c1,Taqueria El Torito Mixe,19.283728,-99.21921,,Ciudad de México,Ciudad de México,14200,,,,MX,2018-03-09,2020-11-30,,,,,,,,['4bf58dd8d48988d151941735'],['Dining and Drinking > Restaurant > Mexican Restaurant > Taco Restaurant'],b'\x00\x00\x00\x00\x01\xc0X\xce\x07\x89a=2@3H\xa2e\xf0\xf5\xa1',"{'xmin': -99.21921, 'ymin': 19.283728, 'xmax': -99.21921, 'ymax': 19.283728}",dining and drinking > restaurant > mexican restaurant > taco restaurant,1
4f063a7e2c5b4138bff4edda,Rosso Taco Grill Plaza Veleros,19.08520545840238,-96.10170836315356,,Alvarado,Veracruz,,,,,MX,2012-01-06,2020-11-24,,,,,,,,['4bf58dd8d48988d151941735'],['Dining and Drinking > Restaurant > Mexican Restaurant > Taco Restaurant'],b'\x00\x00\x00\x00\x01\xc0X\x06\x82c\xcb^Z@3\x15\xd0\x06aGg',"{'xmin': -96.10170836315356, 'ymin': 19.08520545840238, 'xmax': -96.10170836315356, 'ymax': 19.08520545840238}",dining and drinking > restaurant > mexican restaurant > taco restaurant,1
5ad4d07c83e3805b1734c353,La Canastera,16.85836,-99.89259,,Acapulco,Guerrero,39355,,,,MX,2018-04-16,2020-11-25,,,,,,,,['4bf58dd8d48988d151941735'],['Dining and Drinking > Restaurant > Mexican Restaurant > Taco Restaurant'],b'\x00\x00\x00\x00\x01\xc0X\xf9 1\xce\xaf%@0\xdb\xbd{ 1\xcf',"{'xmin': -99.89259, 'ymin': 16.85836, 'xmax': -99.89259, 'ymax': 16.85836}",dining and drinking > restaurant > mexican restaurant > taco restaurant,1
4ef977cd0aafbcb31e2e1ca2,Los Cuñados,19.329973513596773,-99.1649809957243,Escuinapa,Santo Domingo,,,,,,MX,2011-12-27,2020-11-30,,,,,,,,['4bf58dd8d48988d151941735'],['Dining and Drinking > Restaurant > Mexican Restaurant > Taco Restaurant'],b'\x00\x00\x00\x00\x01\xc0X\xca\x8f\x0csF<@3Ty$\xe9q\xc1',"{'xmin': -99.1649809957243, 'ymin': 19.329973513596773, 'xmax': -99.1649809957243, 'ymax': 19.329973513596773}",dining and drinking > restaurant > mexican restaurant > taco restaurant,1
53b9d7bf498e13dbda81fb7a,El Taco Real,19.295693,-99.015667,,,,,,,,MX,2014-07-06,2021-08-17,,,,,,,,['4bf58dd8d48988d151941735'],['Dining and Drinking > Restaurant > Mexican Restaurant > Taco Restaurant'],b'\x00\x00\x00\x00\x01\xc0X\xc1\x00\xb0)(\x17@3K\xb2\x89T\xa7\xf8',"{'xmin': -99.015667, 'ymin': 19.295693, 'xmax': -99.015667, 'ymax': 19.295693}",dining and drinking > restaurant > mexican restaurant > taco restaurant,1
613fbc04317a021970eab9ec,Tacos El Jefe Toro,19.275699,-99.601737,Avenida gobernadores,Metepec,Edomex,52177,,,,MX,2021-09-13,2021-09-13,,,,,,,,['4bf58dd8d48988d151941735'],['Dining and Drinking > Restaurant > Mexican Restaurant > Taco Restaurant'],b'\x00\x00\x00\x00\x01\xc0X\xe6\x82\xdb\xe7\xf2\xc3@3F\x945\xac\x8a7',"{'xmin': -99.601737, 'ymin': 19.275699, 'xmax': -99.601737, 'ymax': 19.275699}",dining and drinking > restaurant > mexican restaurant > taco restaurant,1
515dbafae4b0d45b185e186a,Tacos De Guisado De A 5,19.299716,-99.104289,,,,,,,,MX,2013-04-04,2021-08-14,,,,,,,,['4bf58dd8d48988d151941735'],['Dining and Drinking > Restaurant > Mexican Restaurant > Taco Restaurant'],b'\x00\x00\x00\x00\x01\xc0X\xc6\xac\xab\xc5\x15H@3L\xba0\x12\x16\x83',"{'xmin': -99.104289, 'ymin': 19.299716, 'xmax': -99.104289, 'ymax': 19.299716}",dining and drinking > restaurant > mexican restaurant > taco restaurant,1
51054613e4b0a3acddc31319,Los De Cochinita,17.031939,-96.729146,Av. Ferrocarril,Oaxaca,Oaxaca,71233,,,,MX,2013-01-27,2020-11-25,,,,,,,,['4bf58dd8d48988d151941735'],['Dining and Drinking > Restaurant > Mexican Restaurant > Taco Restaurant'],"b""\x00\x00\x00\x00\x01\xc0X.\xaaS\xfc\x00\x97@1\x08-'\x80w\x8a""","{'xmin': -96.729146, 'ymin': 17.031939, 'xmax': -96.729146, 'ymax': 17.031939}",dining and drinking > restaurant > mexican restaurant > taco restaurant,1
63ca247f11dcdf2079af2c20,Tacos De Puerco,16.923381,-96.363049,Hidalgo,San Pablo Villa de Mitla,OAX,70430,,,,MX,2023-01-20,2023-01-20,,,,,,,,['4bf58dd8d48988d151941735'],['Dining and Drinking > Restaurant > Mexican Restaurant > Taco Restaurant'],b'\x00\x00\x00\x00\x01\xc0X\x17<1\xdfv\x1d@0\xecb\xb2|\xbfn',"{'xmin': -96.363049, 'ymin': 16.923381, 'xmax': -96.363049, 'ymax': 16.923381}",dining and drinking > restaurant > mexican restaurant > taco restaurant,1
51f5c226498eb42908978461,El Taquero Volador,18.099098522882745,-95.87761446535936,,,,,,,,MX,2013-07-29,2021-08-15,,,,,,,,['4bf58dd8d48988d151941735'],['Dining and Drinking > Restaurant > Mexican Restaurant > Taco Restaurant'],b'\x00\x00\x00\x00\x01\xc0W\xf8*\xd5\xdc\xcd\xc2@2\x19^\x85R\xdd\x01',"{'xmin': -95.87761446535936, 'ymin': 18.099098522882745, 'xmax': -95.87761446535936, 'ymax': 18.099098522882745}",dining and drinking > restaurant > mexican restaurant > taco restaurant,1
51ccf13a498ee269c8cba116,"Tacos ""El Manix""",19.191627147164837,-99.02302964802408,Milpa Alta,,,,,,,MX,2013-06-28,2021-08-15,,,,,,,,['4bf58dd8d48988d151941735'],['Dining and Drinking > Restaurant > Mexican Restaurant > Taco Restaurant'],b'\x00\x00\x00\x00\x01\xc0X\xc1yQXF\x84@31\x0ez\n\x19H',"{'xmin': -99.02302964802408, 'ymin': 19.191627147164837, 'xmax': -99.02302964802408, 'ymax': 19.191627147164837}",dining and drinking > restaurant > mexican restaurant > taco restaurant,1
51f2bbd6498e3ad2af79dd9b,Tacos De Birria El Brujo,19.324236,-99.173086,,,,,,,,MX,2013-07-26,2021-08-10,,,,,,,,['4bf58dd8d48988d151941735'],['Dining and Drinking > Restaurant > Mexican Restaurant > Taco Restaurant'],b'\x00\x00\x00\x00\x01\xc0X\xcb\x13\xd7MYO@3S\x01!h/\x94',"{'xmin': -99.173086, 'ymin': 19.324236, 'xmax': -99.173086, 'ymax': 19.324236}",dining and drinking > restaurant > mexican restaurant > taco restaurant,1
66b2c215d05c1f3e277c050b,Tacos De Cochinita Pibil “La fe”,19.186516,-96.132753,20 De Noviembre,Veracruz,Ver.,91700,,,,MX,2024-08-07,2024-08-07,,,,,,,,['4bf58dd8d48988d151941735'],['Dining and Drinking > Restaurant > Mexican Restaurant > Taco Restaurant'],b'\x00\x00\x00\x00\x01\xc0X\x08\x7f\x06p\\\x89@3/\xbf\x838.E',"{'xmin': -96.132753, 'ymin': 19.186516, 'xmax': -96.132753, 'ymax': 19.186516}",dining and drinking > restaurant > mexican restaurant > taco restaurant,1
5342173c498ed0ac7deff178,Tacos Raúl,20.359493255615234,-102.78096771240234,Bahamas 38,Ocotlán,Jalisco,,,,,MX,2014-04-07,2020-11-30,,392 113 9959,,,,,,['4bf58dd8d48988d151941735'],['Dining and Drinking > Restaurant > Mexican Restaurant > Taco Restaurant'],b'\x00\x00\x00\x00\x01\xc0Y\xb1\xfb`\x00\x00\x00@4\\\x07\xc0\x00\x00\x00',"{'xmin': -102.78096771240234, 'ymin': 20.359493255615234, 'xmax': -102.78096771240234, 'ymax': 20.359493255615234}",dining and drinking > restaurant > mexican restaurant > taco restaurant,1
ae123e7e160d47c0d345bb74,Wilson Pizzas,18.859892,-97.092887,Universidad 2101,Veracruz,Veracruz,96560,,,,MX,2013-06-30,2023-12-06,,921 218 8845,,,,,,"['4bf58dd8d48988d1ca941735' '4bf58dd8d48988d16e941735'
 '4bf58dd8d48988d151941735']","['Dining and Drinking > Restaurant > Pizzeria'
 'Dining and Drinking > Restaurant > Fast Food Restaurant'
 'Dining and Drinking > Restaurant > Mexican Restaurant > Taco Restaurant']",b'\x00\x00\x00\x00\x01\xc0XE\xf1\xdcP\xceO@2\xdc!\xe1\xd2\x17\x8f',"{'xmin': -97.092887, 'ymin': 18.859892, 'xmax': -97.092887, 'ymax': 18.859892}","dining and drinking > restaurant > pizzeria, dining and drinking > restaurant > fast food restaurant, dining and drinking > restaurant > mexican restaurant > taco restaurant",1
568349d5498e0e1ca0c40d8c,Los Magueyes,17.07899,-96.715739,Emilio Carranza 805 Altos,Reforma,Oaxaca,,,,,MX,2015-12-30,2020-11-23,,,,,,,,['4bf58dd8d48988d151941735'],['Dining and Drinking > Restaurant > Mexican Restaurant > Taco Restaurant'],b'\x00\x00\x00\x00\x01\xc0X-\xce\xaa\xf3^1@1\x148\xb0J\xb6\x07',"{'xmin': -96.715739, 'ymin': 17.07899, 'xmax': -96.715739, 'ymax': 17.07899}",dining and drinking > restaurant > mexican restaurant > taco restaurant,1
56896baf498e9184b82a8155,Tacos de barbacoa,19.330931,-99.11627,,,,,,,,MX,2016-01-03,2021-08-16,,,,,,,,['4bf58dd8d48988d151941735'],['Dining and Drinking > Restaurant > Mexican Restaurant > Taco Restaurant'],b'\x00\x00\x00\x00\x01\xc0X\xc7p\xf7\xb9\xe0a@3T\xb7\xe4\xde;\x8a',"{'xmin': -99.11627, 'ymin': 19.330931, 'xmax': -99.11627, 'ymax': 19.330931}",dining and drinking > restaurant > mexican restaurant > taco restaurant,1
5a976465e97dfb34fabd0b2c,El Taco Loco Estadio Azteca,19.302366,-99.14715,Tlalpan,Ciudad de México,Ciudad de México,04910,,,,MX,2018-03-01,2020-11-23,,,,,,,,['4bf58dd8d48988d151941735'],['Dining and Drinking > Restaurant > Mexican Restaurant > Taco Restaurant'],b'\x00\x00\x00\x00\x01\xc0X\xc9j\xe7\xd5f\xcf@3Mg\xdb\xb1l\x1e',"{'xmin': -99.14715, 'ymin': 19.302366, 'xmax': -99.14715, 'ymax': 19.302366}",dining and drinking > restaurant > mexican restaurant > taco restaurant,1
53efbe82498e57f6ca24241c,La Casa del Taco,19.913941529939525,-102.00748012682287,,,,,,,,MX,2014-08-16,2021-08-14,,,,,,,,['4bf58dd8d48988d151941735'],['Dining and Drinking > Restaurant > Mexican Restaurant > Taco Restaurant'],b'\x00\x00\x00\x00\x01\xc0Y\x80z\x8d\xed\x04\xbf@3\xe9\xf8\x12u\x8b\xe5',"{'xmin': -102.00748012682287, 'ymin': 19.913941529939525, 'xmax': -102.00748012682287, 'ymax': 19.913941529939525}",dining and drinking > restaurant > mexican restaurant > taco restaurant,1
540b3709498e8d96ee24029e,gorditas don dany,19.318729106953437,-99.11001777797749,,,,,,,,MX,2014-09-06,2021-08-12,,,,,,,,['4bf58dd8d48988d151941735'],['Dining and Drinking > Restaurant > Mexican Restaurant > Taco Restaurant'],b'\x00\x00\x00\x00\x01\xc0X\xc7\n\x88\x01\x99\x15@3Q\x98;\x12\xa5\xf7',"{'xmin': -99.11001777797749, 'ymin': 19.318729106953437, 'xmax': -99.11001777797749, 'ymax': 19.318729106953437}",dining and drinking > restaurant > mexican restaurant > taco restaurant,1
571c9ec3498ed52e0f9d936a,El Tavp,19.324894,-99.26283,,,,,,,,MX,2016-04-24,2020-11-23,,,,,,,,['4bf58dd8d48988d151941735'],['Dining and Drinking > Restaurant > Mexican Restaurant > Taco Restaurant'],"b'\x00\x00\x00\x00\x01\xc0X\xd0\xd24\xeb\x9a\x17@3S,@\xd0\xaa\xa8'","{'xmin': -99.26283, 'ymin': 19.324894, 'xmax': -99.26283, 'ymax': 19.324894}",dining and drinking > restaurant > mexican restaurant > taco restaurant,1
510ea30fe4b05ed0ebab2789,tianguis de pollis,19.315881729125977,-99.0887451171875,,,,,,,,MX,2013-02-03,2021-08-15,,,,,,,,['4bf58dd8d48988d151941735'],['Dining and Drinking > Restaurant > Mexican Restaurant > Taco Restaurant'],b'\x00\x00\x00\x00\x01\xc0X\xc5\xae\x00\x00\x00\x00@3P\xdd\xa0\x00\x00\x00',"{'xmin': -99.0887451171875, 'ymin': 19.315881729125977, 'xmax': -99.0887451171875, 'ymax': 19.315881729125977}",dining and drinking > restaurant > mexican restaurant > taco restaurant,1
5754ef7c498ea500ede0ffb5,"Antojitos y tacos ""el cuate""",18.611741,-95.660331,,Tlacotalpan,Veracruz,95460,,,,MX,2016-06-06,2020-11-23,,,,,,,,['4bf58dd8d48988d151941735'],['Dining and Drinking > Restaurant > Mexican Restaurant > Taco Restaurant'],b'\x00\x00\x00\x00\x01\xc0W\xeaB\xdc\xf4b=@2\x9c\x9b\x0e\xe4\x9fQ',"{'xmin': -95.660331, 'ymin': 18.611741, 'xmax': -95.660331, 'ymax': 18.611741}",dining and drinking > restaurant > mexican restaurant > taco restaurant,1
58d3f69c9435a92450b6156f,Tacos GOLO,16.862103,-99.87072,Felipe II,Acapulco,Guerrero,39670,,,,MX,2017-03-23,2020-11-24,,,,,,,,['4bf58dd8d48988d151941735'],['Dining and Drinking > Restaurant > Mexican Restaurant > Taco Restaurant'],b'\x00\x00\x00\x00\x01\xc0X\xf7\xb9\xe0`\xfeH@0\xdc\xb2\xc8>\xc8\x93',"{'xmin': -99.87072, 'ymin': 16.862103, 'xmax': -99.87072, 'ymax': 16.862103}",dining and drinking > restaurant > mexican restaurant > taco restaurant,1
4f2ded3ee4b0ccb91369675f,"Tacos ""La casita""",19.269676,-99.097534,,,,,,,,MX,2012-02-05,2021-08-12,,,,,,,,['4bf58dd8d48988d151941735'],['Dining and Drinking > Restaurant > Mexican Restaurant > Taco Restaurant'],b'\x00\x00\x00\x00\x01\xc0X\xc6=\xff?\x0f\xe0@3E\t|\x80\x84\x1f',"{'xmin': -99.097534, 'ymin': 19.269676, 'xmax': -99.097534, 'ymax': 19.269676}",dining and drinking > restaurant > mexican restaurant > taco restaurant,1
52ceea5511d27f037dcc8e4a,"Taqueria ""Don Angel""",19.327817916870117,-99.14435577392578,Museo 123,Mexico,D.F.,04620,,,,MX,2014-01-09,2020-11-24,,,,,,,,['4bf58dd8d48988d151941735'],['Dining and Drinking > Restaurant > Mexican Restaurant > Taco Restaurant'],b'\x00\x00\x00\x00\x01\xc0X\xc9= \x00\x00\x00@3S\xeb\xe0\x00\x00\x00',"{'xmin': -99.14435577392578, 'ymin': 19.327817916870117, 'xmax': -99.14435577392578, 'ymax': 19.327817916870117}",dining and drinking > restaurant > mexican restaurant > taco restaurant,1
5028fdade4b0fe4232b9dcf0,"Tacos De Canasta ""Yireh""",18.92791972428532,-99.19869636523535,,,,,,,,MX,2012-08-13,2021-08-16,,,,,,,,['4bf58dd8d48988d151941735'],['Dining and Drinking > Restaurant > Mexican Restaurant > Taco Restaurant'],b'\x00\x00\x00\x00\x01\xc0X\xcc\xb7p\xf5\xa1F@2\xed\x8c%\xa5\x1ei',"{'xmin': -99.19869636523535, 'ymin': 18.92791972428532, 'xmax': -99.19869636523535, 'ymax': 18.92791972428532}",dining and drinking > restaurant > mexican restaurant > taco restaurant,1
4f8a47f0e4b0e81f68479758,La cabaña de Don Fer,19.31311749979837,-99.2475520742553,,,,,,,,MX,2012-04-15,2021-08-11,,,,,,,,['4bf58dd8d48988d151941735'],['Dining and Drinking > Restaurant > Mexican Restaurant > Taco Restaurant'],b'\x00\x00\x00\x00\x01\xc0X\xcf\xd7\xe4\xa7\xbe\xf1@3P(w\xedpu',"{'xmin': -99.2475520742553, 'ymin': 19.31311749979837, 'xmax': -99.2475520742553, 'ymax': 19.31311749979837}",dining and drinking > restaurant > mexican restaurant > taco restaurant,1
5a5d78bba8eb601e807db494,Taquería El Sirloin Norteño,16.228603,-92.133613,,Comitán de Domínguez,CHIS,30090,,,,MX,2018-01-16,2020-11-25,,,,,,,,['4bf58dd8d48988d151941735'],['Dining and Drinking > Restaurant > Mexican Restaurant > Taco Restaurant'],b'\x00\x00\x00\x00\x01\xc0W\x08\x8d\x1d\x8aT\x82@0:\x85\xb9\xe8\xc4z',"{'xmin': -92.133613, 'ymin': 16.228603, 'xmax': -92.133613, 'ymax': 16.228603}",dining and drinking > restaurant > mexican restaurant > taco restaurant,1
5681fa3238fa6298b071e7cb,Tacos Los Clandestinos o Procedimiento,18.94313497674685,-99.23310222640659,,,,,,,,MX,2015-12-29,2021-08-16,,,,,,,,['4bf58dd8d48988d151941735'],['Dining and Drinking > Restaurant > Mexican Restaurant > Taco Restaurant'],b'\x00\x00\x00\x00\x01\xc0X\xce\xeb%\x99\xc2\xa1@2\xf1qK8\xd7i',"{'xmin': -99.23310222640659, 'ymin': 18.94313497674685, 'xmax': -99.23310222640659, 'ymax': 18.94313497674685}",dining and drinking > restaurant > mexican restaurant > taco restaurant,1
59b7ff400d173f341fce8d9b,"""El itacate"" Tortas Ahogadas",19.412495,-102.0577,Manuel Perez Coronado #24,Uruapan,MICH,60080,,,,MX,2017-09-12,2020-11-22,,,,,,,,"['4bf58dd8d48988d1c5941735' '4bf58dd8d48988d151941735'
 '4bf58dd8d48988d1dd931735']","['Dining and Drinking > Restaurant > Sandwich Spot'
 'Dining and Drinking > Restaurant > Mexican Restaurant > Taco Restaurant'
 'Dining and Drinking > Restaurant > Soup Spot']",b'\x00\x00\x00\x00\x01\xc0Y\x83\xb1[W>\xab@3i\x99E\xb6\xc3v',"{'xmin': -102.0577, 'ymin': 19.412495, 'xmax': -102.0577, 'ymax': 19.412495}","dining and drinking > restaurant > sandwich spot, dining and drinking > restaurant > mexican restaurant > taco restaurant, dining and drinking > restaurant > soup spot",1
4c9efd1f54c8a1cdf852934b,El Chiringuito,18.925297508360977,-99.22643497179749,"Av. Plan de Ayala 420-B, Col. Amatitlán",Cuernavaca,Morelos,62410,,,,MX,2010-09-26,2024-06-16,,777 312 5916,,,369204609804233.0,,,['4bf58dd8d48988d151941735'],['Dining and Drinking > Restaurant > Mexican Restaurant > Taco Restaurant'],b'\x00\x00\x00\x00\x01\xc0X\xce}\xe9\x1b\xa2\x9e@2\xec\xe0L){\x0e',"{'xmin': -99.22643497179749, 'ymin': 18.925297508360977, 'xmax': -99.22643497179749, 'ymax': 18.925297508360977}",dining and drinking > restaurant > mexican restaurant > taco restaurant,1
4d68856cb6f46dcbe31b15b2,Taqueria Los Hidalguenses,19.28829715376173,-99.64804232483439,José María Morelos y Pavón,Toluca,MEX,,,,,MX,2011-02-26,2020-11-26,,,,,,,,['4bf58dd8d48988d151941735'],['Dining and Drinking > Restaurant > Mexican Restaurant > Taco Restaurant'],b'\x00\x00\x00\x00\x01\xc0X\xe9y\x86\x83\xe5\x9a@3I\xcd\xd7\x9e\xef\xbf',"{'xmin': -99.64804232483439, 'ymin': 19.28829715376173, 'xmax': -99.64804232483439, 'ymax': 19.28829715376173}",dining and drinking > restaurant > mexican restaurant > taco restaurant,1
5aa89ae9e17910703d4c259f,Tacos “La Gordita”,19.185772,-96.152112,Canal,Veracruz,VER,91712,,,,MX,2018-03-14,2020-11-25,,,,,,,,['4bf58dd8d48988d151941735'],['Dining and Drinking > Restaurant > Mexican Restaurant > Taco Restaurant'],b'\x00\x00\x00\x00\x01\xc0X\t\xbc3\xf8U\x11@3/\x8e\xc0\xf8\x834',"{'xmin': -96.152112, 'ymin': 19.185772, 'xmax': -96.152112, 'ymax': 19.185772}",dining and drinking > restaurant > mexican restaurant > taco restaurant,1
5abef8d895a72228a985b8ed,Taco Salsa,19.317019,-99.249916,,Ciudad de México,Ciudad de México,10340,,,,MX,2018-03-31,2020-11-22,,,,,,,,['4bf58dd8d48988d151941735'],['Dining and Drinking > Restaurant > Mexican Restaurant > Taco Restaurant'],b'\x00\x00\x00\x00\x01\xc0X\xcf\xfe\x9f\xad\xaf\xd1@3Q((=5\xeb',"{'xmin': -99.249916, 'ymin': 19.317019, 'xmax': -99.249916, 'ymax': 19.317019}",dining and drinking > restaurant > mexican restaurant > taco restaurant,1
5241dff011d23564a1e61393,Cocinita De Caro,19.311879,-99.22889,Calle Puebla Col. Héroes De Padierna Del. Magdalena Contreras,México,D.F.,,,,,MX,2013-09-24,2020-11-30,,,,,,,,['4bf58dd8d48988d151941735'],['Dining and Drinking > Restaurant > Mexican Restaurant > Taco Restaurant'],"b'\x00\x00\x00\x00\x01\xc0X\xce\xa6"">\x18j@3O\xd7MYO\''","{'xmin': -99.22889, 'ymin': 19.311879, 'xmax': -99.22889, 'ymax': 19.311879}",dining and drinking > restaurant > mexican restaurant > taco restaurant,1
58900f4eea1c0d4369cbf318,Tacos El Poblano,19.145594,-96.13055,,Veracruz,Veracruz,,,,,MX,2017-01-31,2020-11-30,,,,,,,,['4bf58dd8d48988d151941735'],['Dining and Drinking > Restaurant > Mexican Restaurant > Taco Restaurant'],b'\x00\x00\x00\x00\x01\xc0X\x08Z\xeec\x1f\x8a@3%E\xa5\xfc~k',"{'xmin': -96.13055, 'ymin': 19.145594, 'xmax': -96.13055, 'ymax': 19.145594}",dining and drinking > restaurant > mexican restaurant > taco restaurant,1
5318814b498e1c272f4b613f,Taquería Ayutla,17.030683517456055,-96.07592010498047,,,,,,,,MX,2014-03-06,2021-08-17,,,,,,,,['4bf58dd8d48988d151941735'],['Dining and Drinking > Restaurant > Mexican Restaurant > Taco Restaurant'],b'\x00\x00\x00\x00\x01\xc0X\x04\xdb\xe0\x00\x00\x00@1\x07\xda\xe0\x00\x00\x00',"{'xmin': -96.07592010498047, 'ymin': 17.030683517456055, 'xmax': -96.07592010498047, 'ymax': 17.030683517456055}",dining and drinking > restaurant > mexican restaurant > taco restaurant,1
4e7798b7483b0cf5edb14c1e,Tacos Al Vapor y de Filete de Camaron,20.566300751444924,-103.29750139456115,"Afuera IBM, Frente 7 Eleven",,,,,,,MX,2011-09-19,2020-11-23,,,,,,,,['4bf58dd8d48988d151941735' '4bf58dd8d48988d1cb941735'],"['Dining and Drinking > Restaurant > Mexican Restaurant > Taco Restaurant'
 'Dining and Drinking > Food Truck']","b""\x00\x00\x00\x00\x01\xc0Y\xd3\nCJ\t\xe4@4\x90\xf9\x16\x07'\xfb""","{'xmin': -103.29750139456115, 'ymin': 20.566300751444924, 'xmax': -103.29750139456115, 'ymax': 20.566300751444924}","dining and drinking > restaurant > mexican restaurant > taco restaurant, dining and drinking > food truck",1
5104a227e4b0e893f7d5fa84,"Taqueria Aray-Aracho, Av. Ignacio Allende. Ixtapan de la Sal",18.833677,-99.675606,,,,,,,,MX,2013-01-27,2021-08-14,,,,,,,,['4bf58dd8d48988d151941735'],['Dining and Drinking > Restaurant > Mexican Restaurant > Taco Restaurant'],b'\x00\x00\x00\x00\x01\xc0X\xeb= \xf2\xbe\xcf@2\xd5k\xdb\x1amj',"{'xmin': -99.675606, 'ymin': 18.833677, 'xmax': -99.675606, 'ymax': 18.833677}",dining and drinking > restaurant > mexican restaurant > taco restaurant,1
56847dfe498ebdabb8ea5fea,cholucos taqueria,19.288213039922532,-99.58674860643015,Paseo totoltepec,Mexico,estado de mexico,50245,,,,MX,2015-12-31,2020-11-25,,,,,,,,['4bf58dd8d48988d151941735'],['Dining and Drinking > Restaurant > Mexican Restaurant > Taco Restaurant'],b'\x00\x00\x00\x00\x01\xc0X\xe5\x8dJ\x06\xe5\xd4@3I\xc8Tl\xbf~',"{'xmin': -99.58674860643015, 'ymin': 19.288213039922532, 'xmax': -99.58674860643015, 'ymax': 19.288213039922532}",dining and drinking > restaurant > mexican restaurant > taco restaurant,1
4fcd7165e4b0349ae2d8fc77,Los Hornitos,19.278934,-99.654331,,,,,,,,MX,2012-06-05,2021-08-14,,,,,,,,['4bf58dd8d48988d151941735'],['Dining and Drinking > Restaurant > Mexican Restaurant > Taco Restaurant'],b'\x00\x00\x00\x00\x01\xc0X\xe9\xe0\x8f!p\x93@3Gh7\xf7\xbe\x12',"{'xmin': -99.654331, 'ymin': 19.278934, 'xmax': -99.654331, 'ymax': 19.278934}",dining and drinking > restaurant > mexican restaurant > taco restaurant,1
4fb17202e4b0a8c810d46102,Antojitos Eva,18.849888681706247,-97.10540811764812,Pte 4,Orizaba,Veracruz,,,,,MX,2012-05-14,2020-11-25,,,,,,,,['4bf58dd8d48988d151941735'],['Dining and Drinking > Restaurant > Mexican Restaurant > Taco Restaurant'],b'\x00\x00\x00\x00\x01\xc0XF\xbf\x01\xb0\x82\x06@2\xd9\x92M\xfd+<',"{'xmin': -97.10540811764812, 'ymin': 18.849888681706247, 'xmax': -97.10540811764812, 'ymax': 18.849888681706247}",dining and drinking > restaurant > mexican restaurant > taco restaurant,1
528fdcc711d2e680d476197d,CARNES ASADAS LA ESTACIÓN,19.702537536621094,-103.4813003540039,,,,,,,,MX,2013-11-22,2021-08-14,,,,,,,,['4bf58dd8d48988d151941735'],['Dining and Drinking > Restaurant > Mexican Restaurant > Taco Restaurant'],b'\x00\x00\x00\x00\x01\xc0Y\xde\xcd\xa0\x00\x00\x00@3\xb3\xd9\x80\x00\x00\x00',"{'xmin': -103.4813003540039, 'ymin': 19.702537536621094, 'xmax': -103.4813003540039, 'ymax': 19.702537536621094}",dining and drinking > restaurant > mexican restaurant > taco restaurant,1
4eeeb1176c25c7f9d3792fd8,Tacos Lalin,20.527794186208805,-102.34018245557527,,Ayotlan,Jalisco,,,,,MX,2011-12-19,2020-11-25,,,,,,,,['4bf58dd8d48988d151941735'],['Dining and Drinking > Restaurant > Mexican Restaurant > Taco Restaurant'],"b""\x00\x00\x00\x00\x01\xc0Y\x95\xc5\x8c\xa2W\x9a@4\x87\x1d\x85\x10\xc9'""","{'xmin': -102.34018245557527, 'ymin': 20.527794186208805, 'xmax': -102.34018245557527, 'ymax': 20.527794186208805}",dining and drinking > restaurant > mexican restaurant > taco restaurant,1
511d3232e4b0e54e3f8e1773,Tacosteño,14.91702614653696,-92.26463324486441,,,,,,,,MX,2013-02-14,2021-08-14,,,,,,,,['4bf58dd8d48988d151941735'],['Dining and Drinking > Restaurant > Mexican Restaurant > Taco Restaurant'],b'\x00\x00\x00\x00\x01\xc0W\x10\xef\xc0G\x08!@-\xd5\x84sy\xe8\x03',"{'xmin': -92.26463324486441, 'ymin': 14.91702614653696, 'xmax': -92.26463324486441, 'ymax': 14.91702614653696}",dining and drinking > restaurant > mexican restaurant > taco restaurant,1
51323e1a80556cc6035dc068,Tacos Guau,20.369087,-102.766854,Confusio,Ocotlán,JAL,47800,,,,MX,2013-03-02,2020-11-23,,,,,,,,"['4bf58dd8d48988d151941735' '4bf58dd8d48988d147941735'
 '4bf58dd8d48988d1cb941735']","['Dining and Drinking > Restaurant > Mexican Restaurant > Taco Restaurant'
 'Dining and Drinking > Restaurant > Diner'
 'Dining and Drinking > Food Truck']","b'\x00\x00\x00\x00\x01\xc0Y\xb1\x14""\xcc\xb3\xa2@4^||R`\xf6'","{'xmin': -102.766854, 'ymin': 20.369087, 'xmax': -102.766854, 'ymax': 20.369087}","dining and drinking > restaurant > mexican restaurant > taco restaurant, dining and drinking > restaurant > diner, dining and drinking > food truck",1
52b50c12498e737300ff5fca,"tacos ""Danny Boy""",18.860209,-99.21963,,,,,,,,MX,2013-12-21,2020-11-21,,,,,,,,['4bf58dd8d48988d151941735'],['Dining and Drinking > Restaurant > Mexican Restaurant > Taco Restaurant'],b'\x00\x00\x00\x00\x01\xc0X\xce\x0ej\xfc\xce\x1c@2\xdc6\xa82\xb9\x91',"{'xmin': -99.21963, 'ymin': 18.860209, 'xmax': -99.21963, 'ymax': 18.860209}",dining and drinking > restaurant > mexican restaurant > taco restaurant,1
53c5f4e4498ede08a80aca58,"Tacos ""El Manos Puercas""",19.284038598165775,-99.63910760342378,,,,,,,,MX,2014-07-16,2021-08-13,,,,,,,,['4bf58dd8d48988d151941735'],['Dining and Drinking > Restaurant > Mexican Restaurant > Taco Restaurant'],b'\x00\x00\x00\x00\x01\xc0X\xe8\xe7#\x93\xd5 @3H\xb6\xc0\xe9\xecw',"{'xmin': -99.63910760342378, 'ymin': 19.284038598165775, 'xmax': -99.63910760342378, 'ymax': 19.284038598165775}",dining and drinking > restaurant > mexican restaurant > taco restaurant,1
56dfc516cd10ebe60b7f69e3,Taquería Mis Peques,18.801489668803818,-97.1837747212588,,,,,,,,MX,2016-03-09,2021-08-12,,,,,,,,['4bf58dd8d48988d151941735'],['Dining and Drinking > Restaurant > Mexican Restaurant > Taco Restaurant'],"b'\x00\x00\x00\x00\x01\xc0XK\xc2\xf7\x0ch\xd6@2\xcd.mK\x98""'","{'xmin': -97.1837747212588, 'ymin': 18.801489668803818, 'xmax': -97.1837747212588, 'ymax': 18.801489668803818}",dining and drinking > restaurant > mexican restaurant > taco restaurant,1
563ee1eacd10bfc0872b6d9c,Tacos Tito,19.66650348290599,-101.52530227700294,Francisco I Madero,Quiroga,Michoacán,58420,,,,MX,2015-11-08,2020-11-24,,,,,,,,['4bf58dd8d48988d151941735'],['Dining and Drinking > Restaurant > Mexican Restaurant > Taco Restaurant'],b'\x00\x00\x00\x00\x01\xc0Ya\x9e\x8dq\x0f|@3\xaa\x9f\xf8\xe5\xc0W',"{'xmin': -101.52530227700294, 'ymin': 19.66650348290599, 'xmax': -101.52530227700294, 'ymax': 19.66650348290599}",dining and drinking > restaurant > mexican restaurant > taco restaurant,1
