fsq_place_id,name,latitude,longitude,address,locality,region,postcode,admin_region,post_town,po_box,country,date_created,date_refreshed,date_closed,tel,website,email,facebook_id,instagram,twitter,fsq_category_ids,fsq_category_labels,geom,bbox,labels_str,taco_restaurant
4e285ea118a83a13623168cc,Tacos De Guisado,32.62317795621542,-115.38734631460211,,Mexicali,Baja California,,,,,MX,2011-07-21,2023-12-21,,686 225 5740,,,,,,['4bf58dd8d48988d151941735'],['Dining and Drinking > Restaurant > Mexican Restaurant > Taco Restaurant'],b'\x00\x00\x00\x00\x01\xc0\\\xd8\xcaH2\\M@@O\xc4K\x96\xc4E',"{'xmin': -115.38734631460211, 'ymin': 32.62317795621542, 'xmax': -115.38734631460211, 'ymax': 32.62317795621542}",dining and drinking > restaurant > mexican restaurant > taco restaurant,1
5c243df66dcf04002d1b7888,Tacos El Vaquero,32.51684888399751,-117.02048181654372,269 3rd Ave,Chula Vista,California,91910,,,,MX,2018-12-27,2020-11-23,,,https://tacoselvaquero.business.site,,,,,['4bf58dd8d48988d1cb941735' '4bf58dd8d48988d151941735'],"['Dining and Drinking > Food Truck'
 'Dining and Drinking > Restaurant > Mexican Restaurant > Taco Restaurant']",b'\x00\x00\x00\x00\x01\xc0]AO\x92\xf7\r\xf3@@B(\x1a\xae\xdf(',"{'xmin': -117.02048181654372, 'ymin': 32.51684888399751, 'xmax': -117.02048181654372, 'ymax': 32.51684888399751}","dining and drinking > food truck, dining and drinking > restaurant > mexican restaurant > taco restaurant",1
56fc9389498e32488d2ea798,Tacos Víctor,32.510069,-116.919515,,,,,,,,MX,2016-03-31,2020-11-22,,,,,,,,['4bf58dd8d48988d151941735'],['Dining and Drinking > Restaurant > Mexican Restaurant > Taco Restaurant'],b'\x00\x00\x00\x00\x01\xc0]:\xd9UqK\x9d@@AI\xf0\xe4\xda\n',"{'xmin': -116.919515, 'ymin': 32.510069, 'xmax': -116.919515, 'ymax': 32.510069}",dining and drinking > restaurant > mexican restaurant > taco restaurant,1
5992677c6fa81f0df1487769,Tacos El Cuate,32.650772,-115.42431,Río Presidio,Mexicali,Baja California,21250,,,,MX,2017-08-15,2020-11-23,,,,,,,,['4bf58dd8d48988d151941735'],['Dining and Drinking > Restaurant > Mexican Restaurant > Taco Restaurant'],"b""\x00\x00\x00\x00\x01\xc0\\\xdb'\xe5!Wi@@SL\x7f4\x93\x86""","{'xmin': -115.42431, 'ymin': 32.650772, 'xmax': -115.42431, 'ymax': 32.650772}",dining and drinking > restaurant > mexican restaurant > taco restaurant,1
d088f1a4be19490ad6a4ba01,Tacos Orientales de Parral,32.508457,-117.042875,Avenida Independencia 309,Chihuahua,Chihuahua,,,,,MX,2014-11-26,2023-12-06,,627 523 4000,,,,,,['4bf58dd8d48988d151941735'],['Dining and Drinking > Restaurant > Mexican Restaurant > Taco Restaurant'],b'\x00\x00\x00\x00\x01\xc0]B\xbev\xc8\xb49@@A\x15\x1eu6\r',"{'xmin': -117.042875, 'ymin': 32.508457, 'xmax': -117.042875, 'ymax': 32.508457}",dining and drinking > restaurant > mexican restaurant > taco restaurant,1
538eaa66498eb2b43fc29cab,Taqueria Chuy,32.47245788574219,-114.74946594238281,,,,,,,,MX,2014-06-04,2021-08-15,,,,,,,,['4bf58dd8d48988d151941735'],['Dining and Drinking > Restaurant > Mexican Restaurant > Taco Restaurant'],b'\x00\x00\x00\x00\x01\xc0\\\xaf\xf7@\x00\x00\x00@@<y\x80\x00\x00\x00',"{'xmin': -114.74946594238281, 'ymin': 32.47245788574219, 'xmax': -114.74946594238281, 'ymax': 32.47245788574219}",dining and drinking > restaurant > mexican restaurant > taco restaurant,1
65c2e4167d3e8a53a74cb8ec,Antojitos Mexicanos La Bamba,32.609197,-115.403049,,Mexicali,B.C.,21399,,,,MX,2024-02-07,2024-02-07,,,,,,,,['4bf58dd8d48988d151941735'],['Dining and Drinking > Restaurant > Mexican Restaurant > Taco Restaurant'],b'\x00\x00\x00\x00\x01\xc0\\\xd9\xcb\x8e\x08k\xdf@@M\xfa*\xd3\xe9!',"{'xmin': -115.403049, 'ymin': 32.609197, 'xmax': -115.403049, 'ymax': 32.609197}",dining and drinking > restaurant > mexican restaurant > taco restaurant,1
50498120e4b0f3a8fa76311a,tacos villa colonial,32.61987740023857,-115.41449820995969,Villa Colonial,,,,,,,MX,2012-09-07,2021-08-17,,,,,,,,['4bf58dd8d48988d151941735'],['Dining and Drinking > Restaurant > Mexican Restaurant > Taco Restaurant'],b'\x00\x00\x00\x00\x01\xc0\\\xda\x87#\x80\x01\xc1@@OX$\x84\xc6\xef',"{'xmin': -115.41449820995969, 'ymin': 32.61987740023857, 'xmax': -115.41449820995969, 'ymax': 32.61987740023857}",dining and drinking > restaurant > mexican restaurant > taco restaurant,1
50ede7a6e4b072f65f9f88fd,tacos javier,32.52546691894531,-117.07085418701172,,,,,,,,MX,2013-01-09,2023-12-19,,664 630 2639,,,,,,['4bf58dd8d48988d151941735'],['Dining and Drinking > Restaurant > Mexican Restaurant > Taco Restaurant'],b'\x00\x00\x00\x00\x01\xc0]D\x88\xe0\x00\x00\x00@@CB\x80\x00\x00\x00',"{'xmin': -117.07085418701172, 'ymin': 32.52546691894531, 'xmax': -117.07085418701172, 'ymax': 32.52546691894531}",dining and drinking > restaurant > mexican restaurant > taco restaurant,1
593b76e516fa0435e4cea9e2,Tacos La Carretita Nuevo Milenio,32.493633,-117.069211,,Tijuana,BC,22604,,,,MX,2017-06-10,2020-11-26,,,,,,,,['4bf58dd8d48988d151941735'],['Dining and Drinking > Restaurant > Mexican Restaurant > Taco Restaurant'],b'\x00\x00\x00\x00\x01\xc0]Dm\xf3\xf9a\x80@@?/]\xbb\x9c\xfa',"{'xmin': -117.069211, 'ymin': 32.493633, 'xmax': -117.069211, 'ymax': 32.493633}",dining and drinking > restaurant > mexican restaurant > taco restaurant,1
545dbbf4498e817a1d1264d8,Birrieria y Taqueria El Unico,31.834311,-116.605859,,,,,,,,MX,2014-11-08,2023-12-19,,665 101 3930,,,,,,['4bf58dd8d48988d151941735'],['Dining and Drinking > Restaurant > Mexican Restaurant > Taco Restaurant'],b'\x00\x00\x00\x00\x01\xc0]&\xc6d\xd3\xbf/@?\xd5\x95g\xdb\xb1l',"{'xmin': -116.605859, 'ymin': 31.834311, 'xmax': -116.605859, 'ymax': 31.834311}",dining and drinking > restaurant > mexican restaurant > taco restaurant,1
634a21c96c394d1934b7985a,Tacos El Moreno,32.44446,-116.924394,,Tijuana,Baja California,22124,,,,MX,2022-10-15,2022-10-15,,,,,,,,['4bf58dd8d48988d151941735'],['Dining and Drinking > Restaurant > Mexican Restaurant > Taco Restaurant'],b'\x00\x00\x00\x00\x01\xc0];)Es\xa7\x98@@8\xe4\x10\xb60\xa9',"{'xmin': -116.924394, 'ymin': 32.44446, 'xmax': -116.924394, 'ymax': 32.44446}",dining and drinking > restaurant > mexican restaurant > taco restaurant,1
5aaf51f4b76348385c82ed75,Asadero el Rancho,32.468591,-114.789964,Constitucion s/n,San Luis Río Colorado,Sonora,83420,,,,MX,2014-02-20,2023-12-06,,653 536 5192,,,,,,['4bf58dd8d48988d151941735'],['Dining and Drinking > Restaurant > Mexican Restaurant > Taco Restaurant'],b'\x00\x00\x00\x00\x01\xc0\\\xb2\x8e\xc5*A\x1c@@;\xfa\xca6\x19\x98',"{'xmin': -114.789964, 'ymin': 32.468591, 'xmax': -114.789964, 'ymax': 32.468591}",dining and drinking > restaurant > mexican restaurant > taco restaurant,1
52f5abf7498e2dc9fb2cea49,Tacos de Don Armando,32.525217383815594,-116.99997279110505,,,,,,,,MX,2014-02-08,2021-08-16,,,,,,,,['4bf58dd8d48988d151941735'],['Dining and Drinking > Restaurant > Mexican Restaurant > Taco Restaurant'],b'\x00\x00\x00\x00\x01\xc0]?\xff\x8d\xe0\xab\xe8@@C:R\xbfc\xab',"{'xmin': -116.99997279110505, 'ymin': 32.525217383815594, 'xmax': -116.99997279110505, 'ymax': 32.525217383815594}",dining and drinking > restaurant > mexican restaurant > taco restaurant,1
4f0e0a87e4b0d8e3c11c393d,Tacos de borrego El Ferrocarril,31.881164768363785,-116.62464303990755,Ambar,Ensenada,Baja California,22800,,,,MX,2012-01-11,2020-11-22,,,,,,,,['4bf58dd8d48988d151941735'],['Dining and Drinking > Restaurant > Mexican Restaurant > Taco Restaurant'],"b""\x00\x00\x00\x00\x01\xc0]'\xfa&\xcd\x04\xed@?\xe1\x94\x03\xa6\x82\x87""","{'xmin': -116.62464303990755, 'ymin': 31.881164768363785, 'xmax': -116.62464303990755, 'ymax': 31.881164768363785}",dining and drinking > restaurant > mexican restaurant > taco restaurant,1
51a30593498ef1b33abef634,Taquería René's,32.48156209516389,-116.87926389957421,Ruta Mariano Matamoros,Tijuana,Baja California,,,,,MX,2013-05-27,2020-11-30,,,,,,,,['4bf58dd8d48988d151941735'],['Dining and Drinking > Restaurant > Mexican Restaurant > Taco Restaurant'],b'\x00\x00\x00\x00\x01\xc0]8E\xdc\x17Na@@=\xa3\xd3\xa4\xdco',"{'xmin': -116.87926389957421, 'ymin': 32.48156209516389, 'xmax': -116.87926389957421, 'ymax': 32.48156209516389}",dining and drinking > restaurant > mexican restaurant > taco restaurant,1
50e46c00e4b09f5ea737ccab,"Tacos de birria ""Los Poblanitos""",32.52956035724714,-116.97266073145698,,,,,,,,MX,2013-01-02,2021-08-12,,,,,,,,['4bf58dd8d48988d153941735' '4bf58dd8d48988d151941735'],"['Dining and Drinking > Restaurant > Mexican Restaurant > Burrito Restaurant'
 'Dining and Drinking > Restaurant > Mexican Restaurant > Taco Restaurant']",b'\x00\x00\x00\x00\x01\xc0]>@\x12\xcb\xed\x84@@C\xc8\xa2?\xd19',"{'xmin': -116.97266073145698, 'ymin': 32.52956035724714, 'xmax': -116.97266073145698, 'ymax': 32.52956035724714}","dining and drinking > restaurant > mexican restaurant > burrito restaurant, dining and drinking > restaurant > mexican restaurant > taco restaurant",1
5850ab7072714f3f7afec88e,La Banana Tacos y Cotorreo,32.488815,-117.031747,,,,,,,,MX,2016-12-14,2021-08-12,,,,,,,,['4bf58dd8d48988d151941735'],['Dining and Drinking > Restaurant > Mexican Restaurant > Taco Restaurant'],b'\x00\x00\x00\x00\x01\xc0]B\x08$\x91\xaf\xc0@@>\x91}ke\xaa',"{'xmin': -117.031747, 'ymin': 32.488815, 'xmax': -117.031747, 'ymax': 32.488815}",dining and drinking > restaurant > mexican restaurant > taco restaurant,1
5108c30029a6465f853fa4cb,Tacos de Canasta Capuleto ( Cocina Bulevares),21.853592427389103,-102.3033034801483,Enrique Olivares Santana 441,Aguascalientes,aguascalientes,20288,,,,MX,2013-01-30,2023-07-29,,449 904 9636,http://www.tacosdecanastacapuleto.com,,439228776124650.0,tacosdecanastacapuleto,tacosags,['4bf58dd8d48988d151941735'],['Dining and Drinking > Restaurant > Mexican Restaurant > Taco Restaurant'],b'\x00\x00\x00\x00\x01\xc0Y\x93iR\xff\xff\xff@5\xda\x85\x08\x87\xbf\xdc',"{'xmin': -102.3033034801483, 'ymin': 21.853592427389103, 'xmax': -102.3033034801483, 'ymax': 21.853592427389103}",dining and drinking > restaurant > mexican restaurant > taco restaurant,1
526a84ed11d21783b5b58dbe,Tacos Don Santy,20.70781404922304,-103.41356167815006,,,,,,,,MX,2013-10-25,2021-08-14,,,,,,,,['4bf58dd8d48988d151941735'],['Dining and Drinking > Restaurant > Mexican Restaurant > Taco Restaurant'],b'\x00\x00\x00\x00\x01\xc0Y\xdaw\xcbf\xa2#@4\xb53M1\x0f\xf2',"{'xmin': -103.41356167815006, 'ymin': 20.70781404922304, 'xmax': -103.41356167815006, 'ymax': 20.70781404922304}",dining and drinking > restaurant > mexican restaurant > taco restaurant,1
5a9832066eda026f7ba7dc4c,Tacos De Cabeza Corona,21.742659,-105.2331,,Villa Hidalgo,Nayarit,63550,,,,MX,2018-03-01,2020-11-22,,,,,,,,['4bf58dd8d48988d151941735'],['Dining and Drinking > Restaurant > Mexican Restaurant > Taco Restaurant'],"b'\x00\x00\x00\x00\x01\xc0ZN\xeb\x1cC,\xa5@5\xbe\x1e\xe6u\x14\x7f'","{'xmin': -105.2331, 'ymin': 21.742659, 'xmax': -105.2331, 'ymax': 21.742659}",dining and drinking > restaurant > mexican restaurant > taco restaurant,1
520a668911d2d94685575ba6,Tacos La Güera,22.14113,-100.920575,,,,,,,,MX,2013-08-13,2021-08-16,,,,,,,,['4bf58dd8d48988d151941735'],['Dining and Drinking > Restaurant > Mexican Restaurant > Taco Restaurant'],b'\x00\x00\x00\x00\x01\xc0Y:\xea\xb3g\xa0\xf9@6$!\x18~|\x07',"{'xmin': -100.920575, 'ymin': 22.14113, 'xmax': -100.920575, 'ymax': 22.14113}",dining and drinking > restaurant > mexican restaurant > taco restaurant,1
5b12c7a625ecca002c61d9e8,Tampitacos,20.54279,-101.20498,Blvd. Valle de Santiago,Salamanca,Guanajuato,36786,,,,MX,2018-06-02,2020-11-23,,,,,,,,['4bf58dd8d48988d151941735'],['Dining and Drinking > Restaurant > Mexican Restaurant > Taco Restaurant'],b'\x00\x00\x00\x00\x01\xc0YM\x1edo\x15b@4\x8a\xf4I\x12\x98\x89',"{'xmin': -101.20498, 'ymin': 20.54279, 'xmax': -101.20498, 'ymax': 20.54279}",dining and drinking > restaurant > mexican restaurant > taco restaurant,1
581a15fde13e176153f04040,Tacos Y Tortas Londres,22.147326,-100.94233,,San Luis Potosí,San Luis Potosí,,,,,MX,2016-11-02,2020-11-25,,,,,,,,['4bf58dd8d48988d151941735'],['Dining and Drinking > Restaurant > Mexican Restaurant > Taco Restaurant'],"b'\x00\x00\x00\x00\x01\xc0Y<O""}\x02\x8a@6%\xb7(\x1f\xd9\xba'","{'xmin': -100.94233, 'ymin': 22.147326, 'xmax': -100.94233, 'ymax': 22.147326}",dining and drinking > restaurant > mexican restaurant > taco restaurant,1
4e76a3698998ed82a539b76a,Takos Tino,20.659455956261347,-105.22379175855441,,Puerto Vallarta,Jalisco,,,,,MX,2011-09-19,2020-11-24,,,,,,,,['4bf58dd8d48988d151941735'],['Dining and Drinking > Restaurant > Mexican Restaurant > Taco Restaurant'],b'\x00\x00\x00\x00\x01\xc0ZNR\x9a\xab\x06\xc1@4\xa8\xd2\x1b\x05K~',"{'xmin': -105.22379175855441, 'ymin': 20.659455956261347, 'xmax': -105.22379175855441, 'ymax': 20.659455956261347}",dining and drinking > restaurant > mexican restaurant > taco restaurant,1
4eb186be77c89bf55f78b0e4,Almuerzos Y Comidas El Edificio,21.124602942146385,-101.67939812052579,,León,Guanajuato,,,,,MX,2011-11-02,2023-12-20,,477 295 0833,,,,,,['4bf58dd8d48988d151941735'],['Dining and Drinking > Restaurant > Mexican Restaurant > Taco Restaurant'],"b""\x00\x00\x00\x00\x01\xc0Yk{BA'\xd1@5\x1f\xe5\xfay\x81\r""","{'xmin': -101.67939812052579, 'ymin': 21.124602942146385, 'xmax': -101.67939812052579, 'ymax': 21.124602942146385}",dining and drinking > restaurant > mexican restaurant > taco restaurant,1
50874e72e4b05e0a93d2d3a1,Tacos La Cabaña,20.732649,-100.76051,,,,,,,,MX,2012-10-24,2021-08-12,,,,,,,,['4bf58dd8d48988d151941735'],['Dining and Drinking > Restaurant > Mexican Restaurant > Taco Restaurant'],"b'\x00\x00\x00\x00\x01\xc0Y0\xac2""\x91\xfb@4\xbb\x8e\xe2\x86ru'","{'xmin': -100.76051, 'ymin': 20.732649, 'xmax': -100.76051, 'ymax': 20.732649}",dining and drinking > restaurant > mexican restaurant > taco restaurant,1
5c5272748194fc002cd60ba7,La Patrona,20.717173,-105.20548,,Ixtapa,Jalisco,48280,,,,MX,2019-01-31,2021-03-11,,,,,,,,['4bf58dd8d48988d151941735'],['Dining and Drinking > Restaurant > Mexican Restaurant > Taco Restaurant'],b'\x00\x00\x00\x00\x01\xc0ZM&\x95\x95\xfe\xda@4\xb7\x98\xa6T\x92\xff',"{'xmin': -105.20548, 'ymin': 20.717173, 'xmax': -105.20548, 'ymax': 20.717173}",dining and drinking > restaurant > mexican restaurant > taco restaurant,1
17dbcbbf3c0f4bce9b293993,Cocina Economica Tachito,19.659264,-101.18077,Lirio 307,Morelia,Michoacán,58160,,,,MX,2013-09-20,2023-12-06,,452 528 3712,,,,,,['4bf58dd8d48988d151941735'],['Dining and Drinking > Restaurant > Mexican Restaurant > Taco Restaurant'],b'\x00\x00\x00\x00\x01\xc0YK\x91\xbcU\x86D@3\xa8\xc5\x86\x87n\x1e',"{'xmin': -101.18077, 'ymin': 19.659264, 'xmax': -101.18077, 'ymax': 19.659264}",dining and drinking > restaurant > mexican restaurant > taco restaurant,1
549dca16498ebcdda7247bb6,tacos M,20.620962,-103.348484,,,,,,,,MX,2014-12-26,2021-08-12,,,,,,,,['4bf58dd8d48988d151941735'],['Dining and Drinking > Restaurant > Mexican Restaurant > Taco Restaurant'],b'\x00\x00\x00\x00\x01\xc0Y\xd6M\x8f\xd5\xcby@4\x9e\xf7]\x9a\x0f\n',"{'xmin': -103.348484, 'ymin': 20.620962, 'xmax': -103.348484, 'ymax': 20.620962}",dining and drinking > restaurant > mexican restaurant > taco restaurant,1
53b21a9e498e13cc8b1d3ca5,tacos el flaco,21.5078,-104.89648,,,,,,,,MX,2014-07-01,2021-08-14,,,,,,,,['4bf58dd8d48988d151941735'],['Dining and Drinking > Restaurant > Mexican Restaurant > Taco Restaurant'],b'\x00\x00\x00\x00\x01\xc0Z9_\xed\xa6a(@5\x81\xff.H\xe8\xa7',"{'xmin': -104.89648, 'ymin': 21.5078, 'xmax': -104.89648, 'ymax': 21.5078}",dining and drinking > restaurant > mexican restaurant > taco restaurant,1
5dd8a03e19f6a9000835db9b,Carnitas Don Juan Ma,22.125433,-101.030961,,San Luis Potosí,S.L.P.,,,,,MX,2019-11-23,2020-11-30,,,,,,,,['4bf58dd8d48988d151941735'],['Dining and Drinking > Restaurant > Mexican Restaurant > Taco Restaurant'],b'\x00\x00\x00\x00\x01\xc0YA\xfbC\xd8\x9c\xe5@6 \x1c`\x88\xd6\xd4',"{'xmin': -101.030961, 'ymin': 22.125433, 'xmax': -101.030961, 'ymax': 22.125433}",dining and drinking > restaurant > mexican restaurant > taco restaurant,1
527f000311d26df89dbed834,Tacos el Gordo,20.195053100585938,-104.04331970214844,,,,,,,,MX,2013-11-10,2021-08-11,,,,,,,,['4bf58dd8d48988d151941735'],['Dining and Drinking > Restaurant > Mexican Restaurant > Taco Restaurant'],b'\x00\x00\x00\x00\x01\xc0Z\x02\xc5\xc0\x00\x00\x00@41\xef\x00\x00\x00\x00',"{'xmin': -104.04331970214844, 'ymin': 20.195053100585938, 'xmax': -104.04331970214844, 'ymax': 20.195053100585938}",dining and drinking > restaurant > mexican restaurant > taco restaurant,1
58a86fb2fd27166ea4b09190,Tacos LOS VERA,20.746141,-103.429126,Av. Federalistas 2114,Zapopan,Jalisco,,,,,MX,2017-02-18,2020-11-22,,,,,,,,['4bf58dd8d48988d151941735'],['Dining and Drinking > Restaurant > Mexican Restaurant > Taco Restaurant'],b'\x00\x00\x00\x00\x01\xc0Y\xdbv\xcc\xe5\xf7@@4\xbf\x03\x18\xb94j',"{'xmin': -103.429126, 'ymin': 20.746141, 'xmax': -103.429126, 'ymax': 20.746141}",dining and drinking > restaurant > mexican restaurant > taco restaurant,1
65f51d8475e93b0ab567b705,Taqueria El Sinaloense,20.75081,-105.326557,,Bucerias,Nay.,63732,,,,MX,2024-03-16,2024-03-16,,,,,,,,['4bf58dd8d48988d151941735'],['Dining and Drinking > Restaurant > Mexican Restaurant > Taco Restaurant'],b'\x00\x00\x00\x00\x01\xc0ZT\xe6OT\xd1\xe9@4\xc05\x15\x8b\x82\x80',"{'xmin': -105.326557, 'ymin': 20.75081, 'xmax': -105.326557, 'ymax': 20.75081}",dining and drinking > restaurant > mexican restaurant > taco restaurant,1
50da43cee4b0bc5a70fbb181,Azaderos Grill,20.62544,-103.38292,Av Patria 2457,Guadalajara,Jalisco,44980,,,,MX,2012-12-26,2020-11-23,,,,,,,,['4bf58dd8d48988d151941735'],['Dining and Drinking > Restaurant > Mexican Restaurant > Taco Restaurant'],b'\x00\x00\x00\x00\x01\xc0Y\xd8\x81\xc2\xe3>\xff@4\xa0\x1c\xd5\xf9\x9c9',"{'xmin': -103.38292, 'ymin': 20.62544, 'xmax': -103.38292, 'ymax': 20.62544}",dining and drinking > restaurant > mexican restaurant > taco restaurant,1
585207b7040d5354011dcc31,Taquería Gaitán,19.330775,-103.603578,,,,,,,,MX,2016-12-15,2021-08-11,,,,,,,,['4bf58dd8d48988d151941735'],['Dining and Drinking > Restaurant > Mexican Restaurant > Taco Restaurant'],b'\x00\x00\x00\x00\x01\xc0Y\xe6\xa1\x05\x9e\xa5r@3T\xad\xab\x9fU\x9b',"{'xmin': -103.603578, 'ymin': 19.330775, 'xmax': -103.603578, 'ymax': 19.330775}",dining and drinking > restaurant > mexican restaurant > taco restaurant,1
5681f216498e355eb06a7649,Tacos Poncho,20.526314760144068,-100.84232750666817,Segundo Anillo Poniente  #423,Celaya,guanajuato,38020,,,,MX,2015-12-29,2020-11-23,,,,,,,,['4bf58dd8d48988d151941735'],['Dining and Drinking > Restaurant > Mexican Restaurant > Taco Restaurant'],b'\x00\x00\x00\x00\x01\xc0Y5\xe8\xb1\xa1jN@4\x86\xbc\x90j8\x8a',"{'xmin': -100.84232750666817, 'ymin': 20.526314760144068, 'xmax': -100.84232750666817, 'ymax': 20.526314760144068}",dining and drinking > restaurant > mexican restaurant > taco restaurant,1
4efaaf7ce5fa4f286e46213b,Tacos El yaqui,22.167906136293077,-100.94325438780902,,,,,,,,MX,2011-12-28,2020-11-25,,,,,,,,['4bf58dd8d48988d151941735'],['Dining and Drinking > Restaurant > Mexican Restaurant > Taco Restaurant'],b'\x00\x00\x00\x00\x01\xc0Y<^G\xa6\xdc\xb0@6*\xfb\xe5\x84-.',"{'xmin': -100.94325438780902, 'ymin': 22.167906136293077, 'xmax': -100.94325438780902, 'ymax': 22.167906136293077}",dining and drinking > restaurant > mexican restaurant > taco restaurant,1
56e78f10498ef2d8e41b7956,Tacos Mario,20.208695,-101.134905,,,,,,,,MX,2016-03-15,2021-08-16,,,,,,,,['4bf58dd8d48988d151941735'],['Dining and Drinking > Restaurant > Mexican Restaurant > Taco Restaurant'],b'\x00\x00\x00\x00\x01\xc0YH\xa2H\x94\xc4H@45m\t\x17\xd6\xb6',"{'xmin': -101.134905, 'ymin': 20.208695, 'xmax': -101.134905, 'ymax': 20.208695}",dining and drinking > restaurant > mexican restaurant > taco restaurant,1
5644b31d498e33cafe885238,tacos rigo,20.394059765593965,-101.1832078195148,,,,,,,,MX,2015-11-12,2021-08-17,,,,,,,,['4bf58dd8d48988d151941735'],['Dining and Drinking > Restaurant > Mexican Restaurant > Taco Restaurant'],b'\x00\x00\x00\x00\x01\xc0YK\xb9\xadJL\x01@4d\xe1\x19\xcd\xe5@',"{'xmin': -101.1832078195148, 'ymin': 20.394059765593965, 'xmax': -101.1832078195148, 'ymax': 20.394059765593965}",dining and drinking > restaurant > mexican restaurant > taco restaurant,1
51ccf9e1498e94f69bbf43d3,Taquería El Che,19.8021,-104.2166,,El Grullo,Jalisco,48740,,,,MX,2013-06-28,2020-11-22,,,,,,,,['4bf58dd8d48988d151941735'],['Dining and Drinking > Restaurant > Mexican Restaurant > Taco Restaurant'],b'\x00\x00\x00\x00\x01\xc0Z\r\xdc\xc6?\x14\x12@3\xcdVl\xf4\x1f!',"{'xmin': -104.2166, 'ymin': 19.8021, 'xmax': -104.2166, 'ymax': 19.8021}",dining and drinking > restaurant > mexican restaurant > taco restaurant,1
503ad322e4b0ebdead070efa,Tacos El Poblano #1,30.7247,-115.9901,Av. Benito Juarez,Col. Vicente Guerrero,B.C.,,,,,MX,2012-08-27,2020-11-25,,,,,,,,['4bf58dd8d48988d151941735'],['Dining and Drinking > Restaurant > Mexican Restaurant > Taco Restaurant'],b'\x00\x00\x00\x00\x01\xc0\\\xff]\xccc\xf1A@>\xb9\x85\xf0oiD',"{'xmin': -115.9901, 'ymin': 30.7247, 'xmax': -115.9901, 'ymax': 30.7247}",dining and drinking > restaurant > mexican restaurant > taco restaurant,1
5753aecc498ef77714827d08,"Taqueria ""El Corral""",21.534379,-104.872591,,,,,,,,MX,2016-06-05,2023-12-20,,311 799 6742,,,,,,['4bf58dd8d48988d151941735'],['Dining and Drinking > Restaurant > Mexican Restaurant > Taco Restaurant'],"b'\x00\x00\x00\x00\x01\xc0Z7\xd8\x87\xeb\xf2,@5\x88\xcd\x0f\xe8\xabP'","{'xmin': -104.872591, 'ymin': 21.534379, 'xmax': -104.872591, 'ymax': 21.534379}",dining and drinking > restaurant > mexican restaurant > taco restaurant,1
5765e77b498e991e33ca7121,Taco Plaza,20.671553,-103.345276,,Guadalajara,,,,,,MX,2016-06-19,2021-08-15,,,,,,,,['4bf58dd8d48988d151941735'],['Dining and Drinking > Restaurant > Mexican Restaurant > Taco Restaurant'],b'\x00\x00\x00\x00\x01\xc0Y\xd6\x19\x00\x82\x05\xff@4\xab\xea\xe5\xbc\x87\xdb',"{'xmin': -103.345276, 'ymin': 20.671553, 'xmax': -103.345276, 'ymax': 20.671553}",dining and drinking > restaurant > mexican restaurant > taco restaurant,1
5604af77498e53449fe25941,Costry Quesos Bugambilias,20.606598,-103.448368,,,,,,,,MX,2015-09-25,2021-08-14,2016-02-27,,,,,,,['4bf58dd8d48988d151941735'],['Dining and Drinking > Restaurant > Mexican Restaurant > Taco Restaurant'],b'\x00\x00\x00\x00\x01\xc0Y\xdc\xb2\x0f\xb2$\xab@4\x9bJ\x01\xab\xd1\xab',"{'xmin': -103.448368, 'ymin': 20.606598, 'xmax': -103.448368, 'ymax': 20.606598}",dining and drinking > restaurant > mexican restaurant > taco restaurant,1
664eed55f64afd5b23828038,Tacos Los Bebis,21.353068,-101.932377,522 Calle Luis Moreno,Lagos de Moreno,Jal.,47400,,,,MX,2024-05-23,2024-05-23,,,,,,,,['4bf58dd8d48988d151941735'],['Dining and Drinking > Restaurant > Mexican Restaurant > Taco Restaurant'],b'\x00\x00\x00\x00\x01\xc0Y{\xac\x10\x94\xa2\xba@5Zb\xaa\x19C\x9e',"{'xmin': -101.932377, 'ymin': 21.353068, 'xmax': -101.932377, 'ymax': 21.353068}",dining and drinking > restaurant > mexican restaurant > taco restaurant,1
51d304b2498e3c9f255a32b3,Sopes Conafor,19.676760608078997,-101.22388644698883,,Morelia,Michoacán de Ocampo,,,,,MX,2013-07-02,2020-11-22,,,,,,,,['4bf58dd8d48988d151941735'],['Dining and Drinking > Restaurant > Mexican Restaurant > Taco Restaurant'],"b""\x00\x00\x00\x00\x01\xc0YNT'\xd1\xf5k@3\xad@.\xe6\xeb\x9d""","{'xmin': -101.22388644698883, 'ymin': 19.676760608078997, 'xmax': -101.22388644698883, 'ymax': 19.676760608078997}",dining and drinking > restaurant > mexican restaurant > taco restaurant,1
56d7af4a498e18b122461f0a,Tacos Bora de Juchipila,21.893368979623606,-102.31714171914841,Av Aguascalientes,Aguascalientes,Aguascalientes,,,,,MX,2016-03-03,2020-11-30,,,,,,,,['4bf58dd8d48988d151941735'],['Dining and Drinking > Restaurant > Mexican Restaurant > Taco Restaurant'],b'\x00\x00\x00\x00\x01\xc0Y\x94L\x0c\xc7\xfc#@5\xe4\xb3\xd4V\xbe\x89',"{'xmin': -102.31714171914841, 'ymin': 21.893368979623606, 'xmax': -102.31714171914841, 'ymax': 21.893368979623606}",dining and drinking > restaurant > mexican restaurant > taco restaurant,1
53c87cdb498ecb5ba349bad5,Enchiladas de Yuriria,20.214456395293336,-101.12874154911297,,"Yuriria, GTO",,,,,,MX,2014-07-18,2020-11-24,,,,,,,,['4bf58dd8d48988d151941735'],['Dining and Drinking > Restaurant > Mexican Restaurant > Taco Restaurant'],b'\x00\x00\x00\x00\x01\xc0YH=M1\xc4\xe7@46\xe6\x9dD3\xf3',"{'xmin': -101.12874154911297, 'ymin': 20.214456395293336, 'xmax': -101.12874154911297, 'ymax': 20.214456395293336}",dining and drinking > restaurant > mexican restaurant > taco restaurant,1
5d197524627d6b002355f5ce,Tacos After Grill,20.581717,-101.19527,Árbol grande 606,Salamanca,Guanajuato,36730,,,,MX,2019-07-01,2020-11-30,,464 109 8707,,,,,,['4bf58dd8d48988d151941735'],['Dining and Drinking > Restaurant > Mexican Restaurant > Taco Restaurant'],b'\x00\x00\x00\x00\x01\xc0YL\x7fM\xbd\xf8\xf4@4\x94\xebg\xc2\x86\xf9',"{'xmin': -101.19527, 'ymin': 20.581717, 'xmax': -101.19527, 'ymax': 20.581717}",dining and drinking > restaurant > mexican restaurant > taco restaurant,1
5177ef67e4b0a29f142a5c43,Tacos de canasta Leo,22.13193702697754,-100.98951721191406,,,,,,,,MX,2013-04-24,2021-08-11,,,,,,,,['4bf58dd8d48988d151941735'],['Dining and Drinking > Restaurant > Mexican Restaurant > Taco Restaurant'],b'\x00\x00\x00\x00\x01\xc0Y?T@\x00\x00\x00@6!\xc6\xa0\x00\x00\x00',"{'xmin': -100.98951721191406, 'ymin': 22.13193702697754, 'xmax': -100.98951721191406, 'ymax': 22.13193702697754}",dining and drinking > restaurant > mexican restaurant > taco restaurant,1
51a6e309498edcae966365ef,Taqueria Fabian,21.515607607684828,-104.88925014743633,Zacatecas S/N,Tepic,Nayarit,,,,,MX,2013-05-30,2020-11-25,,,,,,,,['4bf58dd8d48988d151941735'],['Dining and Drinking > Restaurant > Mexican Restaurant > Taco Restaurant'],b'\x00\x00\x00\x00\x01\xc0Z8\xe9ysL\xf1@5\x83\xfe\xdc4\x93<',"{'xmin': -104.88925014743633, 'ymin': 21.515607607684828, 'xmax': -104.88925014743633, 'ymax': 21.515607607684828}",dining and drinking > restaurant > mexican restaurant > taco restaurant,1
5fef58e2c8b6e97f6547430e,Tacos Pescado Gaby,20.869003,-105.43946,,Sayulita,Nayarit,63734,,,,MX,2021-01-01,2021-01-01,,,,,,,,['4bf58dd8d48988d151941735'],['Dining and Drinking > Restaurant > Mexican Restaurant > Taco Restaurant'],b'\x00\x00\x00\x00\x01\xc0Z\\ \x1c\xd5\xf9\x9c@4\xdev\xfb\t :',"{'xmin': -105.43946, 'ymin': 20.869003, 'xmax': -105.43946, 'ymax': 20.869003}",dining and drinking > restaurant > mexican restaurant > taco restaurant,1
5818c00bd67cffddec96a93c,Tacos El Kalimán,19.692992,-101.181134,,,,,,,,MX,2016-11-01,2021-08-11,,,,,,,,['4bf58dd8d48988d151941735'],['Dining and Drinking > Restaurant > Mexican Restaurant > Taco Restaurant'],b'\x00\x00\x00\x00\x01\xc0YK\x97\xb3\x0f\x8ce@3\xb1g\xecxc\xbf',"{'xmin': -101.181134, 'ymin': 19.692992, 'xmax': -101.181134, 'ymax': 19.692992}",dining and drinking > restaurant > mexican restaurant > taco restaurant,1
343ed957e3d4456a6802edd3,Cocina Economica Jhezi,20.570711,-101.192798,Emilio Carranza 403,Salamanca,Guanajuato,36700,,,,MX,2013-05-03,2023-12-06,,464 647 2953,,,,,,['4bf58dd8d48988d151941735'],['Dining and Drinking > Restaurant > Mexican Restaurant > Taco Restaurant'],b'\x00\x00\x00\x00\x01\xc0YLV\xcdl.\xfd@4\x92\x1a\x1d\xb8w\xab',"{'xmin': -101.192798, 'ymin': 20.570711, 'xmax': -101.192798, 'ymax': 20.570711}",dining and drinking > restaurant > mexican restaurant > taco restaurant,1
51244d2ce4b0a08034b9a8cf,Taqueria México Los Fresnos Pte.,21.483936,-104.894792,,Tepic,Nayarit,,,,,MX,2013-02-20,2020-11-26,,,,,,,,['4bf58dd8d48988d151941735'],['Dining and Drinking > Restaurant > Mexican Restaurant > Taco Restaurant'],b'\x00\x00\x00\x00\x01\xc0Z9DE\xaa.<@5{\xe3:\xcd[h',"{'xmin': -104.894792, 'ymin': 21.483936, 'xmax': -104.894792, 'ymax': 21.483936}",dining and drinking > restaurant > mexican restaurant > taco restaurant,1
51681b9ee4b09724f86776aa,Carnitas El Gringo,20.718287,-103.34578,,,,,,,,MX,2013-04-12,2021-08-16,,,,,,,,['4bf58dd8d48988d151941735'],['Dining and Drinking > Restaurant > Mexican Restaurant > Taco Restaurant'],b'\x00\x00\x00\x00\x01\xc0Y\xd6!Bo\xe7\x19@4\xb7\xe1\xa8&$W',"{'xmin': -103.34578, 'ymin': 20.718287, 'xmax': -103.34578, 'ymax': 20.718287}",dining and drinking > restaurant > mexican restaurant > taco restaurant,1
5bc78aaa16fa04002cfce678,Taco Mando,20.702094,-103.378511,Ottawa,Guadalajara,JAL,44630,,,,MX,2018-10-17,2021-08-19,,,,,,,,['4bf58dd8d48988d151941735'],['Dining and Drinking > Restaurant > Mexican Restaurant > Taco Restaurant'],b'\x00\x00\x00\x00\x01\xc0Y\xd89\x863\x8bH@4\xb3\xbcn\xb0\xb7\xc3',"{'xmin': -103.378511, 'ymin': 20.702094, 'xmax': -103.378511, 'ymax': 20.702094}",dining and drinking > restaurant > mexican restaurant > taco restaurant,1
5080c8a5e4b08785e7b40295,Tacos El Chino,21.908015,-102.302186,,,,,,,,MX,2012-10-19,2021-08-15,,,,,,,,['4bf58dd8d48988d151941735'],['Dining and Drinking > Restaurant > Mexican Restaurant > Taco Restaurant'],b'\x00\x00\x00\x00\x01\xc0Y\x93W\x03\xf2\xd3\xc8@5\xe8s\xab\xc9G\x06',"{'xmin': -102.302186, 'ymin': 21.908015, 'xmax': -102.302186, 'ymax': 21.908015}",dining and drinking > restaurant > mexican restaurant > taco restaurant,1
531d3bc7498e84796688e716,Taquería Ay Arandas,22.170806884765625,-100.97914123535156,16 De Septiembre,,,,,,,MX,2014-03-10,2021-08-14,,,,,,,,['4bf58dd8d48988d151941735'],['Dining and Drinking > Restaurant > Mexican Restaurant > Taco Restaurant'],b'\x00\x00\x00\x00\x01\xc0Y>\xaa@\x00\x00\x00@6+\xba\x00\x00\x00\x00',"{'xmin': -100.97914123535156, 'ymin': 22.170806884765625, 'xmax': -100.97914123535156, 'ymax': 22.170806884765625}",dining and drinking > restaurant > mexican restaurant > taco restaurant,1
59d2fe30d69ed066689f0f7d,La Costanera,20.691080370922176,-103.39784934976205,,Guadalajara,JAL,44670,,,,MX,2017-10-03,2021-08-12,,,,,,,,['4bf58dd8d48988d151941735'],['Dining and Drinking > Restaurant > Mexican Restaurant > Taco Restaurant'],b'\x00\x00\x00\x00\x01\xc0Y\xd9v]\x1e}\xa0@4\xb0\xea\xa4\xa8\x04\xaf',"{'xmin': -103.39784934976205, 'ymin': 20.691080370922176, 'xmax': -103.39784934976205, 'ymax': 20.691080370922176}",dining and drinking > restaurant > mexican restaurant > taco restaurant,1
5a0fb5c6cf72a0416c22e24b,Al Barrio,20.663011,-105.227806,,Puerto Vallarta,JAL,48315,,,,MX,2017-11-18,2020-11-30,,,,,,,,['4bf58dd8d48988d151941735'],['Dining and Drinking > Restaurant > Mexican Restaurant > Taco Restaurant'],b'\x00\x00\x00\x00\x01\xc0ZN\x94_\x9d\xf5I@4\xa9\xbb\x16\xc1\xe3e',"{'xmin': -105.227806, 'ymin': 20.663011, 'xmax': -105.227806, 'ymax': 20.663011}",dining and drinking > restaurant > mexican restaurant > taco restaurant,1
51cf17b7498ea57ff065bbd1,Birrieria El Gatito,19.690689,-101.200514,,,,,,,,MX,2013-06-29,2021-08-12,,,,,,,,['4bf58dd8d48988d151941735'],['Dining and Drinking > Restaurant > Mexican Restaurant > Taco Restaurant'],b'\x00\x00\x00\x00\x01\xc0YL\xd58\xac\x18\xf8@3\xb0\xd0\xfe\x8a\xb4\xfa',"{'xmin': -101.200514, 'ymin': 19.690689, 'xmax': -101.200514, 'ymax': 19.690689}",dining and drinking > restaurant > mexican restaurant > taco restaurant,1
5151147ae4b0cb9ae322a0c6,El pinocho,22.132806,-101.022579,,,,,,,,MX,2013-03-26,2021-08-17,,,,,,,,['4bf58dd8d48988d151941735'],['Dining and Drinking > Restaurant > Mexican Restaurant > Taco Restaurant'],b'\x00\x00\x00\x00\x01\xc0YAq\xef0\xa4\xe3@6!\xff\x92\xf2\xb6k',"{'xmin': -101.022579, 'ymin': 22.132806, 'xmax': -101.022579, 'ymax': 22.132806}",dining and drinking > restaurant > mexican restaurant > taco restaurant,1
54186e11498e10d47c87a219,Tacos Esquivel,19.68629211598182,-101.18124045278158,,,,,,,,MX,2014-09-16,2021-08-14,,,,,,,,['4bf58dd8d48988d151941735'],['Dining and Drinking > Restaurant > Mexican Restaurant > Taco Restaurant'],b'\x00\x00\x00\x00\x01\xc0YK\x99q\x8eZ/@3\xaf\xb0\xd7\x11\xa5\x02',"{'xmin': -101.18124045278158, 'ymin': 19.68629211598182, 'xmax': -101.18124045278158, 'ymax': 19.68629211598182}",dining and drinking > restaurant > mexican restaurant > taco restaurant,1
56d5148b498e30f574d242bf,Tacos La Vía,22.16904,-101.008095,Hernán Cortés esq. obsidiana,San Luis Potosí,San Luis Potosí,78150,,,,MX,2016-03-01,2020-11-24,,,,,,,,['4bf58dd8d48988d151941735'],['Dining and Drinking > Restaurant > Mexican Restaurant > Taco Restaurant'],b'\x00\x00\x00\x00\x01\xc0Y@\x84\xa0\xe4\x10\xb6@6+F4\x97\xb7A',"{'xmin': -101.008095, 'ymin': 22.16904, 'xmax': -101.008095, 'ymax': 22.16904}",dining and drinking > restaurant > mexican restaurant > taco restaurant,1
565b1728498eb48212b064af,gordas del gallo,20.676849,-103.390894,,Guadalajara,Jalisco,,,,,MX,2015-11-29,2021-08-17,,,,,,,,['4bf58dd8d48988d151941735'],['Dining and Drinking > Restaurant > Mexican Restaurant > Taco Restaurant'],b'\x00\x00\x00\x00\x01\xc0Y\xd9\x04hD\x8c\xf8@4\xadE\xf9\xdfT\x8f',"{'xmin': -103.390894, 'ymin': 20.676849, 'xmax': -103.390894, 'ymax': 20.676849}",dining and drinking > restaurant > mexican restaurant > taco restaurant,1
5a4ffec189e49030474bb98b,Los Vampiritos,20.68693,-103.41073,,Zapopan,Jalisco,45128,,,,MX,2018-01-05,2020-11-25,2020-01-30,,,,,,,['4bf58dd8d48988d151941735'],['Dining and Drinking > Restaurant > Mexican Restaurant > Taco Restaurant'],b'\x00\x00\x00\x00\x01\xc0Y\xdaIf{_\x1c@4\xaf\xda\xa4\xfc\xa4+',"{'xmin': -103.41073, 'ymin': 20.68693, 'xmax': -103.41073, 'ymax': 20.68693}",dining and drinking > restaurant > mexican restaurant > taco restaurant,1
5d2a5a9e79ad5e0023d9497a,Tacos De José Mamuel El De Allá Arriba,20.095572,-101.51557,,Puruándiro,Michoacán,58500,,,,MX,2019-07-13,2020-11-25,,,,,,,,['4bf58dd8d48988d151941735'],['Dining and Drinking > Restaurant > Mexican Restaurant > Taco Restaurant'],b'\x00\x00\x00\x00\x01\xc0Y`\xff\x19P3\x1e@4\x18wh\x16i\xcf',"{'xmin': -101.51557, 'ymin': 20.095572, 'xmax': -101.51557, 'ymax': 20.095572}",dining and drinking > restaurant > mexican restaurant > taco restaurant,1
4ff72894e4b04619c750cd22,Tacos Miranda,20.730036,-103.440229,,,,,,,,MX,2012-07-06,2021-08-13,,,,,,,,['4bf58dd8d48988d151941735'],['Dining and Drinking > Restaurant > Mexican Restaurant > Taco Restaurant'],"b'\x00\x00\x00\x00\x01\xc0Y\xdc,\xb6Ap\r@4\xba\xe3\xa3\xa8\xe7\x14'","{'xmin': -103.440229, 'ymin': 20.730036, 'xmax': -103.440229, 'ymax': 20.730036}",dining and drinking > restaurant > mexican restaurant > taco restaurant,1
5951795f491be724fce73ebf,"Wicho ""Tortas Ahogadas""",20.652481,-103.399608,Rinconada De Los Ahuehuetes,Zapopan,JAL,45055,,,,MX,2017-06-26,2020-11-23,,,,,,,,['4bf58dd8d48988d151941735'],['Dining and Drinking > Restaurant > Mexican Restaurant > Taco Restaurant'],b'\x00\x00\x00\x00\x01\xc0Y\xd9\x93-n\xce\x14@4\xa7\x08\xfe\xacB\xea',"{'xmin': -103.399608, 'ymin': 20.652481, 'xmax': -103.399608, 'ymax': 20.652481}",dining and drinking > restaurant > mexican restaurant > taco restaurant,1
308ee6ca37b64ef21f522121,Cenaduria la Esquina,20.60668,-103.376775,8 de Julio 197,Guadalajara,Jalisco,45530,,,,MX,2013-05-31,2023-12-06,,33 1125 9066,,ziuatl@hotmail.com,,,,['4bf58dd8d48988d151941735'],['Dining and Drinking > Restaurant > Mexican Restaurant > Taco Restaurant'],b'\x00\x00\x00\x00\x01\xc0Y\xd8\x1d\x14\xe3\xbc\xd3@4\x9bOag#%',"{'xmin': -103.376775, 'ymin': 20.60668, 'xmax': -103.376775, 'ymax': 20.60668}",dining and drinking > restaurant > mexican restaurant > taco restaurant,1
51467bd1e4b0ec7330e16d5f,El Comalteco,19.322021484375,-103.76336669921875,,,,,,,,MX,2013-03-18,2021-08-10,,,,,,,,['4bf58dd8d48988d151941735'],['Dining and Drinking > Restaurant > Mexican Restaurant > Taco Restaurant'],b'\x00\x00\x00\x00\x01\xc0Y\xf0\xdb\x00\x00\x00\x00@3Rp\x00\x00\x00\x00',"{'xmin': -103.76336669921875, 'ymin': 19.322021484375, 'xmax': -103.76336669921875, 'ymax': 19.322021484375}",dining and drinking > restaurant > mexican restaurant > taco restaurant,1
626363bc36b8a0175cdf8ac4,Taquería Encarnación,21.516808,-102.24101,Calle San Juan #188,Encarnación de Díaz,Jalisco,47270,,,,MX,2022-04-23,2022-04-23,,475 103 0483,,,,,,['4bf58dd8d48988d151941735'],['Dining and Drinking > Restaurant > Mexican Restaurant > Taco Restaurant'],b'\x00\x00\x00\x00\x01\xc0Y\x8fl\xb55\x00\x93@5\x84M\x87rO\xa9',"{'xmin': -102.24101, 'ymin': 21.516808, 'xmax': -102.24101, 'ymax': 21.516808}",dining and drinking > restaurant > mexican restaurant > taco restaurant,1
50aa4b1de4b0d7e301cda61c,Tacos miguel,20.73070051449213,-103.34354253757213,,,,,,,,MX,2012-11-19,2021-08-13,,,,,,,,['4bf58dd8d48988d151941735'],['Dining and Drinking > Restaurant > Mexican Restaurant > Taco Restaurant'],b'\x00\x00\x00\x00\x01\xc0Y\xd5\xfc\x99\xd6\xea\x0f@4\xbb\x0f0\\\xea\x01',"{'xmin': -103.34354253757213, 'ymin': 20.73070051449213, 'xmax': -103.34354253757213, 'ymax': 20.73070051449213}",dining and drinking > restaurant > mexican restaurant > taco restaurant,1
4d5038dd7ee1a35d09858334,Doña Esperanza,21.143227392928996,-101.65833965958453,Fernando de Magallanes 106,Leon de los Aldama,Guanajuato,37230,,,,MX,2011-02-07,2020-11-17,,527762539,,,,,,['4bf58dd8d48988d151941735'],['Dining and Drinking > Restaurant > Mexican Restaurant > Taco Restaurant'],"b'\x00\x00\x00\x00\x01\xc0Yj""<\xaa\xe4\xd2@5$\xaa\x8c\xe8\x85y'","{'xmin': -101.65833965958453, 'ymin': 21.143227392928996, 'xmax': -101.65833965958453, 'ymax': 21.143227392928996}",dining and drinking > restaurant > mexican restaurant > taco restaurant,1
547a0114498e21f8cc0fb4e3,Restaurante Huetamo,19.678475492486896,-101.23350948235036,,,,,,,,MX,2014-11-29,2021-08-17,,,,,,,,['4bf58dd8d48988d151941735'],['Dining and Drinking > Restaurant > Mexican Restaurant > Taco Restaurant'],b'\x00\x00\x00\x00\x01\xc0YN\xf1\xd1\xc1\x80\x0b@3\xad\xb0\x91\xe3^d',"{'xmin': -101.23350948235036, 'ymin': 19.678475492486896, 'xmax': -101.23350948235036, 'ymax': 19.678475492486896}",dining and drinking > restaurant > mexican restaurant > taco restaurant,1
55d9ea33498e2c299c46aed8,"Carnitas ""El Güero""",20.516951234475332,-100.81253096005057,Tianguis De Los Lunes,Celaya,GTO,,,,,MX,2015-08-23,2020-11-30,,,,,,,,['4bf58dd8d48988d151941735'],['Dining and Drinking > Restaurant > Mexican Restaurant > Taco Restaurant'],b'\x00\x00\x00\x00\x01\xc0Y4\x00\x81\xdb\x19\xe6@4\x84V\xea\x85\xb2\xc9',"{'xmin': -100.81253096005057, 'ymin': 20.516951234475332, 'xmax': -100.81253096005057, 'ymax': 20.516951234475332}",dining and drinking > restaurant > mexican restaurant > taco restaurant,1
4e715b6952b16b249159aa6b,Tacos Karla,19.6858836065032,-101.18461205447545,2a de Naraxan,Morelia,Michoacán,58070,,,,MX,2011-09-15,2020-11-24,,,,,,,,['4bf58dd8d48988d151941735'],['Dining and Drinking > Restaurant > Mexican Restaurant > Taco Restaurant'],b'\x00\x00\x00\x00\x01\xc0YK\xd0\xaf\x14\x1a\xd8@3\xaf\x96\x11j\xcb5',"{'xmin': -101.18461205447545, 'ymin': 19.6858836065032, 'xmax': -101.18461205447545, 'ymax': 19.6858836065032}",dining and drinking > restaurant > mexican restaurant > taco restaurant,1
53c9df26498ec00d4355e573,"Taqueria  ""Fierros""",21.981241936105928,-103.59335521275672,,,,,,,,MX,2014-07-19,2021-08-14,,,,,,,,['4bf58dd8d48988d151941735'],['Dining and Drinking > Restaurant > Mexican Restaurant > Taco Restaurant'],b'\x00\x00\x00\x00\x01\xc0Y\xe5\xf9\x88$l\xe1@5\xfb2\xab\xe9\t\xe7',"{'xmin': -103.59335521275672, 'ymin': 21.981241936105928, 'xmax': -103.59335521275672, 'ymax': 21.981241936105928}",dining and drinking > restaurant > mexican restaurant > taco restaurant,1
5529e27a498e8fc37712701e,Tacos Los Conejos,20.909210955597516,-100.7609176274304,Col. Malanquin,San Miguel De Allende,Guanajuato,,,,,MX,2015-04-12,2020-11-22,,,,,,,,['4bf58dd8d48988d151941735'],['Dining and Drinking > Restaurant > Mexican Restaurant > Taco Restaurant'],b'\x00\x00\x00\x00\x01\xc0Y0\xb2\xdf\xd90\xdd@4\xe8\xc2\x0c\x97t\xcc',"{'xmin': -100.7609176274304, 'ymin': 20.909210955597516, 'xmax': -100.7609176274304, 'ymax': 20.909210955597516}",dining and drinking > restaurant > mexican restaurant > taco restaurant,1
55bec23c498e4949061ab4fa,Las Brazas,22.149493703397837,-100.9999979879348,Carranza,,San Luis Potosí,,,,,MX,2015-08-03,2024-01-02,,444 811 6559,http://www.lasbrazas.com,,,,,['4bf58dd8d48988d151941735'],['Dining and Drinking > Restaurant > Mexican Restaurant > Taco Restaurant'],"b""\x00\x00\x00\x00\x01\xc0Y?\xff\xf7\x8f\x8f\xbb@6&E8'\r8""","{'xmin': -100.9999979879348, 'ymin': 22.149493703397837, 'xmax': -100.9999979879348, 'ymax': 22.149493703397837}",dining and drinking > restaurant > mexican restaurant > taco restaurant,1
4c81b6f9d8086dcb7b277052,Taqueria El Campestre,20.681113869935967,-101.36092481263891,Lazaro Cardenas 640,Irapuato,GTO,,,,,MX,2010-09-04,2020-11-21,,,,,,,,['4bf58dd8d48988d151941735'],['Dining and Drinking > Restaurant > Mexican Restaurant > Taco Restaurant'],b'\x00\x00\x00\x00\x01\xc0YW\x19db\xa6W@4\xae]z\x84:\x1b',"{'xmin': -101.36092481263891, 'ymin': 20.681113869935967, 'xmax': -101.36092481263891, 'ymax': 20.681113869935967}",dining and drinking > restaurant > mexican restaurant > taco restaurant,1
5235069b11d2adcd8ec5128c,Tacos Don Mario,20.681503962789925,-103.32874267485835,Jarauta,Guadalajara,,44360,,,,MX,2013-09-15,2021-08-11,,,,,,,,['4bf58dd8d48988d151941735'],['Dining and Drinking > Restaurant > Mexican Restaurant > Taco Restaurant'],b'\x00\x00\x00\x00\x01\xc0Y\xd5\n\x1e\xb7T<@4\xaew\x0b0F\xf2',"{'xmin': -103.32874267485835, 'ymin': 20.681503962789925, 'xmax': -103.32874267485835, 'ymax': 20.681503962789925}",dining and drinking > restaurant > mexican restaurant > taco restaurant,1
5274768d11d2b1d2ceb3839e,Tacos El Potrillo,21.922162,-102.280056,Av. Adoratrices,Aguascalientes,Aguascalientes,,,,,MX,2013-11-02,2020-11-24,,,,,,,,['4bf58dd8d48988d151941735'],['Dining and Drinking > Restaurant > Mexican Restaurant > Taco Restaurant'],"b'\x00\x00\x00\x00\x01\xc0Y\x91\xecp\x00C\x1c@5\xec\x12\xcf\x0f\x9d,'","{'xmin': -102.280056, 'ymin': 21.922162, 'xmax': -102.280056, 'ymax': 21.922162}",dining and drinking > restaurant > mexican restaurant > taco restaurant,1
50846151e4b0f71a279c5600,"""El Güero"" Tacos De Cecina, Chorizo Y Adobada.",19.682471,-101.178765,UCOCA,,,,,,,MX,2012-10-21,2021-08-12,,,,,,,,['4bf58dd8d48988d151941735'],['Dining and Drinking > Restaurant > Mexican Restaurant > Taco Restaurant'],b'\x00\x00\x00\x00\x01\xc0YKp\xe2\xc1*\xd8@3\xae\xb6kaw\xea',"{'xmin': -101.178765, 'ymin': 19.682471, 'xmax': -101.178765, 'ymax': 19.682471}",dining and drinking > restaurant > mexican restaurant > taco restaurant,1
5a75087c1ffe971ebc5fdad7,Tacos de Barbacoa “Los Compadres”,20.673233,-103.302292,Industria 2506,Guadalajara,JAL,44740,,,,MX,2018-02-03,2021-08-13,,,,,,,,['4bf58dd8d48988d151941735' '4bf58dd8d48988d1cb941735'],"['Dining and Drinking > Restaurant > Mexican Restaurant > Taco Restaurant'
 'Dining and Drinking > Food Truck']",b'\x00\x00\x00\x00\x01\xc0Y\xd3X\xc0\x8bu\xea@4\xacX\xffu\x96\x85',"{'xmin': -103.302292, 'ymin': 20.673233, 'xmax': -103.302292, 'ymax': 20.673233}","dining and drinking > restaurant > mexican restaurant > taco restaurant, dining and drinking > food truck",1
5ac0438489e49056c25bf8b3,Tacos “Esquina De Obregon E Hidalgo”,20.568896,-101.195361,,Salamanca,GTO,36700,,,,MX,2018-04-01,2020-11-23,,,,,,,,['4bf58dd8d48988d1cb941735' '4bf58dd8d48988d151941735'],"['Dining and Drinking > Food Truck'
 'Dining and Drinking > Restaurant > Mexican Restaurant > Taco Restaurant']",b'\x00\x00\x00\x00\x01\xc0YL\x80\xcblz}@4\x91\xa3+\x12\xd3A',"{'xmin': -101.195361, 'ymin': 20.568896, 'xmax': -101.195361, 'ymax': 20.568896}","dining and drinking > food truck, dining and drinking > restaurant > mexican restaurant > taco restaurant",1
50041371e4b0eed3b8212df3,"Tacos de cabeza ""Baldo""",20.632100687399802,-105.22610012816696,Esq. Francisco Villa Y Berlín,,,,,,,MX,2012-07-16,2021-08-14,,,,,,,,['4bf58dd8d48988d151941735'],['Dining and Drinking > Restaurant > Mexican Restaurant > Taco Restaurant'],b'\x00\x00\x00\x00\x01\xc0ZNxl\xac\x06N@4\xa1\xd1Y\xc4)I',"{'xmin': -105.22610012816696, 'ymin': 20.632100687399802, 'xmax': -105.22610012816696, 'ymax': 20.632100687399802}",dining and drinking > restaurant > mexican restaurant > taco restaurant,1
521ae03c498e9a3df296f576,Antojitos Tequis,22.15096790293529,-100.99150552875037,Mariano Ávila,San Luis Potosí,San Luis Potosí,,,,,MX,2013-08-26,2020-11-23,,,,,,,,['4bf58dd8d48988d151941735'],['Dining and Drinking > Restaurant > Mexican Restaurant > Taco Restaurant'],b'\x00\x00\x00\x00\x01\xc0Y?t\xd3\x9a\xf2N@6&\xa5\xd5\x1d\xdaO',"{'xmin': -100.99150552875037, 'ymin': 22.15096790293529, 'xmax': -100.99150552875037, 'ymax': 22.15096790293529}",dining and drinking > restaurant > mexican restaurant > taco restaurant,1
54e26d22498e9700a8d0deac,Tacos El Trompo,20.519678770387703,-100.81483962273384,Boulevard Adolfo López Mateos Pte.,,,,,,,MX,2015-02-16,2021-11-27,,,,,,,,['4bf58dd8d48988d151941735'],['Dining and Drinking > Restaurant > Mexican Restaurant > Taco Restaurant'],b'\x00\x00\x00\x00\x01\xc0Y4&U\x16\xc8\x1e@4\x85\t\xaa\xfb=\x9d',"{'xmin': -100.81483962273384, 'ymin': 20.519678770387703, 'xmax': -100.81483962273384, 'ymax': 20.519678770387703}",dining and drinking > restaurant > mexican restaurant > taco restaurant,1
521591ac11d2cdd59204b1eb,El Braserio Del Pepon,19.775113803548066,-104.36452714225808,Abasolo,Autlan,Jalisco,48900,,,,MX,2013-08-22,2020-11-24,,,,,,,,['4bf58dd8d48988d151941735'],['Dining and Drinking > Restaurant > Mexican Restaurant > Taco Restaurant'],b'\x00\x00\x00\x00\x01\xc0Z\x17Ti\xa6\xa0.@3\xc6m\xdb\xb4\xea\xc8',"{'xmin': -104.36452714225808, 'ymin': 19.775113803548066, 'xmax': -104.36452714225808, 'ymax': 19.775113803548066}",dining and drinking > restaurant > mexican restaurant > taco restaurant,1
52c6f02011d2a3f5d28acd98,Gorditas Paulita,21.870447616999336,-102.28124705945946,,,,,,,,MX,2014-01-03,2021-08-13,,,,,,,,['4bf58dd8d48988d151941735'],['Dining and Drinking > Restaurant > Mexican Restaurant > Taco Restaurant'],b'\x00\x00\x00\x00\x01\xc0Y\x91\xff\xf3\xaa\x9e_@5\xde\xd5\xa7\xaf\xe4\xae',"{'xmin': -102.28124705945946, 'ymin': 21.870447616999336, 'xmax': -102.28124705945946, 'ymax': 21.870447616999336}",dining and drinking > restaurant > mexican restaurant > taco restaurant,1
5b5c8f86da2e00002cfe992e,Los Portales,20.664814,-103.431441,Rafael Sanzio 619,Zapopan,JAL,45037,,,,MX,2018-07-28,2020-11-24,,,,,,,,['4bf58dd8d48988d1c1941735' '4bf58dd8d48988d151941735'],"['Dining and Drinking > Restaurant > Mexican Restaurant'
 'Dining and Drinking > Restaurant > Mexican Restaurant > Taco Restaurant']",b'\x00\x00\x00\x00\x01\xc0Y\xdb\x9c\xba\xb6I\xd4@4\xaa1@\x13\xecF',"{'xmin': -103.431441, 'ymin': 20.664814, 'xmax': -103.431441, 'ymax': 20.664814}","dining and drinking > restaurant > mexican restaurant, dining and drinking > restaurant > mexican restaurant > taco restaurant",1
4e4e89dfd22daf51d2688394,Tortas Y Tacos El Brother,20.658068938035672,-103.33880513818575,,Guadalajara,Jalisco,,,,,MX,2011-08-19,2021-08-14,,,,,,,,['4bf58dd8d48988d151941735'],['Dining and Drinking > Restaurant > Mexican Restaurant > Taco Restaurant'],b'\x00\x00\x00\x00\x01\xc0Y\xd5\xae\xfb\xbf\x0e_@4\xa8w4\xb7`m',"{'xmin': -103.33880513818575, 'ymin': 20.658068938035672, 'xmax': -103.33880513818575, 'ymax': 20.658068938035672}",dining and drinking > restaurant > mexican restaurant > taco restaurant,1
4fa435dbe4b00c584366d4db,Birria Silverio,21.130852427529117,-101.6911046713887,,,,,,,,MX,2012-05-04,2021-08-14,,,,,,,,['4bf58dd8d48988d151941735'],['Dining and Drinking > Restaurant > Mexican Restaurant > Taco Restaurant'],b'\x00\x00\x00\x00\x01\xc0Yl;\x0f\x16n\x8c@5!\x7f\x8bp\xd6\xfb',"{'xmin': -101.6911046713887, 'ymin': 21.130852427529117, 'xmax': -101.6911046713887, 'ymax': 21.130852427529117}",dining and drinking > restaurant > mexican restaurant > taco restaurant,1
5348adba498ed3301af25123,Mc. Clovia Antojitos Mexicanos,20.48609982299231,-100.9619548290323,,,,,,,,MX,2014-04-12,2021-08-12,,,,,,,,['4bf58dd8d48988d151941735'],['Dining and Drinking > Restaurant > Mexican Restaurant > Taco Restaurant'],b'\x00\x00\x00\x00\x01\xc0Y=\x90\xaa\xfc\xbb\x12@4|q\t\xbaW\xe6',"{'xmin': -100.9619548290323, 'ymin': 20.48609982299231, 'xmax': -100.9619548290323, 'ymax': 20.48609982299231}",dining and drinking > restaurant > mexican restaurant > taco restaurant,1
50a67dc5e4b00084f290ea61,Barbacoa El Chino,20.522776198246625,-100.81854792690164,Int. Mercado 5 De Febrero,Celaya,Gto,,,,,MX,2012-11-16,2020-11-25,,,,,,,,"['4bf58dd8d48988d151941735' '4bf58dd8d48988d10e941735'
 '4bf58dd8d48988d1d3941735']","['Dining and Drinking > Restaurant > Mexican Restaurant > Taco Restaurant'
 'Dining and Drinking > Restaurant > Greek Restaurant'
 'Dining and Drinking > Restaurant > Vegan and Vegetarian Restaurant']",b'\x00\x00\x00\x00\x01\xc0Y4c\x16\xd8\x10\x13@4\x85\xd4\xa92\x98\xb2',"{'xmin': -100.81854792690164, 'ymin': 20.522776198246625, 'xmax': -100.81854792690164, 'ymax': 20.522776198246625}","dining and drinking > restaurant > mexican restaurant > taco restaurant, dining and drinking > restaurant > greek restaurant, dining and drinking > restaurant > vegan and vegetarian restaurant",1
5541acd6498e7afe9316b8d0,"Tacos ""Ke kaliente""",19.091392,-104.299733,,,,,,,,MX,2015-04-30,2021-08-13,,,,,,,,['4bf58dd8d48988d151941735'],['Dining and Drinking > Restaurant > Mexican Restaurant > Taco Restaurant'],"b'\x00\x00\x00\x00\x01\xc0Z\x13.\xd3R""\x0c@3\x17ewS\x1d\xb4'","{'xmin': -104.299733, 'ymin': 19.091392, 'xmax': -104.299733, 'ymax': 19.091392}",dining and drinking > restaurant > mexican restaurant > taco restaurant,1
518d644a498ee0e3781633c9,Tortas Ahogadas Las Famosas,20.663498670140257,-103.43116786796875,,,,,,,,MX,2013-05-10,2024-01-03,,55 3685 5079,http://www.tortasahogadaslasfamosas.com,,,,,['4bf58dd8d48988d1c1941735' '4bf58dd8d48988d151941735'],"['Dining and Drinking > Restaurant > Mexican Restaurant'
 'Dining and Drinking > Restaurant > Mexican Restaurant > Taco Restaurant']",b'\x00\x00\x00\x00\x01\xc0Y\xdb\x98A\x1d\x00\xc2@4\xa9\xdb\x0c\x811 ',"{'xmin': -103.43116786796875, 'ymin': 20.663498670140257, 'xmax': -103.43116786796875, 'ymax': 20.663498670140257}","dining and drinking > restaurant > mexican restaurant, dining and drinking > restaurant > mexican restaurant > taco restaurant",1
4f56ec42e4b0f52af63827a6,Tacos El Cisne,20.618955343612797,-105.23140835635647,,,,,,,,MX,2012-03-07,2021-08-13,,,,,,,,['4bf58dd8d48988d151941735'],['Dining and Drinking > Restaurant > Mexican Restaurant > Taco Restaurant'],b'\x00\x00\x00\x00\x01\xc0ZN\xcfd\xfe\xa4\x9e@4\x9es\xdb~\x80\\',"{'xmin': -105.23140835635647, 'ymin': 20.618955343612797, 'xmax': -105.23140835635647, 'ymax': 20.618955343612797}",dining and drinking > restaurant > mexican restaurant > taco restaurant,1
4e79e9eab9937f472d9c4ebf,El Buen Sazon,21.858303921224778,-102.31573455230384,Av De Los Maestros 262,Aguascalientes,Aguascalientes,,,,,MX,2011-09-21,2020-11-23,,,,,,,,['4bf58dd8d48988d151941735' '4bf58dd8d48988d1c1941735'],"['Dining and Drinking > Restaurant > Mexican Restaurant > Taco Restaurant'
 'Dining and Drinking > Restaurant > Mexican Restaurant']",b'\x00\x00\x00\x00\x01\xc0Y\x944\xfe\xb2\x17.@5\xdb\xb9\xceG\xb0a',"{'xmin': -102.31573455230384, 'ymin': 21.858303921224778, 'xmax': -102.31573455230384, 'ymax': 21.858303921224778}","dining and drinking > restaurant > mexican restaurant > taco restaurant, dining and drinking > restaurant > mexican restaurant",1
4fe5464fe4b0ec3d84c23404,Tacos Carlos,20.657697677612305,-103.37014770507812,Fresno,Guadalajara,,,,,,MX,2012-06-23,2021-08-17,,,,,,,,['4bf58dd8d48988d151941735'],['Dining and Drinking > Restaurant > Mexican Restaurant > Taco Restaurant'],b'\x00\x00\x00\x00\x01\xc0Y\xd7\xb0\x80\x00\x00\x00@4\xa8^\xe0\x00\x00\x00',"{'xmin': -103.37014770507812, 'ymin': 20.657697677612305, 'xmax': -103.37014770507812, 'ymax': 20.657697677612305}",dining and drinking > restaurant > mexican restaurant > taco restaurant,1
5042459ae4b0c996b30e8c4c,Tacos Nacho,20.520526,-100.811537,Mercado Morelos,Celaya,Guanajuato,,,,,MX,2012-09-01,2020-11-21,,,,,,,,['4bf58dd8d48988d151941735'],['Dining and Drinking > Restaurant > Mexican Restaurant > Taco Restaurant'],"b'\x00\x00\x00\x00\x01\xc0Y3\xf08\xe2\x9f\x9d@4\x85A1""\xb7\xbb'","{'xmin': -100.811537, 'ymin': 20.520526, 'xmax': -100.811537, 'ymax': 20.520526}",dining and drinking > restaurant > mexican restaurant > taco restaurant,1
6170505b5321fd3a7ec85d18,Tacos El Güero,21.869831,-102.323863,,Aguascalientes,AGS,20218,,,,MX,2021-10-20,2021-10-20,,,,,,,,['4bf58dd8d48988d151941735' '4bf58dd8d48988d1c1941735'],"['Dining and Drinking > Restaurant > Mexican Restaurant > Taco Restaurant'
 'Dining and Drinking > Restaurant > Mexican Restaurant']",b'\x00\x00\x00\x00\x01\xc0Y\x94\xba+\xe0X\x9b@5\xde\xad>\x92\x0c\x07',"{'xmin': -102.323863, 'ymin': 21.869831, 'xmax': -102.323863, 'ymax': 21.869831}","dining and drinking > restaurant > mexican restaurant > taco restaurant, dining and drinking > restaurant > mexican restaurant",1
522b58b611d2094ebf27feec,Tacos Kikos,21.51964626229083,-104.92540941084617,,,,,,,,MX,2013-09-07,2021-08-12,,,,,,,,['4bf58dd8d48988d151941735'],['Dining and Drinking > Restaurant > Mexican Restaurant > Taco Restaurant'],b'\x00\x00\x00\x00\x01\xc0Z;9\xe8d\xbf\xad@5\x85\x07\x89\x96\x07\x1b',"{'xmin': -104.92540941084617, 'ymin': 21.51964626229083, 'xmax': -104.92540941084617, 'ymax': 21.51964626229083}",dining and drinking > restaurant > mexican restaurant > taco restaurant,1
4e4b34fa18a808fd10fb44ef,El Novillero,22.1487339030346,-100.9833175178292,Mariano Jimenez,San Luis Potosí,San Luis Potosí,,,,,MX,2011-08-17,2023-12-21,,444 812 0878,,,,,,"['4bf58dd8d48988d1cc941735' '4bf58dd8d48988d151941735'
 '4bf58dd8d48988d1c1941735']","['Dining and Drinking > Restaurant > Steakhouse'
 'Dining and Drinking > Restaurant > Mexican Restaurant > Taco Restaurant'
 'Dining and Drinking > Restaurant > Mexican Restaurant']",b'\x00\x00\x00\x00\x01\xc0Y>\xee\xac\x99*C@6&\x13l\xd1W\r',"{'xmin': -100.9833175178292, 'ymin': 22.1487339030346, 'xmax': -100.9833175178292, 'ymax': 22.1487339030346}","dining and drinking > restaurant > steakhouse, dining and drinking > restaurant > mexican restaurant > taco restaurant, dining and drinking > restaurant > mexican restaurant",1
6608cba25fc4c63dcf0429ac,Taquería Gil,21.98423,-103.59368,,Villa Guerrero,Jalisco,46100,,,,MX,2024-03-31,2024-03-31,,,,,,,,['4bf58dd8d48988d151941735'],['Dining and Drinking > Restaurant > Mexican Restaurant > Taco Restaurant'],b'\x00\x00\x00\x00\x01\xc0Y\xe5\xfe\xdaf\x12\x84@5\xfb\xf6\x7fM\xbd\xf9',"{'xmin': -103.59368, 'ymin': 21.98423, 'xmax': -103.59368, 'ymax': 21.98423}",dining and drinking > restaurant > mexican restaurant > taco restaurant,1
5f7689c9a711e459cf2cb02a,"Taqueria ""El Humadero""",20.339127,-102.03122,José Ma. Cázares # 444,La Piedad de Cavadas,Michoacán,59384,,,,MX,2020-10-02,2020-11-22,,,,,,,,['4bf58dd8d48988d151941735'],['Dining and Drinking > Restaurant > Mexican Restaurant > Taco Restaurant'],b'\x00\x00\x00\x00\x01\xc0Y\x81\xff\x82+\xbe\xcb@4V\xd1\x06\xee0\xcb',"{'xmin': -102.03122, 'ymin': 20.339127, 'xmax': -102.03122, 'ymax': 20.339127}",dining and drinking > restaurant > mexican restaurant > taco restaurant,1
53095fed11d2601b7f930670,Tacos Braulio,20.713090546430717,-100.7587038997218,Calle Francisco Javier Mina,Comonfort,Guanajuato,38200,,,,MX,2014-02-23,2020-11-23,,,,,,,,['4bf58dd8d48988d151941735'],['Dining and Drinking > Restaurant > Mexican Restaurant > Taco Restaurant'],b'\x00\x00\x00\x00\x01\xc0Y0\x8e\x9a\xcd)\xc7@4\xb6\x8d\x1a \x01\xb7',"{'xmin': -100.7587038997218, 'ymin': 20.713090546430717, 'xmax': -100.7587038997218, 'ymax': 20.713090546430717}",dining and drinking > restaurant > mexican restaurant > taco restaurant,1
54797217498e910f8be65854,Taqueria Roskin,20.629377,-103.455343,,,,,,,,MX,2014-11-29,2022-02-02,,,,,,,,['4bf58dd8d48988d151941735'],['Dining and Drinking > Restaurant > Mexican Restaurant > Taco Restaurant'],b'\x00\x00\x00\x00\x01\xc0Y\xdd$V\xf7]\x9a@4\xa1\x1e\xd9\xdf\xda\xc7',"{'xmin': -103.455343, 'ymin': 20.629377, 'xmax': -103.455343, 'ymax': 20.629377}",dining and drinking > restaurant > mexican restaurant > taco restaurant,1
52e122f6498e12ae60a6d494,Tacos de Ollita,20.668726976570248,-103.3276221936092,Silverio García No. 33,Guadalajara,Jalisco,,,,,MX,2014-01-23,2021-08-12,,,,,,,,['4bf58dd8d48988d151941735'],['Dining and Drinking > Restaurant > Mexican Restaurant > Taco Restaurant'],b'\x00\x00\x00\x00\x01\xc0Y\xd4\xf7\xc3\x13\xbf\xb3@4\xab1\xb0\xeeRz',"{'xmin': -103.3276221936092, 'ymin': 20.668726976570248, 'xmax': -103.3276221936092, 'ymax': 20.668726976570248}",dining and drinking > restaurant > mexican restaurant > taco restaurant,1
601cb5f52731866fe2da9e82,El Rincon De Guasave,20.66392,-103.414678,Av. guadalupe 5309B Col. Ciudad De Los Niños,Zapopan,JAL,45040,,,,MX,2021-02-05,2023-09-13,,,,,,,,['4bf58dd8d48988d151941735'],['Dining and Drinking > Restaurant > Mexican Restaurant > Taco Restaurant'],b'\x00\x00\x00\x00\x01\xc0Y\xda\x8a\x15\x98\x17\xb9@4\xa9\xf6\xa9?)\x0b',"{'xmin': -103.414678, 'ymin': 20.66392, 'xmax': -103.414678, 'ymax': 20.66392}",dining and drinking > restaurant > mexican restaurant > taco restaurant,1
522c911311d2d99932875587,"Gorditas, Tacos Y Quesdillas",20.66762359727109,-101.3458952806854,,,,,,,,MX,2013-09-08,2021-08-15,,,,,,,,['4bf58dd8d48988d151941735'],['Dining and Drinking > Restaurant > Mexican Restaurant > Taco Restaurant'],b'\x00\x00\x00\x00\x01\xc0YV#%\xf5\x98\x9c@4\xaa\xe9aLQ4',"{'xmin': -101.3458952806854, 'ymin': 20.66762359727109, 'xmax': -101.3458952806854, 'ymax': 20.66762359727109}",dining and drinking > restaurant > mexican restaurant > taco restaurant,1
529b8963498ec74160568e09,Carnitas Felipe,22.139571,-100.931752,,,,,,,,MX,2013-12-01,2021-08-15,,,,,,,,['4bf58dd8d48988d151941735'],['Dining and Drinking > Restaurant > Mexican Restaurant > Taco Restaurant'],b'\x00\x00\x00\x00\x01\xc0Y;\xa1\xd3#\xfe\xe3@6#\xba\xec\xd0xS',"{'xmin': -100.931752, 'ymin': 22.139571, 'xmax': -100.931752, 'ymax': 22.139571}",dining and drinking > restaurant > mexican restaurant > taco restaurant,1
4c8cccefd5049c74d2544a6a,"Tacos de Barbacoa ""Ericka""",19.118910396157887,-104.35379385456508,"Blv. Miguel De La Madrid, Santiago",Manzanillo,COL,,,,,MX,2010-09-12,2020-11-22,,314 334 2297,,,,,,['4bf58dd8d48988d151941735' '4bf58dd8d48988d1c1941735'],"['Dining and Drinking > Restaurant > Mexican Restaurant > Taco Restaurant'
 'Dining and Drinking > Restaurant > Mexican Restaurant']",b'\x00\x00\x00\x00\x01\xc0Z\x16\xa4\x8e\xfa\xb8\x80@3\x1ep\xe9f\xa7\x0c',"{'xmin': -104.35379385456508, 'ymin': 19.118910396157887, 'xmax': -104.35379385456508, 'ymax': 19.118910396157887}","dining and drinking > restaurant > mexican restaurant > taco restaurant, dining and drinking > restaurant > mexican restaurant",1
60e0ec64a0bad77d795977f6,Taqueria El Chancho,21.081264137993593,-101.65050879120827,Avenida San Pedro 1719,León,Guanajuato,37536,,,,MX,2021-07-03,2021-07-03,,477 735 3691,,,,,,['4bf58dd8d48988d151941735'],['Dining and Drinking > Restaurant > Mexican Restaurant > Taco Restaurant'],b'\x00\x00\x00\x00\x01\xc0Yi\xa1\xef\xa0\x00\x00@5\x14\xcd\xb9\xff\x05&',"{'xmin': -101.65050879120827, 'ymin': 21.081264137993593, 'xmax': -101.65050879120827, 'ymax': 21.081264137993593}",dining and drinking > restaurant > mexican restaurant > taco restaurant,1
56db96b0cd108330742a7eb8,Los Compitas,20.701853,-103.338668,,Guadalajara,,,,,,MX,2016-03-06,2021-08-16,,,,,,,,['4bf58dd8d48988d151941735'],['Dining and Drinking > Restaurant > Mexican Restaurant > Taco Restaurant'],b'\x00\x00\x00\x00\x01\xc0Y\xd5\xac\xbc\x8c\x0c\xe9@4\xb3\xac\xa3a\x99x',"{'xmin': -103.338668, 'ymin': 20.701853, 'xmax': -103.338668, 'ymax': 20.701853}",dining and drinking > restaurant > mexican restaurant > taco restaurant,1
51bde721498eecb526e9eedb,"Tortas Ahogadas ""La cruda""",20.655028,-103.442715,,,,,,,,MX,2013-06-16,2021-08-14,,,,,,,,['4bf58dd8d48988d151941735'],['Dining and Drinking > Restaurant > Mexican Restaurant > Taco Restaurant'],b'\x00\x00\x00\x00\x01\xc0Y\xdcUqK\x9c\xb7@4\xa7\xaf\xea=\xf6\xdc',"{'xmin': -103.442715, 'ymin': 20.655028, 'xmax': -103.442715, 'ymax': 20.655028}",dining and drinking > restaurant > mexican restaurant > taco restaurant,1
53d6fa72498ea7f430496093,tacos el fenix,20.519512841734464,-100.81216179964974,Boulevar Adolfo Lopez Mateos,Celaya,guanajuato,,,,,MX,2014-07-29,2020-11-22,,,,,,,,"['4bf58dd8d48988d151941735' '4bf58dd8d48988d18c941735'
 '4bf58dd8d48988d11b951735']","['Dining and Drinking > Restaurant > Mexican Restaurant > Taco Restaurant'
 'Arts and Entertainment > Stadium > Baseball Stadium'
 'Retail > Flower Store']",b'\x00\x00\x00\x00\x01\xc0Y3\xfau|#\x98@4\x84\xfe\xcb)\x19\xff',"{'xmin': -100.81216179964974, 'ymin': 20.519512841734464, 'xmax': -100.81216179964974, 'ymax': 20.519512841734464}","dining and drinking > restaurant > mexican restaurant > taco restaurant, arts and entertainment > stadium > baseball stadium, retail > flower store",1
4e1c4f7714954075097f0739,Tacos El Koala - San Pedrito,19.0586826,-104.30327068333334,Teniente Azueta 25,Manzanillo,Colima,,,,,MX,2011-07-12,2020-11-23,,,,,,,,['4bf58dd8d48988d151941735'],['Dining and Drinking > Restaurant > Mexican Restaurant > Taco Restaurant'],b'\x00\x00\x00\x00\x01\xc0Z\x13h\xc9p\xb0%@3\x0f\x05\xd2\xa7\xd8!',"{'xmin': -104.30327068333334, 'ymin': 19.0586826, 'xmax': -104.30327068333334, 'ymax': 19.0586826}",dining and drinking > restaurant > mexican restaurant > taco restaurant,1
50b37077e4b0f78dc0e9ebce,"Tacos ""Don Roger""",20.58306665954793,-103.44298959349214,,,,,,,,MX,2012-11-26,2020-11-30,,,,,,,,['4bf58dd8d48988d151941735'],['Dining and Drinking > Restaurant > Mexican Restaurant > Taco Restaurant'],b'\x00\x00\x00\x00\x01\xc0Y\xdcY\xf1\x06!\x18@4\x95C\xdbJ%v',"{'xmin': -103.44298959349214, 'ymin': 20.58306665954793, 'xmax': -103.44298959349214, 'ymax': 20.58306665954793}",dining and drinking > restaurant > mexican restaurant > taco restaurant,1
557b7512498ee12e62108f0c,Quezadillas La Olímpica,21.10093879699707,-101.61233520507812,,,,,,,,MX,2015-06-13,2021-08-11,,,,,,,,['4bf58dd8d48988d151941735'],['Dining and Drinking > Restaurant > Mexican Restaurant > Taco Restaurant'],b'\x00\x00\x00\x00\x01\xc0Yg0\x80\x00\x00\x00@5\x19\xd7 \x00\x00\x00',"{'xmin': -101.61233520507812, 'ymin': 21.10093879699707, 'xmax': -101.61233520507812, 'ymax': 21.10093879699707}",dining and drinking > restaurant > mexican restaurant > taco restaurant,1
4e7b52d1c65b0e473b654ec1,Tacos Del San Luis 400,22.140483806685214,-100.98300477058862,,San Luis Potosí,San Luis Potosí,,,,,MX,2011-09-22,2020-11-30,,,,,,,,['4bf58dd8d48988d151941735'],['Dining and Drinking > Restaurant > Mexican Restaurant > Taco Restaurant'],b'\x00\x00\x00\x00\x01\xc0Y>\xe9\x8c\xd7_^@6#\xf6\xbf+T\xa1',"{'xmin': -100.98300477058862, 'ymin': 22.140483806685214, 'xmax': -100.98300477058862, 'ymax': 22.140483806685214}",dining and drinking > restaurant > mexican restaurant > taco restaurant,1
4ef626ca5c5c68fa0a64e40a,Antojitos Lalo,20.66542015725102,-103.3287613087441,Silverio García # 137,Guadalajara,Jalisco,44400,,,,MX,2011-12-24,2021-08-12,,523 618 4940,,,,,,['4bf58dd8d48988d151941735'],['Dining and Drinking > Restaurant > Mexican Restaurant > Taco Restaurant'],b'\x00\x00\x00\x00\x01\xc0Y\xd5\nl\xdfO\xc0@4\xaaX\xf9\xb5~\x08',"{'xmin': -103.3287613087441, 'ymin': 20.66542015725102, 'xmax': -103.3287613087441, 'ymax': 20.66542015725102}",dining and drinking > restaurant > mexican restaurant > taco restaurant,1
643ebf2e794c32384222a571,Tacos Los Cuñaos,21.12438,-101.59623,,León,Guanajuato,37296,,,,MX,2023-04-18,2023-04-18,,,,,,,,['4bf58dd8d48988d151941735'],['Dining and Drinking > Restaurant > Mexican Restaurant > Taco Restaurant'],b'\x00\x00\x00\x00\x01\xc0Yf(\xa1\xdf\xb99@5\x1f\xd7^ F\xc7',"{'xmin': -101.59623, 'ymin': 21.12438, 'xmax': -101.59623, 'ymax': 21.12438}",dining and drinking > restaurant > mexican restaurant > taco restaurant,1
5345f64e498e21da47206dbe,Tacos de Muerte Lenta,21.35351993912678,-101.93122149285081,,,,,,,,MX,2014-04-10,2021-08-14,,,,,,,,['4bf58dd8d48988d151941735'],['Dining and Drinking > Restaurant > Mexican Restaurant > Taco Restaurant'],"b'\x00\x00\x00\x00\x01\xc0Y{\x99""\x08H\x19@5Z\x80Ha\x08\x8f'","{'xmin': -101.93122149285081, 'ymin': 21.35351993912678, 'xmax': -101.93122149285081, 'ymax': 21.35351993912678}",dining and drinking > restaurant > mexican restaurant > taco restaurant,1
5632629b498e0433cb370bbe,Canastopolis,19.69014777420869,-101.19186561833854,Morelos Sur,Morelia,Michoacán,,,,,MX,2015-10-29,2020-11-22,,,,,,,,['4bf58dd8d48988d151941735'],['Dining and Drinking > Restaurant > Mexican Restaurant > Taco Restaurant'],b'\x00\x00\x00\x00\x01\xc0YLG\x86\xba\xffj@3\xb0\xad\x86G\xa2.',"{'xmin': -101.19186561833854, 'ymin': 19.69014777420869, 'xmax': -101.19186561833854, 'ymax': 19.69014777420869}",dining and drinking > restaurant > mexican restaurant > taco restaurant,1
50cbf3cae4b000435079f154,Tacos Paco,20.634980367176343,-103.31620341253758,,,,,,,,MX,2012-12-15,2021-08-11,,,,,,,,['4bf58dd8d48988d151941735'],['Dining and Drinking > Restaurant > Mexican Restaurant > Taco Restaurant'],b'\x00\x00\x00\x00\x01\xc0Y\xd4<\xad<\xee\xe1@4\xa2\x8e\x12\xc6\x9f\xdd',"{'xmin': -103.31620341253758, 'ymin': 20.634980367176343, 'xmax': -103.31620341253758, 'ymax': 20.634980367176343}",dining and drinking > restaurant > mexican restaurant > taco restaurant,1
51f8a726498e728eeefa698b,Los Tlacuaches,20.684574,-103.429632,,,,,,,,MX,2013-07-31,2021-08-12,,,,,,,,['4bf58dd8d48988d151941735'],['Dining and Drinking > Restaurant > Mexican Restaurant > Taco Restaurant'],b'\x00\x00\x00\x00\x01\xc0Y\xdb\x7f\x177T*@4\xaf@=\xdd\xb1!',"{'xmin': -103.429632, 'ymin': 20.684574, 'xmax': -103.429632, 'ymax': 20.684574}",dining and drinking > restaurant > mexican restaurant > taco restaurant,1
528571a2498e76dc626e3f62,"Tacos ""Los Güeros"" De Real Del Bosque",20.75238023772104,-103.39039510029504,,,,,,,,MX,2013-11-15,2021-08-16,,,,,,,,['4bf58dd8d48988d151941735'],['Dining and Drinking > Restaurant > Mexican Restaurant > Taco Restaurant'],b'\x00\x00\x00\x00\x01\xc0Y\xd8\xfc;\xbb\x12K@4\xc0\x9b\xfd\xc3+(',"{'xmin': -103.39039510029504, 'ymin': 20.75238023772104, 'xmax': -103.39039510029504, 'ymax': 20.75238023772104}",dining and drinking > restaurant > mexican restaurant > taco restaurant,1
50ba4ee9e4b0b45a1b6f554e,Tacos Arturo,20.863783820244876,-103.24003135065477,,,,,,,,MX,2012-12-01,2021-08-14,,,,,,,,['4bf58dd8d48988d151941735'],['Dining and Drinking > Restaurant > Mexican Restaurant > Taco Restaurant'],b'\x00\x00\x00\x00\x01\xc0Y\xcf\\\xactD\xed@4\xdd \xef\xba\xc4\x04',"{'xmin': -103.24003135065477, 'ymin': 20.863783820244876, 'xmax': -103.24003135065477, 'ymax': 20.863783820244876}",dining and drinking > restaurant > mexican restaurant > taco restaurant,1
5c3a4c11e4c459002bbc2989,Tacos Y Parriladas “Mi Lupita”,21.113507,-101.655522,Feria De León,León,GTO,37500,,,,MX,2019-01-12,2020-11-23,,,,,,,,['4bf58dd8d48988d151941735'],['Dining and Drinking > Restaurant > Mexican Restaurant > Taco Restaurant'],b'\x00\x00\x00\x00\x01\xc0Yi\xf4\x12\x8b\xf3\xbf@5\x1d\x0e\xcbt\xdd\xf8',"{'xmin': -101.655522, 'ymin': 21.113507, 'xmax': -101.655522, 'ymax': 21.113507}",dining and drinking > restaurant > mexican restaurant > taco restaurant,1
63724c25aea9586607163ad5,El Papá De Los Arrieros Macro Plaza,20.645605,-105.217896,Av. Francisco Villa 1526,Puerto Vallarta,Jalisco,48328,,,,MX,2022-11-14,2023-09-13,,,,,,,,['4bf58dd8d48988d151941735'],['Dining and Drinking > Restaurant > Mexican Restaurant > Taco Restaurant'],"b'\x00\x00\x00\x00\x01\xc0ZM\xf2\x02\x10{x@4\xa5F^\x89""S'","{'xmin': -105.217896, 'ymin': 20.645605, 'xmax': -105.217896, 'ymax': 20.645605}",dining and drinking > restaurant > mexican restaurant > taco restaurant,1
59e3aa5917556242525d0d62,Tacos De Barbacoa Barbacho,20.663452,-103.401169,Av Tepeyac 655,Guadalajara,JAL,45040,,,,MX,2017-10-15,2021-08-11,,,,,,,,['4bf58dd8d48988d151941735'],['Dining and Drinking > Restaurant > Mexican Restaurant > Taco Restaurant'],b'\x00\x00\x00\x00\x01\xc0Y\xd9\xac\xc0\xbd\xca\xd1@4\xa9\xd7\xfd\x82w>',"{'xmin': -103.401169, 'ymin': 20.663452, 'xmax': -103.401169, 'ymax': 20.663452}",dining and drinking > restaurant > mexican restaurant > taco restaurant,1
5c8e795d61e53b002d5d28c2,Tacos De Barbacoa Patricio,20.637794,-103.253944,Juan de Dios Robledo 1418,Tonalá,Jalisco,45404,,,,MX,2019-03-17,2020-11-23,,,,,,,,['4bf58dd8d48988d151941735'],['Dining and Drinking > Restaurant > Mexican Restaurant > Taco Restaurant'],b'\x00\x00\x00\x00\x01\xc0Y\xd0@\x9eU\xc0\xfd@4\xa3Fw\xb3\x95\xc4',"{'xmin': -103.253944, 'ymin': 20.637794, 'xmax': -103.253944, 'ymax': 20.637794}",dining and drinking > restaurant > mexican restaurant > taco restaurant,1
507a22d7e4b00eb861a72848,Taqueria Salsas,20.096123792551644,-101.51699474396275,,,,,,,,MX,2012-10-14,2021-08-17,,,,,,,,['4bf58dd8d48988d151941735'],['Dining and Drinking > Restaurant > Mexican Restaurant > Taco Restaurant'],b'\x00\x00\x00\x00\x01\xc0Ya\x16q\x1fa\x88@4\x18\x9b\x91\xa1`v',"{'xmin': -101.51699474396275, 'ymin': 20.096123792551644, 'xmax': -101.51699474396275, 'ymax': 20.096123792551644}",dining and drinking > restaurant > mexican restaurant > taco restaurant,1
532a5df211d2652e7d6a9bed,la guelaguetza (Pedregal),20.547285079956055,-100.6946029663086,,,,,,,,MX,2014-03-20,2021-08-14,,,,,,,,['4bf58dd8d48988d151941735'],['Dining and Drinking > Restaurant > Mexican Restaurant > Taco Restaurant'],"b'\x00\x00\x00\x00\x01\xc0Y,t`\x00\x00\x00@4\x8c\x1a\xe0\x00\x00\x00'","{'xmin': -100.6946029663086, 'ymin': 20.547285079956055, 'xmax': -100.6946029663086, 'ymax': 20.547285079956055}",dining and drinking > restaurant > mexican restaurant > taco restaurant,1
4e445053a809d4ed1bbb0389,Rancho Viejo,19.88271,-103.59209,,Sayula,Jalisco,,,,,MX,2011-08-11,2023-12-20,,342 100 5521,,,,,,['4bf58dd8d48988d116941735' '4bf58dd8d48988d151941735'],"['Dining and Drinking > Bar'
 'Dining and Drinking > Restaurant > Mexican Restaurant > Taco Restaurant']","b""\x00\x00\x00\x00\x01\xc0Y\xe5\xe4\xcdt\x92y@3\xe1\xf9HU\xda'""","{'xmin': -103.59209, 'ymin': 19.88271, 'xmax': -103.59209, 'ymax': 19.88271}","dining and drinking > bar, dining and drinking > restaurant > mexican restaurant > taco restaurant",1
6090cf79cffd247443d3c361,Tacos Perros Sonorenses,20.572534,-103.454978,,Tlajomulco de Zúñiga,JAL,45640,,,,MX,2021-05-04,2021-05-04,,,,,,,,['4bf58dd8d48988d151941735'],['Dining and Drinking > Restaurant > Mexican Restaurant > Taco Restaurant'],b'\x00\x00\x00\x00\x01\xc0Y\xdd\x1e\\\x0b\x99\x91@4\x92\x91\x96\x95\xd9\x1b',"{'xmin': -103.454978, 'ymin': 20.572534, 'xmax': -103.454978, 'ymax': 20.572534}",dining and drinking > restaurant > mexican restaurant > taco restaurant,1
4dbb852d0437955ec01ae683,El Taco Con Papa la 56 y Obregón,20.666933890913185,-103.3155150660964,Irineo Paz (la 56),Guadalajara,JAL,44454,,,,MX,2011-04-30,2021-12-29,,,,,,,,['4bf58dd8d48988d151941735'],['Dining and Drinking > Restaurant > Mexican Restaurant > Taco Restaurant'],b'\x00\x00\x00\x00\x01\xc0Y\xd41f\x1a\x91\xe0@4\xaa\xbc-\xf2\x10\xf0',"{'xmin': -103.3155150660964, 'ymin': 20.666933890913185, 'xmax': -103.3155150660964, 'ymax': 20.666933890913185}",dining and drinking > restaurant > mexican restaurant > taco restaurant,1
568769f1498e109629aa1657,Supertacos Normis,21.51979377073895,-104.91876079443006,,,,,,,,MX,2016-01-02,2021-08-17,,,,,,,,['4bf58dd8d48988d151941735'],['Dining and Drinking > Restaurant > Mexican Restaurant > Taco Restaurant'],b'\x00\x00\x00\x00\x01\xc0Z:\xcc\xfa\x13;$@5\x85\x114]\xfd\x02',"{'xmin': -104.91876079443006, 'ymin': 21.51979377073895, 'xmax': -104.91876079443006, 'ymax': 21.51979377073895}",dining and drinking > restaurant > mexican restaurant > taco restaurant,1
4ec10091b8f7963bce3a4611,"Tacos ""El Guero""",21.11576553888782,-101.66443316755768,,,,,,,,MX,2011-11-14,2021-08-13,,,,,,,,['4bf58dd8d48988d151941735'],['Dining and Drinking > Restaurant > Mexican Restaurant > Taco Restaurant'],b'\x00\x00\x00\x00\x01\xc0Yj\x86\x12\xb1Bm@5\x1d\xa2\xcfs\x86\xea',"{'xmin': -101.66443316755768, 'ymin': 21.11576553888782, 'xmax': -101.66443316755768, 'ymax': 21.11576553888782}",dining and drinking > restaurant > mexican restaurant > taco restaurant,1
522bc2bd498e6c51848d9930,Tacos Toni's,20.018161,-100.727535,,,,,,,,MX,2013-09-08,2021-08-16,,,,,,,,['4bf58dd8d48988d151941735'],['Dining and Drinking > Restaurant > Mexican Restaurant > Taco Restaurant'],b'\x00\x00\x00\x00\x01\xc0Y.\x8f\xee\xf5\xec\x81@4\x04\xa63\x05\x10\n',"{'xmin': -100.727535, 'ymin': 20.018161, 'xmax': -100.727535, 'ymax': 20.018161}",dining and drinking > restaurant > mexican restaurant > taco restaurant,1
52f9aa1f11d2e3f0fd0aaada,"Tacos ""Doña Mary"" Comonfort",20.717825075434078,-100.76253114839444,Matamoros,Comonfort,Guanajuato,38200,,,,MX,2014-02-11,2020-11-24,,,,,,,,['4bf58dd8d48988d151941735'],['Dining and Drinking > Restaurant > Mexican Restaurant > Taco Restaurant'],"b'\x00\x00\x00\x00\x01\xc0Y0\xcdOr""E@4\xb7\xc3bW<\xf4'","{'xmin': -100.76253114839444, 'ymin': 20.717825075434078, 'xmax': -100.76253114839444, 'ymax': 20.717825075434078}",dining and drinking > restaurant > mexican restaurant > taco restaurant,1
521fdb3d11d2ea0fbdff9d35,Delitacos Madeleine,19.306193216315297,-99.06600424496838,,,,,,,,MX,2013-08-29,2021-08-17,,,,,,,,['4bf58dd8d48988d151941735'],['Dining and Drinking > Restaurant > Mexican Restaurant > Taco Restaurant'],b'\x00\x00\x00\x00\x01\xc0X\xc49i\xdebT@3Nb\xad\xbaT\xcd',"{'xmin': -99.06600424496838, 'ymin': 19.306193216315297, 'xmax': -99.06600424496838, 'ymax': 19.306193216315297}",dining and drinking > restaurant > mexican restaurant > taco restaurant,1
4f7bb0c8e4b066eb22fe1c73,Antojitos Juanita: Cocina Mexicana,19.267128,-99.640079,,,,,,,,MX,2012-04-04,2021-08-12,,,,,,,,['4bf58dd8d48988d151941735'],['Dining and Drinking > Restaurant > Mexican Restaurant > Taco Restaurant'],"b""\x00\x00\x00\x00\x01\xc0X\xe8\xf7\r\xe8\xf6\xcf@3Db\x80'\xd8\x8c""","{'xmin': -99.640079, 'ymin': 19.267128, 'xmax': -99.640079, 'ymax': 19.267128}",dining and drinking > restaurant > mexican restaurant > taco restaurant,1
652260798e8f76432e761f8d,Tacos Chahuites,17.078608,-96.714582,,Oaxaca,Oax.,68050,,,,MX,2023-10-08,2023-10-08,,,,,,,,['4bf58dd8d48988d151941735' '4bf58dd8d48988d1c1941735'],"['Dining and Drinking > Restaurant > Mexican Restaurant > Taco Restaurant'
 'Dining and Drinking > Restaurant > Mexican Restaurant']",b'\x00\x00\x00\x00\x01\xc0X-\xbb\xb6$\x13\xdb@1\x14\x1f\xa7e47',"{'xmin': -96.714582, 'ymin': 17.078608, 'xmax': -96.714582, 'ymax': 17.078608}","dining and drinking > restaurant > mexican restaurant > taco restaurant, dining and drinking > restaurant > mexican restaurant",1
5920a447d1a40208706957d9,Carnitas El Padrino,17.808683,-97.775431,Nuyoo #16,Huajuapan de León,OAX,69000,,,,MX,2017-05-20,2020-11-22,,,,,,,,['4bf58dd8d48988d151941735'],['Dining and Drinking > Restaurant > Mexican Restaurant > Taco Restaurant'],b'\x00\x00\x00\x00\x01\xc0Xq\xa0\xa9XS~@1\xcf\x05\xd9]\xd4\xc7',"{'xmin': -97.775431, 'ymin': 17.808683, 'xmax': -97.775431, 'ymax': 17.808683}",dining and drinking > restaurant > mexican restaurant > taco restaurant,1
5465753f498e742429440652,Taqueria Del Sol,17.267267,-97.677039,,,,,,,,MX,2014-11-14,2021-08-16,,,,,,,,['4bf58dd8d48988d151941735'],['Dining and Drinking > Restaurant > Mexican Restaurant > Taco Restaurant'],b'\x00\x00\x00\x00\x01\xc0XkT\x9bb\xc7u@1Dk\x9c0L\xcf',"{'xmin': -97.677039, 'ymin': 17.267267, 'xmax': -97.677039, 'ymax': 17.267267}",dining and drinking > restaurant > mexican restaurant > taco restaurant,1
4ebb2b44e5faf7ab653dcb35,Tacos Checo,19.261353328401793,-99.63245931232818,,,,,,,,MX,2011-11-10,2020-11-23,,,,,,,,['4bf58dd8d48988d151941735'],['Dining and Drinking > Restaurant > Mexican Restaurant > Taco Restaurant'],b'\x00\x00\x00\x00\x01\xc0X\xe8z6\x9f\xa0\x03@3B\xe8\r>/\xbb',"{'xmin': -99.63245931232818, 'ymin': 19.261353328401793, 'xmax': -99.63245931232818, 'ymax': 19.261353328401793}",dining and drinking > restaurant > mexican restaurant > taco restaurant,1
5542df24498eeb8650d3d3fe,Taqueria Los Reyna,19.316691,-99.085361,,,,,,,,MX,2015-05-01,2021-08-11,,,,,,,,['4bf58dd8d48988d151941735'],['Dining and Drinking > Restaurant > Mexican Restaurant > Taco Restaurant'],b'\x00\x00\x00\x00\x01\xc0X\xc5v\x8d\xfb\xd6\xa6@3Q\x12\xa9O\xf0\x02',"{'xmin': -99.085361, 'ymin': 19.316691, 'xmax': -99.085361, 'ymax': 19.316691}",dining and drinking > restaurant > mexican restaurant > taco restaurant,1
4f9522b7e4b0d0d98a2accda,TACOS DE BIRRIA RIKA,20.349998272754174,-102.76300691676505,,,,,,,,MX,2012-04-23,2021-08-13,,,,,,,,['4bf58dd8d48988d151941735'],['Dining and Drinking > Restaurant > Mexican Restaurant > Taco Restaurant'],"b'\x00\x00\x00\x00\x01\xc0Y\xb0\xd5\x1a\xf6\x88,@4Y\x99|\x9f""\xbb'","{'xmin': -102.76300691676505, 'ymin': 20.349998272754174, 'xmax': -102.76300691676505, 'ymax': 20.349998272754174}",dining and drinking > restaurant > mexican restaurant > taco restaurant,1
4fa1554de4b0b74f357679eb,El Taco Volador,16.18166243425555,-95.19658078655516,,,,,,,,MX,2012-05-02,2021-08-12,,,,,,,,['4bf58dd8d48988d151941735'],['Dining and Drinking > Restaurant > Mexican Restaurant > Taco Restaurant'],b'\x00\x00\x00\x00\x01\xc0W\xcc\x94\xc7\x94Q\xb0@0.\x81m\xe6\n\x12',"{'xmin': -95.19658078655516, 'ymin': 16.18166243425555, 'xmax': -95.19658078655516, 'ymax': 16.18166243425555}",dining and drinking > restaurant > mexican restaurant > taco restaurant,1
560244d6498e6ef726a59ca4,Las Alitas tacos & Alitas,19.319295032955782,-99.06620415765246,Calle gardenias #21,Iztapalapa,Distrito federal,09780,,,,MX,2015-09-23,2020-11-22,,,,,,,,['4bf58dd8d48988d151941735'],['Dining and Drinking > Restaurant > Mexican Restaurant > Taco Restaurant'],b'\x00\x00\x00\x00\x01\xc0X\xc4<\xb0\\\xfe\x80@3Q\xbdQ\xbcR\x01',"{'xmin': -99.06620415765246, 'ymin': 19.319295032955782, 'xmax': -99.06620415765246, 'ymax': 19.319295032955782}",dining and drinking > restaurant > mexican restaurant > taco restaurant,1
52c0a1c2498ea171c0b6e122,Los mexicanos,19.25286,-99.609415,,,,,,,,MX,2013-12-29,2021-08-11,,,,,,,,['4bf58dd8d48988d151941735'],['Dining and Drinking > Restaurant > Mexican Restaurant > Taco Restaurant'],b'\x00\x00\x00\x00\x01\xc0X\xe7\x00\xa7\xc5\xacG@3@\xbbn\xd6wp',"{'xmin': -99.609415, 'ymin': 19.25286, 'xmax': -99.609415, 'ymax': 19.25286}",dining and drinking > restaurant > mexican restaurant > taco restaurant,1
59c86fde3ba7676283e371f8,"Tacos De Suadero, Pastor, Etc",19.20322,-99.045705,Av Miguel Hidalgo,Ciudad de México,CDMX,12200,,,,MX,2017-09-25,2020-11-30,,,,,,,,['4bf58dd8d48988d151941735'],['Dining and Drinking > Restaurant > Mexican Restaurant > Taco Restaurant'],b'\x00\x00\x00\x00\x01\xc0X\xc2\xec\xd4\xaa\x10\xe0@34\x069\xd5\xe4\xa4',"{'xmin': -99.045705, 'ymin': 19.20322, 'xmax': -99.045705, 'ymax': 19.20322}",dining and drinking > restaurant > mexican restaurant > taco restaurant,1
59bb2ad10f013c7ac274f119,Tacos Don Pancho,19.639334,-102.494368,,Santa Clara de Valladares,MICH,59963,,,,MX,2017-09-15,2020-11-25,,,,,,,,['4bf58dd8d48988d151941735'],['Dining and Drinking > Restaurant > Mexican Restaurant > Taco Restaurant'],b'\x00\x00\x00\x00\x01\xc0Y\x9f\xa3\xb9\xae\x0c\x17@3\xa3\xabd\x9d8\x8b',"{'xmin': -102.494368, 'ymin': 19.639334, 'xmax': -102.494368, 'ymax': 19.639334}",dining and drinking > restaurant > mexican restaurant > taco restaurant,1
50674462e4b03ce13ae0f2c3,El Sultán,19.70221060762098,-103.46445649313902,,,,,,,,MX,2012-09-29,2021-08-14,2013-11-20,,,,,,,['4bf58dd8d48988d151941735'],['Dining and Drinking > Restaurant > Mexican Restaurant > Taco Restaurant'],b'\x00\x00\x00\x00\x01\xc0Y\xdd\xb9\xa7\xba\x1c\x9b@3\xb3\xc4\x13\n\xa2\xeb',"{'xmin': -103.46445649313902, 'ymin': 19.70221060762098, 'xmax': -103.46445649313902, 'ymax': 19.70221060762098}",dining and drinking > restaurant > mexican restaurant > taco restaurant,1
574311ff498e6e81b22430b5,Carnitas Manriquez,18.03789,-102.32754,Calle Zafiro,La Mira,Michoacán de Ocampo,60980,,,,MX,2016-05-23,2020-11-24,,,,,,,,['4bf58dd8d48988d151941735'],['Dining and Drinking > Restaurant > Mexican Restaurant > Taco Restaurant'],b'\x00\x00\x00\x00\x01\xc0Y\x94\xf6jU\x08p@2\t\xb3(\xb6\xd8o',"{'xmin': -102.32754, 'ymin': 18.03789, 'xmax': -102.32754, 'ymax': 18.03789}",dining and drinking > restaurant > mexican restaurant > taco restaurant,1
53b8431c498e28001d745ec4,Black Sheep,19.311516205235495,-99.11330261927483,,,,,,,,MX,2014-07-05,2021-08-12,,,,,,,,['4bf58dd8d48988d151941735'],['Dining and Drinking > Restaurant > Mexican Restaurant > Taco Restaurant'],b'\x00\x00\x00\x00\x01\xc0X\xc7@Y\xa1\x15\x8a@3O\xbf\x86\xa9\xa9\x15',"{'xmin': -99.11330261927483, 'ymin': 19.311516205235495, 'xmax': -99.11330261927483, 'ymax': 19.311516205235495}",dining and drinking > restaurant > mexican restaurant > taco restaurant,1
4c70b677b3ce224bf1ef74c6,Taco Salsa,19.27902490254607,-99.65437244979168,Av. Carranza #104,Toluca,,,,,,MX,2010-08-22,2020-11-23,,,,,,,,['4bf58dd8d48988d151941735'],['Dining and Drinking > Restaurant > Mexican Restaurant > Taco Restaurant'],b'\x00\x00\x00\x00\x01\xc0X\xe9\xe1<\xfb\xd0\x8e@3Gn-\x0f4x',"{'xmin': -99.65437244979168, 'ymin': 19.27902490254607, 'xmax': -99.65437244979168, 'ymax': 19.27902490254607}",dining and drinking > restaurant > mexican restaurant > taco restaurant,1
50e9c0eae4b06ad59cfe79b8,La Barbacha de los Domingos,19.31000700287154,-99.12996122218378,,,,,,,,MX,2013-01-06,2021-08-16,,,,,,,,['4bf58dd8d48988d151941735'],['Dining and Drinking > Restaurant > Mexican Restaurant > Taco Restaurant'],b'\x00\x00\x00\x00\x01\xc0X\xc8QH\xdf\xc1\xc3@3O\\\x9er\xdd?',"{'xmin': -99.12996122218378, 'ymin': 19.31000700287154, 'xmax': -99.12996122218378, 'ymax': 19.31000700287154}",dining and drinking > restaurant > mexican restaurant > taco restaurant,1
53571cd4498ede5874c137de,taqueria roman,15.867735862731934,-97.06941986083984,,,,,,,,MX,2014-04-23,2021-08-14,,,,,,,,['4bf58dd8d48988d151941735'],['Dining and Drinking > Restaurant > Mexican Restaurant > Taco Restaurant'],b'\x00\x00\x00\x00\x01\xc0XDq`\x00\x00\x00@/\xbcG\xe0\x00\x00\x00',"{'xmin': -97.06941986083984, 'ymin': 15.867735862731934, 'xmax': -97.06941986083984, 'ymax': 15.867735862731934}",dining and drinking > restaurant > mexican restaurant > taco restaurant,1
63fd67da3cb1351bfeadcfcd,Los Foquitos,15.772743,-96.135786,Blvd. Guelaguetza,La Crucecita,OAX,70987,,,,MX,2023-02-28,2023-02-28,,,,,,,,['4bf58dd8d48988d151941735'],['Dining and Drinking > Restaurant > Mexican Restaurant > Taco Restaurant'],b'\x00\x00\x00\x00\x01\xc0X\x08\xb0\xb7\xc3PL@/\x8b\xa4\xf8rm\x05',"{'xmin': -96.135786, 'ymin': 15.772743, 'xmax': -96.135786, 'ymax': 15.772743}",dining and drinking > restaurant > mexican restaurant > taco restaurant,1
560c9ddd498e21b7f5bf07c8,El Mejor Taco,18.851348,-97.062625,Calle 4 Oriente,Iztaczoquitlán,Veracruz,94460,,,,MX,2015-10-01,2020-11-23,,,,,,,,['4bf58dd8d48988d151941735'],['Dining and Drinking > Restaurant > Mexican Restaurant > Taco Restaurant'],b'\x00\x00\x00\x00\x01\xc0XD\x02\x0cI\xba^@2\xd9\xf1\xf1I\x83\xd8',"{'xmin': -97.062625, 'ymin': 18.851348, 'xmax': -97.062625, 'ymax': 18.851348}",dining and drinking > restaurant > mexican restaurant > taco restaurant,1
4e7e28a57ee6ec38253bc71c,Carnitas Tianguis De Periferico,19.28592416294562,-99.14903939722267,,Ciudad de México,Distrito Federal,,,,,MX,2011-09-24,2020-11-24,,,,,,,,['4bf58dd8d48988d151941735'],['Dining and Drinking > Restaurant > Mexican Restaurant > Taco Restaurant'],b'\x00\x00\x00\x00\x01\xc0X\xc9\x89\xdc\x8a8\xc3@3I2Sp\xfc\xd4',"{'xmin': -99.14903939722267, 'ymin': 19.28592416294562, 'xmax': -99.14903939722267, 'ymax': 19.28592416294562}",dining and drinking > restaurant > mexican restaurant > taco restaurant,1
4ee659cf8b81bab2853c909f,Taquitos de Cabeza y Tripa,15.0465220212936,-92.2155153751373,,Unión Roja,Chiapas,,,,,MX,2011-12-12,2020-11-22,,,,,,,,['4bf58dd8d48988d151941735'],['Dining and Drinking > Restaurant > Mexican Restaurant > Taco Restaurant'],b'\x00\x00\x00\x00\x01\xc0W\r\xcb\x00\xff\xff\xfe@.\x17\xd1\xbb\xff\xff\xe9',"{'xmin': -92.2155153751373, 'ymin': 15.0465220212936, 'xmax': -92.2155153751373, 'ymax': 15.0465220212936}",dining and drinking > restaurant > mexican restaurant > taco restaurant,1
560def4e498e24d065291239,Taqueria La Nopalera,19.214816734233185,-96.22693738988477,,,,,,,,MX,2015-10-02,2020-11-23,,,,,,,,['4bf58dd8d48988d151941735'],['Dining and Drinking > Restaurant > Mexican Restaurant > Taco Restaurant'],b'\x00\x00\x00\x00\x01\xc0X\x0e\x86$f\xf2\xdc@36\xfe:\xc0*A',"{'xmin': -96.22693738988477, 'ymin': 19.214816734233185, 'xmax': -96.22693738988477, 'ymax': 19.214816734233185}",dining and drinking > restaurant > mexican restaurant > taco restaurant,1
52609cff11d2f9f429d6d66c,"Supertacos ""el Lobo""",18.839036754230033,-97.12564569031454,,,,,,,,MX,2013-10-18,2021-08-10,,,,,,,,['4bf58dd8d48988d151941735'],['Dining and Drinking > Restaurant > Mexican Restaurant > Taco Restaurant'],b'\x00\x00\x00\x00\x01\xc0XH\n\x948\xb22@2\xd6\xcb\x1c\xdb\x8f[',"{'xmin': -97.12564569031454, 'ymin': 18.839036754230033, 'xmax': -97.12564569031454, 'ymax': 18.839036754230033}",dining and drinking > restaurant > mexican restaurant > taco restaurant,1
56cbe9d2cd106e0bcfecd381,El Menonita,19.335870460080027,-99.17330172558061,Eje 10 Sur,,Distrito Federal,04369,,,,MX,2016-02-23,2021-08-11,,,,,,,,['4bf58dd8d48988d151941735'],['Dining and Drinking > Restaurant > Mexican Restaurant > Taco Restaurant'],b'\x00\x00\x00\x00\x01\xc0X\xcb\x17`\x1e\xedb@3U\xfb\x9bA\xbcw',"{'xmin': -99.17330172558061, 'ymin': 19.335870460080027, 'xmax': -99.17330172558061, 'ymax': 19.335870460080027}",dining and drinking > restaurant > mexican restaurant > taco restaurant,1
4c97790df6c8ef3bc45389cf,Tacos de la López,17.5599549801289,-99.5104855298996,Este,Chilpancingo,Guerrero,,,,,MX,2010-09-20,2020-11-26,,,,,,,,['4bf58dd8d48988d151941735'],['Dining and Drinking > Restaurant > Mexican Restaurant > Taco Restaurant'],b'\x00\x00\x00\x00\x01\xc0X\xe0\xab\xcb\x80\x00\x00@1\x8fY5\xa6\xe2\xce',"{'xmin': -99.5104855298996, 'ymin': 17.5599549801289, 'xmax': -99.5104855298996, 'ymax': 17.5599549801289}",dining and drinking > restaurant > mexican restaurant > taco restaurant,1
5c13142946e1b6002ce8c9a1,Tacos Ricos,19.731842,-101.184296,Isaac Calderon,Morelia,Michoacán,,,,,MX,2018-12-14,2020-11-24,,,,,,,,['4bf58dd8d48988d151941735'],['Dining and Drinking > Restaurant > Mexican Restaurant > Taco Restaurant'],"b""\x00\x00\x00\x00\x01\xc0YK\xcb\x81s2'@3\xbbY\xffO\xd6\xd8""","{'xmin': -101.184296, 'ymin': 19.731842, 'xmax': -101.184296, 'ymax': 19.731842}",dining and drinking > restaurant > mexican restaurant > taco restaurant,1
549879e9498ecc21650d02c2,Facefood,18.848526000976562,-97.09191131591797,,,,,,,,MX,2014-12-22,2021-08-16,,,,,,,,['4bf58dd8d48988d151941735'],['Dining and Drinking > Restaurant > Mexican Restaurant > Taco Restaurant'],b'\x00\x00\x00\x00\x01\xc0XE\xe1\xe0\x00\x00\x00@2\xd99\x00\x00\x00\x00',"{'xmin': -97.09191131591797, 'ymin': 18.848526000976562, 'xmax': -97.09191131591797, 'ymax': 18.848526000976562}",dining and drinking > restaurant > mexican restaurant > taco restaurant,1
4ee284367ee50b21c690df02,Buen Día! (Tacos gourmet),17.05799230736352,-96.72412760821837,,,,,,,,MX,2011-12-09,2021-08-15,,,,,,,,['4bf58dd8d48988d151941735'],['Dining and Drinking > Restaurant > Mexican Restaurant > Taco Restaurant'],b'\x00\x00\x00\x00\x01\xc0X.X\x1bR\xdbn@1\x0e\xd8\x95w\x8b\xc0',"{'xmin': -96.72412760821837, 'ymin': 17.05799230736352, 'xmax': -96.72412760821837, 'ymax': 17.05799230736352}",dining and drinking > restaurant > mexican restaurant > taco restaurant,1
5796c1c4498e1df0ca0b760a,Tqueria La Flota (sucursal Borrego),18.087925,-96.14521,,,Oaxaca,68373,,,,MX,2016-07-26,2021-08-15,,,,,,,,['4bf58dd8d48988d151941735'],['Dining and Drinking > Restaurant > Mexican Restaurant > Taco Restaurant'],b'\x00\x00\x00\x00\x01\xc0X\tK\x1e\xe2CW@2\x16\x82@\xb7\x804',"{'xmin': -96.14521, 'ymin': 18.087925, 'xmax': -96.14521, 'ymax': 18.087925}",dining and drinking > restaurant > mexican restaurant > taco restaurant,1
50005df8e4b0d5040de9e521,Taqueria Diaffarello,19.286153087923307,-99.13685153957906,,,,,,,,MX,2012-07-13,2021-08-15,,,,,,,,['4bf58dd8d48988d151941735' '4bf58dd8d48988d1df931735'],"['Dining and Drinking > Restaurant > Mexican Restaurant > Taco Restaurant'
 'Dining and Drinking > Restaurant > BBQ Joint']","b'\x00\x00\x00\x00\x01\xc0X\xc8\xc2,\xf5\xb9\x8e@3IAT*G\xaf'","{'xmin': -99.13685153957906, 'ymin': 19.286153087923307, 'xmax': -99.13685153957906, 'ymax': 19.286153087923307}","dining and drinking > restaurant > mexican restaurant > taco restaurant, dining and drinking > restaurant > bbq joint",1
5372779d498e8c8e610c13f6,Los Unicos de Cecina,20.55986785888672,-103.44900512695312,,,,,,,,MX,2014-05-13,2021-11-29,,,,,,,,['4bf58dd8d48988d151941735'],['Dining and Drinking > Restaurant > Mexican Restaurant > Taco Restaurant'],b'\x00\x00\x00\x00\x01\xc0Y\xdc\xbc\x80\x00\x00\x00@4\x8fS\x80\x00\x00\x00',"{'xmin': -103.44900512695312, 'ymin': 20.55986785888672, 'xmax': -103.44900512695312, 'ymax': 20.55986785888672}",dining and drinking > restaurant > mexican restaurant > taco restaurant,1
5226003811d22e7337d2cf3a,Tacos El Brody,19.16304880551457,-96.11507629665738,costa de marfil,,,,,,,MX,2013-09-03,2020-11-30,,,,,,,,['4bf58dd8d48988d151941735'],['Dining and Drinking > Restaurant > Mexican Restaurant > Taco Restaurant'],b'\x00\x00\x00\x00\x01\xc0X\x07]h\xf8\xac\x0c@3)\xbd\x91\x07VB',"{'xmin': -96.11507629665738, 'ymin': 19.16304880551457, 'xmax': -96.11507629665738, 'ymax': 19.16304880551457}",dining and drinking > restaurant > mexican restaurant > taco restaurant,1
4ff66b9ce4b0484032da7623,Tacos Tachin,19.209571113406085,-96.19038321898137,Calle Profesor Julio Rebolledo & Calle Doctor Marcelino Fuentes,Hortalizas,Veracruz de Ignacio de la Llav,91808,,,,MX,2012-07-06,2023-12-21,,229 203 3411,,,,,,['4bf58dd8d48988d151941735'],['Dining and Drinking > Restaurant > Mexican Restaurant > Taco Restaurant'],b'\x00\x00\x00\x00\x01\xc0X\x0c/=\x18\xce\xdc@35\xa6s\xd6C\xf4',"{'xmin': -96.19038321898137, 'ymin': 19.209571113406085, 'xmax': -96.19038321898137, 'ymax': 19.209571113406085}",dining and drinking > restaurant > mexican restaurant > taco restaurant,1
4f58faefe4b0a386deab55b4,Tacos De Birria,19.337535150939765,-99.12134240642715,,,,,,,,MX,2012-03-08,2021-08-14,,,,,,,,['4bf58dd8d48988d151941735'],['Dining and Drinking > Restaurant > Mexican Restaurant > Taco Restaurant'],"b'\x00\x00\x00\x00\x01\xc0X\xc7\xc4\x12\xf0\xce>@3Vh\xb4""\x89f'","{'xmin': -99.12134240642715, 'ymin': 19.337535150939765, 'xmax': -99.12134240642715, 'ymax': 19.337535150939765}",dining and drinking > restaurant > mexican restaurant > taco restaurant,1
554e3be9498e0a16ae5a2024,Barbacoa Chela,19.29978578915634,-99.11040822731913,,,,,,,,MX,2015-05-09,2021-08-17,,,,,,,,['4bf58dd8d48988d151941735'],['Dining and Drinking > Restaurant > Mexican Restaurant > Taco Restaurant'],b'\x00\x00\x00\x00\x01\xc0X\xc7\x10\xed\xabb\xe1@3L\xbe\xc2\xf0;f',"{'xmin': -99.11040822731913, 'ymin': 19.29978578915634, 'xmax': -99.11040822731913, 'ymax': 19.29978578915634}",dining and drinking > restaurant > mexican restaurant > taco restaurant,1
500ae6e4e4b009231255f5a0,El Zaguan,19.282537,-99.683365,,,,,,,,MX,2012-07-21,2021-08-15,,,,,,,,['4bf58dd8d48988d151941735'],['Dining and Drinking > Restaurant > Mexican Restaurant > Taco Restaurant'],b'\x00\x00\x00\x00\x01\xc0X\xeb\xbc@\x8d\x8e\xc9@3HTXF\xe8\xf3',"{'xmin': -99.683365, 'ymin': 19.282537, 'xmax': -99.683365, 'ymax': 19.282537}",dining and drinking > restaurant > mexican restaurant > taco restaurant,1
50c15ea6e4b0598c497afaff,Taqueria El Chillin,18.444889288530316,-95.21917175969865,,,,,,,,MX,2012-12-07,2021-08-11,,,,,,,,['4bf58dd8d48988d151941735'],['Dining and Drinking > Restaurant > Mexican Restaurant > Taco Restaurant'],b'\x00\x00\x00\x00\x01\xc0W\xce\x06\xe8\xfd\x073@2q\xe4C\xb0\x94\x13',"{'xmin': -95.21917175969865, 'ymin': 18.444889288530316, 'xmax': -95.21917175969865, 'ymax': 18.444889288530316}",dining and drinking > restaurant > mexican restaurant > taco restaurant,1
536b0cc6498ee0718097ba38,tacos de basura,18.65541648864746,-99.19060516357422,,,,,,,,MX,2014-05-08,2021-08-16,,,,,,,,['4bf58dd8d48988d151941735'],['Dining and Drinking > Restaurant > Mexican Restaurant > Taco Restaurant'],b'\x00\x00\x00\x00\x01\xc0X\xcc2\xe0\x00\x00\x00@2\xa7\xc9`\x00\x00\x00',"{'xmin': -99.19060516357422, 'ymin': 18.65541648864746, 'xmax': -99.19060516357422, 'ymax': 18.65541648864746}",dining and drinking > restaurant > mexican restaurant > taco restaurant,1
52a27fd211d231937c72ba67,"antojitos doña ""chave""",18.092792391313,-96.10896188991182,Calle Emiliano Zapata,San Bartolo,oaxaca,68446,,,,MX,2013-12-07,2020-11-21,,,,,,,,['4bf58dd8d48988d151941735'],['Dining and Drinking > Restaurant > Mexican Restaurant > Taco Restaurant'],b'\x00\x00\x00\x00\x01\xc0X\x06\xf9;Jk\xa0@2\x17\xc1=\xfe\x01\xc9',"{'xmin': -96.10896188991182, 'ymin': 18.092792391313, 'xmax': -96.10896188991182, 'ymax': 18.092792391313}",dining and drinking > restaurant > mexican restaurant > taco restaurant,1
4f6aa7ede4b0e15b869caa88,Tacos el periférico,19.313313130599674,-99.22388050801791,,,,,,,,MX,2012-03-22,2021-08-16,,,,,,,,['4bf58dd8d48988d151941735'],['Dining and Drinking > Restaurant > Mexican Restaurant > Taco Restaurant'],b'\x00\x00\x00\x00\x01\xc0X\xceT\x0e\xe9\t\x86@3P5J\x11U>',"{'xmin': -99.22388050801791, 'ymin': 19.313313130599674, 'xmax': -99.22388050801791, 'ymax': 19.313313130599674}",dining and drinking > restaurant > mexican restaurant > taco restaurant,1
50dfc912e4b0a94f5a370c2e,Tacos Miriam,17.570819,-99.397463,,,,,,,,MX,2012-12-30,2021-08-11,,,,,,,,['4bf58dd8d48988d151941735'],['Dining and Drinking > Restaurant > Mexican Restaurant > Taco Restaurant'],b'\x00\x00\x00\x00\x01\xc0X\xd9p\x08\xa6\x97\xaf@1\x92!1\xa8\xefx',"{'xmin': -99.397463, 'ymin': 17.570819, 'xmax': -99.397463, 'ymax': 17.570819}",dining and drinking > restaurant > mexican restaurant > taco restaurant,1
551a1416498ee5cecb5283a2,Los Cuña2,19.21321534458474,-101.7087670482879,,,,,,,,MX,2015-03-31,2021-08-14,,,,,,,,['4bf58dd8d48988d151941735'],['Dining and Drinking > Restaurant > Mexican Restaurant > Taco Restaurant'],b'\x00\x00\x00\x00\x01\xc0Ym\\pw8A@36\x95G\xe3\xff0',"{'xmin': -101.7087670482879, 'ymin': 19.21321534458474, 'xmax': -101.7087670482879, 'ymax': 19.21321534458474}",dining and drinking > restaurant > mexican restaurant > taco restaurant,1
5bde51bbf1fdaf002c6a8df2,Taqueria Lupita,16.116022,-92.05524,,La Trinitaria,Chiapas,30165,,,,MX,2018-11-04,2020-11-22,,,,,,,,['4bf58dd8d48988d151941735'],['Dining and Drinking > Restaurant > Mexican Restaurant > Taco Restaurant'],"b""\x00\x00\x00\x00\x01\xc0W\x03\x89\rZ[\x96@0\x1d\xb3\x9e'\x9d\xd4""","{'xmin': -92.05524, 'ymin': 16.116022, 'xmax': -92.05524, 'ymax': 16.116022}",dining and drinking > restaurant > mexican restaurant > taco restaurant,1
5d75a612fae52c00089d6bf5,Forttacos,19.42283,-97.01215,,Xico,Veracruz,91240,,,,MX,2019-09-09,2020-11-20,,,,,,,,['4bf58dd8d48988d151941735'],['Dining and Drinking > Restaurant > Mexican Restaurant > Taco Restaurant'],b'\x00\x00\x00\x00\x01\xc0X@\xc7\x10\xcb)_@3l>\x96=\xc4\x87',"{'xmin': -97.01215, 'ymin': 19.42283, 'xmax': -97.01215, 'ymax': 19.42283}",dining and drinking > restaurant > mexican restaurant > taco restaurant,1
4dcca338ae603b786d041e5f,"Taqueria ""El Cielo""",19.41542607770492,-102.06005992279674,Av. Juarez # 57,Uruapan,Michoacán,,,,,MX,2011-05-13,2020-11-26,,452 122 9870,,,,,,['4bf58dd8d48988d151941735' '4bf58dd8d48988d1c1941735'],"['Dining and Drinking > Restaurant > Mexican Restaurant > Taco Restaurant'
 'Dining and Drinking > Restaurant > Mexican Restaurant']",b'\x00\x00\x00\x00\x01\xc0Y\x83\xd8\x05\x93\r\x96@3jY]\t\xa5\xf0',"{'xmin': -102.06005992279674, 'ymin': 19.41542607770492, 'xmax': -102.06005992279674, 'ymax': 19.41542607770492}","dining and drinking > restaurant > mexican restaurant > taco restaurant, dining and drinking > restaurant > mexican restaurant",1
4fb143aae4b097c37f334984,taqueria lalo,19.183859356645126,-96.14437016151949,Echeven,Veracruz,VERACRUZ,91700,,,,MX,2012-05-14,2020-11-24,,,,,,,,['4bf58dd8d48988d151941735'],['Dining and Drinking > Restaurant > Mexican Restaurant > Taco Restaurant'],b'\x00\x00\x00\x00\x01\xc0X\t=\\X\x8f\xa5@3/\x11h#\xda\xbb',"{'xmin': -96.14437016151949, 'ymin': 19.183859356645126, 'xmax': -96.14437016151949, 'ymax': 19.183859356645126}",dining and drinking > restaurant > mexican restaurant > taco restaurant,1
67395c2f2afbd64826d5bf18,Taqueria El Tecolote,17.593472,-99.181595,calle 17 sur,Chilapa de Álvarez,Guerrero,41103,,,,MX,2024-11-17,2024-11-17,,,,,,,,['4bf58dd8d48988d151941735'],['Dining and Drinking > Restaurant > Mexican Restaurant > Taco Restaurant'],b'\x00\x00\x00\x00\x01\xc0X\xcb\x9f@\xa2\x87\x7f@1\x97\xed\xc7\xef\x17z',"{'xmin': -99.181595, 'ymin': 17.593472, 'xmax': -99.181595, 'ymax': 17.593472}",dining and drinking > restaurant > mexican restaurant > taco restaurant,1
4e2a358c14955dbf7acd9072,"Tacos ""El Güero""",19.287991147048263,-99.68370809302749,,Toluca de Lerdo,México,,,,,MX,2011-07-23,2020-11-22,,,,,,,,['4bf58dd8d48988d151941735'],['Dining and Drinking > Restaurant > Mexican Restaurant > Taco Restaurant'],b'\x00\x00\x00\x00\x01\xc0X\xeb\xc1\xdf\x96\xe4\x12@3I\xb9\xc9\xae\x1c\x1d',"{'xmin': -99.68370809302749, 'ymin': 19.287991147048263, 'xmax': -99.68370809302749, 'ymax': 19.287991147048263}",dining and drinking > restaurant > mexican restaurant > taco restaurant,1
53017c6511d29a586cf40cd8,Taqueria Suarez,18.234126,-99.658407,,,,,,,,MX,2014-02-17,2021-08-12,,,,,,,,['4bf58dd8d48988d151941735'],['Dining and Drinking > Restaurant > Mexican Restaurant > Taco Restaurant'],b'\x00\x00\x00\x00\x01\xc0X\xea#W\x1d\x1dG@2;\xef\xaey$\xaf',"{'xmin': -99.658407, 'ymin': 18.234126, 'xmax': -99.658407, 'ymax': 18.234126}",dining and drinking > restaurant > mexican restaurant > taco restaurant,1
50d65ab9e4b01e0c670982fb,Copacabana,19.31564980629319,-99.12491260920777,Miramontes 2771,México,DF,,,,,MX,2012-12-23,2020-11-30,2018-10-27,,,,,,,"['4bf58dd8d48988d151941735' '4bf58dd8d48988d16e941735'
 '4bf58dd8d48988d1c1941735']","['Dining and Drinking > Restaurant > Mexican Restaurant > Taco Restaurant'
 'Dining and Drinking > Restaurant > Fast Food Restaurant'
 'Dining and Drinking > Restaurant > Mexican Restaurant']",b'\x00\x00\x00\x00\x01\xc0X\xc7\xfe\x91t\xd9\xf2@3P\xcel\xfb\x04\x9b',"{'xmin': -99.12491260920777, 'ymin': 19.31564980629319, 'xmax': -99.12491260920777, 'ymax': 19.31564980629319}","dining and drinking > restaurant > mexican restaurant > taco restaurant, dining and drinking > restaurant > fast food restaurant, dining and drinking > restaurant > mexican restaurant",1
4fcfd320e4b089de6b48955d,Taquissimo,20.558139435294073,-103.45128691908843,,,,,,,,MX,2012-06-06,2021-08-12,,,,,,,,['4bf58dd8d48988d151941735'],['Dining and Drinking > Restaurant > Mexican Restaurant > Taco Restaurant'],b'\x00\x00\x00\x00\x01\xc0Y\xdc\xe1\xe2\x87\xa6<@4\x8e\xe29\xdd2*',"{'xmin': -103.45128691908843, 'ymin': 20.558139435294073, 'xmax': -103.45128691908843, 'ymax': 20.558139435294073}",dining and drinking > restaurant > mexican restaurant > taco restaurant,1
4ff79466e4b04619c783ecb2,La Cecinita,19.335637667310856,-99.12580029850622,,,,,,,,MX,2012-07-07,2021-08-15,2013-07-24,,,,,,,['4bf58dd8d48988d151941735'],['Dining and Drinking > Restaurant > Mexican Restaurant > Taco Restaurant'],b'\x00\x00\x00\x00\x01\xc0X\xc8\r\x1c\xb1\xfaR@3U\xecY\xa4g\xe6',"{'xmin': -99.12580029850622, 'ymin': 19.335637667310856, 'xmax': -99.12580029850622, 'ymax': 19.335637667310856}",dining and drinking > restaurant > mexican restaurant > taco restaurant,1
51bfb466498e789415ffa0cf,Tacos Guillo,19.317348377298945,-99.24563479914126,,,,,,,,MX,2013-06-18,2021-08-13,,,,,,,,['4bf58dd8d48988d151941735'],['Dining and Drinking > Restaurant > Mexican Restaurant > Taco Restaurant'],b'\x00\x00\x00\x00\x01\xc0X\xcf\xb8{\x05D\x8f@3Q=\xbeE\xf0\t',"{'xmin': -99.24563479914126, 'ymin': 19.317348377298945, 'xmax': -99.24563479914126, 'ymax': 19.317348377298945}",dining and drinking > restaurant > mexican restaurant > taco restaurant,1
