fsq_place_id,name,latitude,longitude,address,locality,region,postcode,admin_region,post_town,po_box,country,date_created,date_refreshed,date_closed,tel,website,email,facebook_id,instagram,twitter,fsq_category_ids,fsq_category_labels,geom,bbox,labels_str,taco_restaurant
64789202bcf1723a774ab997,Taqueria Chicali,32.652128,-115.411137,,Mexicali,Baja California,21254,,,,MX,2023-06-01,2023-06-01,,,,,,,,['4bf58dd8d48988d151941735'],['Dining and Drinking > Restaurant > Mexican Restaurant > Taco Restaurant'],"b""\x00\x00\x00\x00\x01\xc0\\\xdaP\x11\x90K<@@Sx\xee(g'""","{'xmin': -115.411137, 'ymin': 32.652128, 'xmax': -115.411137, 'ymax': 32.652128}",dining and drinking > restaurant > mexican restaurant > taco restaurant,1
4f5c4744e4b0a3bd2369b10e,Tacos Alicia,32.49655101901973,-117.0324352943318,,,,,,,,MX,2012-03-11,2021-08-15,,,,,,,,['4bf58dd8d48988d151941735'],['Dining and Drinking > Restaurant > Mexican Restaurant > Taco Restaurant'],b'\x00\x00\x00\x00\x01\xc0]B\x13k|\x19\n@@?\x8e\xfb\xd9\xbe\x1c',"{'xmin': -117.0324352943318, 'ymin': 32.49655101901973, 'xmax': -117.0324352943318, 'ymax': 32.49655101901973}",dining and drinking > restaurant > mexican restaurant > taco restaurant,1
5935bf9d9fca56481bb46e46,Los Amigos Taqueria Y Mariscos,32.52154,-117.023125,,Tijuana,Baja California,22015,,,,MX,2017-06-05,2020-11-21,,,,,,,,['4bf58dd8d48988d151941735'],['Dining and Drinking > Restaurant > Mexican Restaurant > Taco Restaurant'],b'\x00\x00\x00\x00\x01\xc0]Az\xe1G\xae\x14@@B\xc1\xd2\x9d\xc7&',"{'xmin': -117.023125, 'ymin': 32.52154, 'xmax': -117.023125, 'ymax': 32.52154}",dining and drinking > restaurant > mexican restaurant > taco restaurant,1
4d885d8ca0afdcb3edc696ab,Tacos Manuel,32.35535317266697,-117.05919553200556,Blvd. Benito Juárez 256,Rosarito,Baja California,22710,,,,MX,2011-03-22,2020-11-30,,661 612 5064,,,,,,['4bf58dd8d48988d151941735'],['Dining and Drinking > Restaurant > Mexican Restaurant > Taco Restaurant'],b'\x00\x00\x00\x00\x01\xc0]C\xc9\xdc\x0e\x82 @@-|6w\x917',"{'xmin': -117.05919553200556, 'ymin': 32.35535317266697, 'xmax': -117.05919553200556, 'ymax': 32.35535317266697}",dining and drinking > restaurant > mexican restaurant > taco restaurant,1
60a6b8e8bd1a206db4b8ab8e,Tacos El Gil,32.46055,-114.75518,,San Luis Río Colorado,SON,83447,,,,MX,2021-05-20,2021-05-20,,,,,,,,['4bf58dd8d48988d1ce941735' '4bf58dd8d48988d151941735'],"['Dining and Drinking > Restaurant > Seafood Restaurant'
 'Dining and Drinking > Restaurant > Mexican Restaurant > Taco Restaurant']",b'\x00\x00\x00\x00\x01\xc0\\\xb0T\xde~\xa5\xf8@@:\xf3Mj\x16\x1e',"{'xmin': -114.75518, 'ymin': 32.46055, 'xmax': -114.75518, 'ymax': 32.46055}","dining and drinking > restaurant > seafood restaurant, dining and drinking > restaurant > mexican restaurant > taco restaurant",1
519267a6498e1b68e48b26c0,Tacos Olvera,32.5856409303341,-115.47309226161417,,,,,,,,MX,2013-05-14,2021-08-11,,,,,,,,['4bf58dd8d48988d151941735'],['Dining and Drinking > Restaurant > Mexican Restaurant > Taco Restaurant'],b'\x00\x00\x00\x00\x01\xc0\\\xdeG$\xc3\xe7\xe8@@J\xf6H1}\xf3',"{'xmin': -115.47309226161417, 'ymin': 32.5856409303341, 'xmax': -115.47309226161417, 'ymax': 32.5856409303341}",dining and drinking > restaurant > mexican restaurant > taco restaurant,1
5227bbb911d21963ce322e23,Tacos Lulú,31.863147735595703,-116.61507415771484,,,,,,,,MX,2013-09-04,2021-08-11,,,,,,,,['4bf58dd8d48988d151941735'],['Dining and Drinking > Restaurant > Mexican Restaurant > Taco Restaurant'],"b""\x00\x00\x00\x00\x01\xc0]']`\x00\x00\x00@?\xdc\xf7@\x00\x00\x00""","{'xmin': -116.61507415771484, 'ymin': 31.863147735595703, 'xmax': -116.61507415771484, 'ymax': 31.863147735595703}",dining and drinking > restaurant > mexican restaurant > taco restaurant,1
5eaaf3f3ba1e5b0008f715e2,Tacos De Birria Edgar,32.51329,-116.8756,,Tijuana,BC,22206,,,,MX,2020-04-30,2020-11-25,,,,,,,,['4bf58dd8d48988d151941735'],['Dining and Drinking > Restaurant > Mexican Restaurant > Taco Restaurant'],b'\x00\x00\x00\x00\x01\xc0]8\t\xd4\x95\x18+@@A\xb3|\x99\xae\x92',"{'xmin': -116.8756, 'ymin': 32.51329, 'xmax': -116.8756, 'ymax': 32.51329}",dining and drinking > restaurant > mexican restaurant > taco restaurant,1
58236c7477259231d51abcf6,Los Antojos De Mamá,32.636078,-115.48523,,Mexicali,Baja California,,,,,MX,2016-11-09,2020-11-23,,,,,,,,['4bf58dd8d48988d151941735'],['Dining and Drinking > Restaurant > Mexican Restaurant > Taco Restaurant'],b'\x00\x00\x00\x00\x01\xc0\\\xdf\x0e\x02!Bp@@Qk\x00\xff\xda@',"{'xmin': -115.48523, 'ymin': 32.636078, 'xmax': -115.48523, 'ymax': 32.636078}",dining and drinking > restaurant > mexican restaurant > taco restaurant,1
663ef85c4cf0647bbb8f1592,Greek-Taco Gyros Y Tacos Arabes,32.48479,-116.928825,,Tijuana,Baja California,22226,,,,MX,2024-05-11,2024-05-11,,,,,,,,['4bf58dd8d48988d151941735'],['Dining and Drinking > Restaurant > Mexican Restaurant > Taco Restaurant'],b'\x00\x00\x00\x00\x01\xc0];q\xdei\xadC@@>\r\x99E\xb6\xc3',"{'xmin': -116.928825, 'ymin': 32.48479, 'xmax': -116.928825, 'ymax': 32.48479}",dining and drinking > restaurant > mexican restaurant > taco restaurant,1
4f1f2b60e4b01ff35183db9e,Tortas ahogadas Tio pepe,32.51464556734761,-117.00799155221942,,,,,,,,MX,2012-01-24,2021-08-13,,,,,,,,['4bf58dd8d48988d1c1941735' '4bf58dd8d48988d151941735'],"['Dining and Drinking > Restaurant > Mexican Restaurant'
 'Dining and Drinking > Restaurant > Mexican Restaurant > Taco Restaurant']",b'\x00\x00\x00\x00\x01\xc0]@\x82\xee\xff\xdbO@@A\xdf\xe7\xece\t',"{'xmin': -117.00799155221942, 'ymin': 32.51464556734761, 'xmax': -117.00799155221942, 'ymax': 32.51464556734761}","dining and drinking > restaurant > mexican restaurant, dining and drinking > restaurant > mexican restaurant > taco restaurant",1
5096f4cce4b0baf4e274cc3c,Carnitas Colima,32.64378223372159,-115.5048169188588,,,,,,,,MX,2012-11-04,2023-12-20,,686 555 5884,,,,,,['4bf58dd8d48988d151941735'],['Dining and Drinking > Restaurant > Mexican Restaurant > Taco Restaurant'],b'\x00\x00\x00\x00\x01\xc0\\\xe0N\xeb\x9f=\xd3@@Rgt\xcb\xca?',"{'xmin': -115.5048169188588, 'ymin': 32.64378223372159, 'xmax': -115.5048169188588, 'ymax': 32.64378223372159}",dining and drinking > restaurant > mexican restaurant > taco restaurant,1
4fa557fee4b0bcbb46f96264,Tacos a la Vuelta y Vuelta,32.65509362509715,-115.470449924469,"Calle E, Mexicali, BC",Mexicali,Baja California,,,,,MX,2012-05-05,2020-11-25,,,,,,,,['4bf58dd8d48988d151941735'],['Dining and Drinking > Restaurant > Mexican Restaurant > Taco Restaurant'],b'\x00\x00\x00\x00\x01\xc0\\\xde\x1b\xda\x00\x00\x00@@S\xda\x1b\x9f\xce ',"{'xmin': -115.470449924469, 'ymin': 32.65509362509715, 'xmax': -115.470449924469, 'ymax': 32.65509362509715}",dining and drinking > restaurant > mexican restaurant > taco restaurant,1
350b894f110e463423a05b60,La Carreta del Mikes -taqueria,32.613951,-115.508635,Calle 11C,Mexicali,Baja California,,,,,MX,2010-10-28,2023-12-06,,686 122 4742,,,,,,['4bf58dd8d48988d151941735'],['Dining and Drinking > Restaurant > Mexican Restaurant > Taco Restaurant'],"b'\x00\x00\x00\x00\x01\xc0\\\xe0\x8dy\xd0\xa6v@@N\x95\xf2E,Z'","{'xmin': -115.508635, 'ymin': 32.613951, 'xmax': -115.508635, 'ymax': 32.613951}",dining and drinking > restaurant > mexican restaurant > taco restaurant,1
4faa0fa9e4b0ed71c168a57f,Tacos Angelita,20.620269847355665,-105.22788856514082,,,,,,,,MX,2012-05-09,2021-08-14,,,,,,,,['4bf58dd8d48988d151941735'],['Dining and Drinking > Restaurant > Mexican Restaurant > Taco Restaurant'],b'\x00\x00\x00\x00\x01\xc0ZN\x95\xb9\xeb\x9aa@4\x9e\xca\x015\x16f',"{'xmin': -105.22788856514082, 'ymin': 20.620269847355665, 'xmax': -105.22788856514082, 'ymax': 20.620269847355665}",dining and drinking > restaurant > mexican restaurant > taco restaurant,1
5284487611d2eda69702337c,Tacoman,20.5118465423584,-100.8228530883789,,,,,,,,MX,2013-11-14,2021-08-12,,,,,,,,['4bf58dd8d48988d151941735'],['Dining and Drinking > Restaurant > Mexican Restaurant > Taco Restaurant'],b'\x00\x00\x00\x00\x01\xc0Y4\xa9\xa0\x00\x00\x00@4\x83\x08`\x00\x00\x00',"{'xmin': -100.8228530883789, 'ymin': 20.5118465423584, 'xmax': -100.8228530883789, 'ymax': 20.5118465423584}",dining and drinking > restaurant > mexican restaurant > taco restaurant,1
510ca1e8e4b0779165a8e465,Taqueria Hidalgo,20.33788954869204,-102.01951299770766,,,,,,,,MX,2013-02-02,2021-08-11,,,,,,,,['4bf58dd8d48988d151941735' '4bf58dd8d48988d1cb941735'],"['Dining and Drinking > Restaurant > Mexican Restaurant > Taco Restaurant'
 'Dining and Drinking > Food Truck']",b'\x00\x00\x00\x00\x01\xc0Y\x81?\xb3q\xc0\x16@4V\x7f\xed\xf1J\xe2',"{'xmin': -102.01951299770766, 'ymin': 20.33788954869204, 'xmax': -102.01951299770766, 'ymax': 20.33788954869204}","dining and drinking > restaurant > mexican restaurant > taco restaurant, dining and drinking > food truck",1
51d6feee498e1489104d4b99,el patio,20.72966766357422,-103.45243835449219,,,,,,,,MX,2013-07-05,2021-08-10,,,,,,,,['4bf58dd8d48988d151941735'],['Dining and Drinking > Restaurant > Mexican Restaurant > Taco Restaurant'],b'\x00\x00\x00\x00\x01\xc0Y\xdc\xf4\xc0\x00\x00\x00@4\xba\xcb\x80\x00\x00\x00',"{'xmin': -103.45243835449219, 'ymin': 20.72966766357422, 'xmax': -103.45243835449219, 'ymax': 20.72966766357422}",dining and drinking > restaurant > mexican restaurant > taco restaurant,1
57169194498e0a49c12ea5d4,El Metate,20.671377,-103.40859,,,,,,,,MX,2016-04-19,2021-08-16,,,,,,,,['4bf58dd8d48988d151941735'],['Dining and Drinking > Restaurant > Mexican Restaurant > Taco Restaurant'],b'\x00\x00\x00\x00\x01\xc0Y\xda&V\xab\xde@@4\xab\xdf\\\xf2I^',"{'xmin': -103.40859, 'ymin': 20.671377, 'xmax': -103.40859, 'ymax': 20.671377}",dining and drinking > restaurant > mexican restaurant > taco restaurant,1
5a43212795a7224a1f8c4574,Taqueria Las Hermanas,19.243056,-103.692031,Calle Violeta,Colima,COL,28047,,,,MX,2017-12-27,2020-11-24,,,,,,,,['4bf58dd8d48988d151941735'],['Dining and Drinking > Restaurant > Mexican Restaurant > Taco Restaurant'],b'\x00\x00\x00\x00\x01\xc0Y\xecJ<d4]@3>8\xeb\x03\x18\xb9',"{'xmin': -103.692031, 'ymin': 19.243056, 'xmax': -103.692031, 'ymax': 19.243056}",dining and drinking > restaurant > mexican restaurant > taco restaurant,1
52af6b7e498eb6c11ed5e150,Chamorros Jr.'s,20.340998,-102.023164,Plazuela Cabadas,La Piedad,Michoacán,,,,,MX,2013-12-16,2020-11-22,,,,,,,,['4bf58dd8d48988d151941735'],['Dining and Drinking > Restaurant > Mexican Restaurant > Taco Restaurant'],b'\x00\x00\x00\x00\x01\xc0Y\x81{\x84\xdb\x9cs@4WK\xa5\x1a\x00\\',"{'xmin': -102.023164, 'ymin': 20.340998, 'xmax': -102.023164, 'ymax': 20.340998}",dining and drinking > restaurant > mexican restaurant > taco restaurant,1
6419232649154136aaa19bb9,Tacos De Tripas Y Gorditas Tarascas,21.092961,-101.650601,Avenida Alfredo Valadez 409,León,Guanajuato,37520,,,,MX,2023-03-21,2023-03-21,,,,,,,,['4bf58dd8d48988d151941735'],['Dining and Drinking > Restaurant > Mexican Restaurant > Taco Restaurant'],b'\x00\x00\x00\x00\x01\xc0Yi\xa3r`o\xac@5\x17\xccJ\xc6\xcd\xaf',"{'xmin': -101.650601, 'ymin': 21.092961, 'xmax': -101.650601, 'ymax': 21.092961}",dining and drinking > restaurant > mexican restaurant > taco restaurant,1
5c63c9cb6dcf04002cbf9ea2,A Los Tacos,20.703453,-103.44722,,Zapopan,Jalisco,45136,,,,MX,2019-02-13,2020-11-23,,,,,,,,['4bf58dd8d48988d151941735'],['Dining and Drinking > Restaurant > Mexican Restaurant > Taco Restaurant'],b'\x00\x00\x00\x00\x01\xc0Y\xdc\x9f@\xa2\x87\x7f@4\xb4\x15~\xedE\xe9',"{'xmin': -103.44722, 'ymin': 20.703453, 'xmax': -103.44722, 'ymax': 20.703453}",dining and drinking > restaurant > mexican restaurant > taco restaurant,1
58706e5f16f0001311cff1ca,Tacos El Toro,21.879597,-102.31788,,Aguascalientes,Aguascalientes,,,,,MX,2017-01-07,2020-11-25,,,,,,,,['4bf58dd8d48988d151941735'],['Dining and Drinking > Restaurant > Mexican Restaurant > Taco Restaurant'],b'\x00\x00\x00\x00\x01\xc0Y\x94X%[\x03\\@5\xe1-D\xdc\xa8\xe3',"{'xmin': -102.31788, 'ymin': 21.879597, 'xmax': -102.31788, 'ymax': 21.879597}",dining and drinking > restaurant > mexican restaurant > taco restaurant,1
584b12576431e51a66534f65,Tacos Don Polo,20.628246,-103.32882,Fuelle,Guadalajara,Jalisco,,,,,MX,2016-12-09,2021-08-15,,,,,,,,['4bf58dd8d48988d151941735'],['Dining and Drinking > Restaurant > Mexican Restaurant > Taco Restaurant'],b'\x00\x00\x00\x00\x01\xc0Y\xd5\x0bc\n\x91S@4\xa0\xd4\xba\xd7\xd7\xc3',"{'xmin': -103.32882, 'ymin': 20.628246, 'xmax': -103.32882, 'ymax': 20.628246}",dining and drinking > restaurant > mexican restaurant > taco restaurant,1
5598a57d498eb4d6034aabd7,Tacos El Cache,20.626931216590453,-103.25162920866603,,,,,,,,MX,2015-07-05,2021-08-11,,,,,,,,['4bf58dd8d48988d151941735'],['Dining and Drinking > Restaurant > Mexican Restaurant > Taco Restaurant'],b'\x00\x00\x00\x00\x01\xc0Y\xd0\x1a\xb1e|\x18@4\xa0~\x90p\x18\xf5',"{'xmin': -103.25162920866603, 'ymin': 20.626931216590453, 'xmax': -103.25162920866603, 'ymax': 20.626931216590453}",dining and drinking > restaurant > mexican restaurant > taco restaurant,1
5207dbbd11d28afd3d4828c3,"Quesadillas ""Las amigas""",22.147476196289062,-100.89708709716797,,,,,,,,MX,2013-08-11,2020-11-22,,,,,,,,['4bf58dd8d48988d151941735'],['Dining and Drinking > Restaurant > Mexican Restaurant > Taco Restaurant'],b'\x00\x00\x00\x00\x01\xc0Y9i\xe0\x00\x00\x00@6%\xc1\x00\x00\x00\x00',"{'xmin': -100.89708709716797, 'ymin': 22.147476196289062, 'xmax': -100.89708709716797, 'ymax': 22.147476196289062}",dining and drinking > restaurant > mexican restaurant > taco restaurant,1
55c3cd1d498ed490c5642a8c,Girochos,20.700777020596675,-103.38206889846272,,,,,,,,MX,2015-08-06,2024-01-03,,33 3817 1593,http://girochos.com.mx,,,,,['4bf58dd8d48988d151941735'],['Dining and Drinking > Restaurant > Mexican Restaurant > Taco Restaurant'],b'\x00\x00\x00\x00\x01\xc0Y\xd8s\xd1\x1b\xed\xd5@4\xb3f\x1fq@D',"{'xmin': -103.38206889846272, 'ymin': 20.700777020596675, 'xmax': -103.38206889846272, 'ymax': 20.700777020596675}",dining and drinking > restaurant > mexican restaurant > taco restaurant,1
504185b8e4b09c6ce472f253,Los Mijos,20.67414,-103.422739,Av. Patria 142,Guadalajara,Jalisco,,,,,MX,2012-09-01,2020-11-23,,,,,,,,['4bf58dd8d48988d151941735'],['Dining and Drinking > Restaurant > Mexican Restaurant > Taco Restaurant'],"b""\x00\x00\x00\x00\x01\xc0Y\xdb\x0e'\xe0\xef\x9a@4\xac\x94pd\xec\xea""","{'xmin': -103.422739, 'ymin': 20.67414, 'xmax': -103.422739, 'ymax': 20.67414}",dining and drinking > restaurant > mexican restaurant > taco restaurant,1
54a499f1498eca7232324c12,tacos de barbacoa don lupe,20.660884857177734,-103.28665161132812,,,,,,,,MX,2015-01-01,2021-08-13,,,,,,,,['4bf58dd8d48988d151941735'],['Dining and Drinking > Restaurant > Mexican Restaurant > Taco Restaurant'],b'\x00\x00\x00\x00\x01\xc0Y\xd2X\x80\x00\x00\x00@4\xa9/\xc0\x00\x00\x00',"{'xmin': -103.28665161132812, 'ymin': 20.660884857177734, 'xmax': -103.28665161132812, 'ymax': 20.660884857177734}",dining and drinking > restaurant > mexican restaurant > taco restaurant,1
4efe9e61b8f787cacffe7960,Lechon Aguilar,21.871578128115473,-102.30637508266146,Ignacio T. Chavez 1201 A,Aguascalientes,Ags,,,,,MX,2011-12-31,2020-11-23,,,,,,,,['4bf58dd8d48988d151941735'],['Dining and Drinking > Restaurant > Mexican Restaurant > Taco Restaurant'],b'\x00\x00\x00\x00\x01\xc0Y\x93\x9b\xa6<\x15\xc7@5\xdf\x1f\xbe\x84*4',"{'xmin': -102.30637508266146, 'ymin': 21.871578128115473, 'xmax': -102.30637508266146, 'ymax': 21.871578128115473}",dining and drinking > restaurant > mexican restaurant > taco restaurant,1
52bced21498eff999c743818,taqueria la ultima cena 2,20.553047,-100.784375,,,,,,,,MX,2013-12-27,2021-08-15,,,,,,,,['4bf58dd8d48988d151941735'],['Dining and Drinking > Restaurant > Mexican Restaurant > Taco Restaurant'],b'\x00\x00\x00\x00\x01\xc0Y233333@4\x8d\x94|\xfa&\xa2',"{'xmin': -100.784375, 'ymin': 20.553047, 'xmax': -100.784375, 'ymax': 20.553047}",dining and drinking > restaurant > mexican restaurant > taco restaurant,1
51e35a6a498eb4223f74bc28,Tacos Don Crispin,20.603403,-105.22661,,,,,,,,MX,2013-07-15,2021-08-14,,,,,,,,['4bf58dd8d48988d151941735'],['Dining and Drinking > Restaurant > Mexican Restaurant > Taco Restaurant'],b'\x00\x00\x00\x00\x01\xc0ZN\x80\xc7:\xbc\x94@4\x9ax\x9ewN\xec',"{'xmin': -105.22661, 'ymin': 20.603403, 'xmax': -105.22661, 'ymax': 20.603403}",dining and drinking > restaurant > mexican restaurant > taco restaurant,1
5a64d3ec18d43b05439779cb,Taqueria Reforma,20.690742,-101.364965,,Irapuato,GTO,36515,,,,MX,2018-01-21,2020-11-30,,,,,,,,['4bf58dd8d48988d151941735'],['Dining and Drinking > Restaurant > Mexican Restaurant > Taco Restaurant'],b'\x00\x00\x00\x00\x01\xc0YW[\x96(\xcb\xd1@4\xb0\xd4w\xbb\xf9@',"{'xmin': -101.364965, 'ymin': 20.690742, 'xmax': -101.364965, 'ymax': 20.690742}",dining and drinking > restaurant > mexican restaurant > taco restaurant,1
5245a76711d28899abe57405,"""Tacos Las Cazuelas """,20.698866,-103.338194,,Guadalajara,,,,,,MX,2013-09-27,2021-08-13,,,,,,,,['4bf58dd8d48988d151941735'],['Dining and Drinking > Restaurant > Mexican Restaurant > Taco Restaurant'],b'\x00\x00\x00\x00\x01\xc0Y\xd5\xa4\xf8rm\x05@4\xb2\xe8\xe1\xd6IM',"{'xmin': -103.338194, 'ymin': 20.698866, 'xmax': -103.338194, 'ymax': 20.698866}",dining and drinking > restaurant > mexican restaurant > taco restaurant,1
5473f013498ec6c19950180a,Tacos del Portal,21.120770583501336,-101.68322789626293,,,,,,,,MX,2014-11-25,2021-08-15,,,,,,,,['4bf58dd8d48988d151941735'],['Dining and Drinking > Restaurant > Mexican Restaurant > Taco Restaurant'],b'\x00\x00\x00\x00\x01\xc0Yk\xba\x01\x7f\x8a\x82@5\x1e\xea\xd2*u\x03',"{'xmin': -101.68322789626293, 'ymin': 21.120770583501336, 'xmax': -101.68322789626293, 'ymax': 21.120770583501336}",dining and drinking > restaurant > mexican restaurant > taco restaurant,1
4e624f39fa76cd64ce2c02b9,Tacos El Ojitos,20.608374612423695,-103.4328094935026,Benito Juarez 82,Zapopan,Jalisco,,,,,MX,2011-09-03,2023-12-19,,33 1404 9226,,,,,,['4bf58dd8d48988d151941735'],['Dining and Drinking > Restaurant > Mexican Restaurant > Taco Restaurant'],b'\x00\x00\x00\x00\x01\xc0Y\xdb\xb3&\x96\xff}@4\x9b\xbepH\x13\x92',"{'xmin': -103.4328094935026, 'ymin': 20.608374612423695, 'xmax': -103.4328094935026, 'ymax': 20.608374612423695}",dining and drinking > restaurant > mexican restaurant > taco restaurant,1
4f83a5a0e4b002559c0dc59c,Taqueria Don Trino,21.12625318305725,-101.64736952171324,Francisco Villa,Leon,Gto,,,,,MX,2012-04-10,2020-11-25,,,,,,,,['4bf58dd8d48988d151941735'],['Dining and Drinking > Restaurant > Mexican Restaurant > Taco Restaurant'],b'\x00\x00\x00\x00\x01\xc0Yin\x80\x93\x0b\xe0@5 R \xec?.',"{'xmin': -101.64736952171324, 'ymin': 21.12625318305725, 'xmax': -101.64736952171324, 'ymax': 21.12625318305725}",dining and drinking > restaurant > mexican restaurant > taco restaurant,1
530180f3498e5c1f92dbaffc,tacos tere y toño,20.62731,-103.369105,,,,,,,,MX,2014-02-17,2021-08-11,,,,,,,,['4bf58dd8d48988d151941735'],['Dining and Drinking > Restaurant > Mexican Restaurant > Taco Restaurant'],b'\x00\x00\x00\x00\x01\xc0Y\xd7\x9fj\x93\xf2\x91@4\xa0\x97c^t*',"{'xmin': -103.369105, 'ymin': 20.62731, 'xmax': -103.369105, 'ymax': 20.62731}",dining and drinking > restaurant > mexican restaurant > taco restaurant,1
5f5c3167de7b3d799b86aa7f,La Taquería Salamanchester,20.580304,-101.205506,Faja De Oro 906-A,Salamanca,GTO,36744,,,,MX,2020-09-12,2021-02-07,,,,,,,,['4bf58dd8d48988d151941735'],['Dining and Drinking > Restaurant > Mexican Restaurant > Taco Restaurant'],"b""\x00\x00\x00\x00\x01\xc0YM'\x02\xa3Ho@4\x94\x8e\xcd\x8d\xbc\xed""","{'xmin': -101.205506, 'ymin': 20.580304, 'xmax': -101.205506, 'ymax': 20.580304}",dining and drinking > restaurant > mexican restaurant > taco restaurant,1
531f5dee498e29e29a838785,Tacos al vapor Garman's,20.686179611203404,-103.33462058252177,Salvador Quevedo Y Zubieta,Guadalajara,,,,,,MX,2014-03-11,2021-08-11,,,,,,,,['4bf58dd8d48988d151941735'],['Dining and Drinking > Restaurant > Mexican Restaurant > Taco Restaurant'],b'\x00\x00\x00\x00\x01\xc0Y\xd5jlr\x9f\xf7@4\xaf\xa9w\x8dL\xf5',"{'xmin': -103.33462058252177, 'ymin': 20.686179611203404, 'xmax': -103.33462058252177, 'ymax': 20.686179611203404}",dining and drinking > restaurant > mexican restaurant > taco restaurant,1
545f1748498e95315967d3bd,Tacosonora Don Fily,20.695202055735283,-103.39250020570034,Av Montevideo 3392,Zapopan,jalisco,44639,,,,MX,2014-11-09,2021-08-10,,,,,,,,['4bf58dd8d48988d151941735'],['Dining and Drinking > Restaurant > Mexican Restaurant > Taco Restaurant'],b'\x00\x00\x00\x00\x01\xc0Y\xd9\x1e\xb9.\xca\x00@4\xb1\xf8\xc3\r~\xb9',"{'xmin': -103.39250020570034, 'ymin': 20.695202055735283, 'xmax': -103.39250020570034, 'ymax': 20.695202055735283}",dining and drinking > restaurant > mexican restaurant > taco restaurant,1
518e6343498e47df2b53eda5,Tacos Toño Murillo,21.10178155325231,-101.6341372117712,Blvd. Adolfo Lopez Mateos,León,Guanajuato,37290,,,,MX,2013-05-11,2020-11-23,,,,,,,,['4bf58dd8d48988d151941735'],['Dining and Drinking > Restaurant > Mexican Restaurant > Taco Restaurant'],b'\x00\x00\x00\x00\x01\xc0Yh\x95\xb4>n\xf9@5\x1a\x0e[\x1a\x8e\x04',"{'xmin': -101.6341372117712, 'ymin': 21.10178155325231, 'xmax': -101.6341372117712, 'ymax': 21.10178155325231}",dining and drinking > restaurant > mexican restaurant > taco restaurant,1
4f7e5865e4b049fd3318f865,"Tacos ""El Medico""",20.88400013689377,-103.83820382635163,Morelos,Tequila,Jalisco,,,,,MX,2012-04-06,2023-12-21,,374 101 9708,,,,,,['4bf58dd8d48988d151941735' '4bf58dd8d48988d1cb941735'],"['Dining and Drinking > Restaurant > Mexican Restaurant > Taco Restaurant'
 'Dining and Drinking > Food Truck']",b'\x00\x00\x00\x00\x01\xc0Y\xf5\xa5!\xa9c\xfd@4\xe2M\xd5=\x9eG',"{'xmin': -103.83820382635163, 'ymin': 20.88400013689377, 'xmax': -103.83820382635163, 'ymax': 20.88400013689377}","dining and drinking > restaurant > mexican restaurant > taco restaurant, dining and drinking > food truck",1
4f11a468e4b0958ec164bae4,Tacos Rosita,20.630214,-103.39301,Isla Gomera,Guadalajara,Jalisco,,,,,MX,2012-01-14,2021-08-17,,,,,,,,['4bf58dd8d48988d151941735'],['Dining and Drinking > Restaurant > Mexican Restaurant > Taco Restaurant'],"b""\x00\x00\x00\x00\x01\xc0Y\xd9'\x13j@\x10@4\xa1U\xb4g{9""","{'xmin': -103.39301, 'ymin': 20.630214, 'xmax': -103.39301, 'ymax': 20.630214}",dining and drinking > restaurant > mexican restaurant > taco restaurant,1
566e29e1498e9f8331453d90,Antojitos Mexicanos ELY,21.513922,-104.91765,Calle Bucerias #111,Tepic,Nayarit,,,,,MX,2015-12-14,2020-11-26,,,,,,,,['4bf58dd8d48988d151941735'],['Dining and Drinking > Restaurant > Mexican Restaurant > Taco Restaurant'],b'\x00\x00\x00\x00\x01\xc0Z:\xba\xc7\x10\xcb)@5\x83\x90df\xb1\xe6',"{'xmin': -104.91765, 'ymin': 21.513922, 'xmax': -104.91765, 'ymax': 21.513922}",dining and drinking > restaurant > mexican restaurant > taco restaurant,1
4f17a565e4b08e7baf1ce965,Tacos Sin Nombre,21.85198137491322,-102.31830099552907,Jose Maria González Bocanegra,Aguascalientes,Aguascalientes,20206,,,,MX,2012-01-19,2020-11-25,,,,,,,,['4bf58dd8d48988d151941735'],['Dining and Drinking > Restaurant > Mexican Restaurant > Taco Restaurant'],b'\x00\x00\x00\x00\x01\xc0Y\x94_\x0b#\x859@5\xda\x1bs\x8e\r\xab',"{'xmin': -102.31830099552907, 'ymin': 21.85198137491322, 'xmax': -102.31830099552907, 'ymax': 21.85198137491322}",dining and drinking > restaurant > mexican restaurant > taco restaurant,1
52483b99498ee6581598deb6,Gorditas Irma,21.8557712292331,-102.32057114476797,,,,,,,,MX,2013-09-29,2021-08-12,,,,,,,,['4bf58dd8d48988d151941735'],['Dining and Drinking > Restaurant > Mexican Restaurant > Taco Restaurant'],b'\x00\x00\x00\x00\x01\xc0Y\x94\x84<\xd5\xb4v@5\xdb\x13\xd2\xc2i\xf4',"{'xmin': -102.32057114476797, 'ymin': 21.8557712292331, 'xmax': -102.32057114476797, 'ymax': 21.8557712292331}",dining and drinking > restaurant > mexican restaurant > taco restaurant,1
5e0fbc5a486aaf0007961329,Tacos Locomotora 501 (Carne Asada),20.682987,-101.39835,,Villas de Irapuato,Guanajuato,,,,,MX,2020-01-03,2020-11-23,,,,,,,,['4bf58dd8d48988d151941735'],['Dining and Drinking > Restaurant > Mexican Restaurant > Taco Restaurant'],b'\x00\x00\x00\x00\x01\xc0YY~\x90\xff\x97$@4\xae\xd8<l\x97\xd9',"{'xmin': -101.39835, 'ymin': 20.682987, 'xmax': -101.39835, 'ymax': 20.682987}",dining and drinking > restaurant > mexican restaurant > taco restaurant,1
55c80064498e847ca12f6ddc,I Taco Barra de Navidad Taqueria,19.202338,-104.683483,,,,,,,,MX,2015-08-10,2021-08-13,,,,,,,,['4bf58dd8d48988d151941735'],['Dining and Drinking > Restaurant > Mexican Restaurant > Taco Restaurant'],b'\x00\x00\x00\x00\x01\xc0Z+\xbe/{\x17\xce@33\xcclT\xbc\xf1',"{'xmin': -104.683483, 'ymin': 19.202338, 'xmax': -104.683483, 'ymax': 19.202338}",dining and drinking > restaurant > mexican restaurant > taco restaurant,1
50b189bbe4b02b5015c2d1be,Tacos De Higado El Güero,21.856055713267377,-102.26423366197933,Hermanos Galeana,Aguascalientes,Aguascalientes,,,,,MX,2012-11-25,2020-11-30,,,,,,,,['4bf58dd8d48988d151941735'],['Dining and Drinking > Restaurant > Mexican Restaurant > Taco Restaurant'],b'\x00\x00\x00\x00\x01\xc0Y\x90\xe94N-\x07@5\xdb&w\x9c\t\x8f',"{'xmin': -102.26423366197933, 'ymin': 21.856055713267377, 'xmax': -102.26423366197933, 'ymax': 21.856055713267377}",dining and drinking > restaurant > mexican restaurant > taco restaurant,1
4d8d4f9c34f2cbff8435abe3,Taqueria Los Pepes,20.60165729906416,-103.41666183133378,Felipe Zetter #3489,Zapopan,Jalisco/Mexico,45079,,,,MX,2011-03-26,2020-11-26,,,,,,,,['4bf58dd8d48988d151941735'],['Dining and Drinking > Restaurant > Mexican Restaurant > Taco Restaurant'],b'\x00\x00\x00\x00\x01\xc0Y\xda\xaa\x96b\xc4|@4\x9a\x066v\xe1Y',"{'xmin': -103.41666183133378, 'ymin': 20.60165729906416, 'xmax': -103.41666183133378, 'ymax': 20.60165729906416}",dining and drinking > restaurant > mexican restaurant > taco restaurant,1
4d40e3bfcb84b60c8b718aab,Tacos Gascon,20.69891,-103.358952,,,,,,,,MX,2011-01-27,2021-08-16,,,,,,,,['4bf58dd8d48988d151941735'],['Dining and Drinking > Restaurant > Mexican Restaurant > Taco Restaurant'],b'\x00\x00\x00\x00\x01\xc0Y\xd6\xf9\x11\xcf5]@4\xb2\xeb\xc4\x08\xd8\xed',"{'xmin': -103.358952, 'ymin': 20.69891, 'xmax': -103.358952, 'ymax': 20.69891}",dining and drinking > restaurant > mexican restaurant > taco restaurant,1
5464390e498e7872e252254f,El Chavo,20.526846,-100.844443,,,,,,,,MX,2014-11-13,2021-08-17,,,,,,,,['4bf58dd8d48988d151941735'],['Dining and Drinking > Restaurant > Mexican Restaurant > Taco Restaurant'],b'\x00\x00\x00\x00\x01\xc0Y6\x0bZ\xa7\x15\x83@4\x86\xdfa$\x07F',"{'xmin': -100.844443, 'ymin': 20.526846, 'xmax': -100.844443, 'ymax': 20.526846}",dining and drinking > restaurant > mexican restaurant > taco restaurant,1
4f92e984e4b03742d9c4c271,Super Tacos Chano,19.945387239121338,-103.75879970977732,Matamoros,,,,,,,MX,2012-04-21,2021-08-12,,,,,,,,['4bf58dd8d48988d151941735'],['Dining and Drinking > Restaurant > Mexican Restaurant > Taco Restaurant'],"b'\x00\x00\x00\x00\x01\xc0Y\xf0\x90,\xa8mN@3\xf2\x04\xe5\xea\x14\xf6'","{'xmin': -103.75879970977732, 'ymin': 19.945387239121338, 'xmax': -103.75879970977732, 'ymax': 19.945387239121338}",dining and drinking > restaurant > mexican restaurant > taco restaurant,1
52d9fffd498eb628e8e0e024,Los famosos del expiatorio,21.11988,-101.675998,,,,,,,,MX,2014-01-18,2021-08-13,,,,,,,,['4bf58dd8d48988d151941735'],['Dining and Drinking > Restaurant > Mexican Restaurant > Taco Restaurant'],b'\x00\x00\x00\x00\x01\xc0YkC\x8d\x1d\x8aU@5\x1e\xb0t\xa7q\xc9',"{'xmin': -101.675998, 'ymin': 21.11988, 'xmax': -101.675998, 'ymax': 21.11988}",dining and drinking > restaurant > mexican restaurant > taco restaurant,1
5dbf86ca35ccda00083c84a9,Asadero Sonora,22.143891,-101.003279,,San Luis Potosí,S.L.P.,78270,,,,MX,2019-11-04,2020-11-24,,,,,,,,['4bf58dd8d48988d151941735'],['Dining and Drinking > Restaurant > Mexican Restaurant > Taco Restaurant'],b'\x00\x00\x00\x00\x01\xc0Y@5\xb9\x1fp\xdf@6$\xd6\nc0Q',"{'xmin': -101.003279, 'ymin': 22.143891, 'xmax': -101.003279, 'ymax': 22.143891}",dining and drinking > restaurant > mexican restaurant > taco restaurant,1
51106803e4b05725ba475de3,Tacos Charly,20.730751037597656,-103.41280364990234,,,,,,,,MX,2013-02-05,2021-08-16,,,,,,,,['4bf58dd8d48988d151941735'],['Dining and Drinking > Restaurant > Mexican Restaurant > Taco Restaurant'],b'\x00\x00\x00\x00\x01\xc0Y\xdak`\x00\x00\x00@4\xbb\x12\x80\x00\x00\x00',"{'xmin': -103.41280364990234, 'ymin': 20.730751037597656, 'xmax': -103.41280364990234, 'ymax': 20.730751037597656}",dining and drinking > restaurant > mexican restaurant > taco restaurant,1
4ef3f068469075d0944a0ba1,Dona Lupe Tacos Y Gorditas,20.52761034419031,-100.81811813085234,,Celaya,Guanajuato,,,,,MX,2011-12-23,2020-11-23,,,,,,,,['4bf58dd8d48988d151941735'],['Dining and Drinking > Restaurant > Mexican Restaurant > Taco Restaurant'],b'\x00\x00\x00\x00\x01\xc0Y4\\\x0c&\x11\xa1@4\x87\x11x\xb5T%',"{'xmin': -100.81811813085234, 'ymin': 20.52761034419031, 'xmax': -100.81811813085234, 'ymax': 20.52761034419031}",dining and drinking > restaurant > mexican restaurant > taco restaurant,1
56acfc70498e5de455ee7447,El Corral,19.258695,-103.743221,,,,,,,,MX,2016-01-30,2021-08-15,,,,,,,,['4bf58dd8d48988d151941735'],['Dining and Drinking > Restaurant > Mexican Restaurant > Taco Restaurant'],"b'\x00\x00\x00\x00\x01\xc0Y\xef\x90\xee\xd0,\xd4@3B9\xd5\xe4\xa3\x83'","{'xmin': -103.743221, 'ymin': 19.258695, 'xmax': -103.743221, 'ymax': 19.258695}",dining and drinking > restaurant > mexican restaurant > taco restaurant,1
59fba8d5db1d813e71de8265,El Merendero,21.022811,-101.258764,,Guanajuato,GTO,36000,,,,MX,2017-11-02,2020-11-23,,,,,,,,['4bf58dd8d48988d1c1941735' '4bf58dd8d48988d151941735'],"['Dining and Drinking > Restaurant > Mexican Restaurant'
 'Dining and Drinking > Restaurant > Mexican Restaurant > Taco Restaurant']",b'\x00\x00\x00\x00\x01\xc0YP\x8f\x96\xe1Xu@5\x05\xd6\xf1\x12\xfd3',"{'xmin': -101.258764, 'ymin': 21.022811, 'xmax': -101.258764, 'ymax': 21.022811}","dining and drinking > restaurant > mexican restaurant, dining and drinking > restaurant > mexican restaurant > taco restaurant",1
50e8e993e4b007fcbe2ae8cd,Enchiladas 108,21.87679,-102.28396,,,,,,,,MX,2013-01-06,2021-08-11,,,,,,,,['4bf58dd8d48988d151941735'],['Dining and Drinking > Restaurant > Mexican Restaurant > Taco Restaurant'],"b'\x00\x00\x00\x00\x01\xc0Y\x92,f\x90W\xd1@5\xe0uO7u\xb8'","{'xmin': -102.28396, 'ymin': 21.87679, 'xmax': -102.28396, 'ymax': 21.87679}",dining and drinking > restaurant > mexican restaurant > taco restaurant,1
4f883d4ce4b0e6f34761c250,El Güero de la Martinica,21.115875332346576,-101.66510612390157,"Av. La ""Tota"" Carbajal",Leon,Guanajuato,,,,,MX,2012-04-13,2020-11-20,,,,,,,,['4bf58dd8d48988d151941735'],['Dining and Drinking > Restaurant > Mexican Restaurant > Taco Restaurant'],b'\x00\x00\x00\x00\x01\xc0Yj\x91\x19F\xa1\xb3@5\x1d\xaa\x01z\xd7x',"{'xmin': -101.66510612390157, 'ymin': 21.115875332346576, 'xmax': -101.66510612390157, 'ymax': 21.115875332346576}",dining and drinking > restaurant > mexican restaurant > taco restaurant,1
51b3fa8d498e7d57b8ffa1a7,Tacos El Saucito,20.723886,-103.398009,,,,,,,,MX,2013-06-09,2021-08-13,,,,,,,,['4bf58dd8d48988d151941735'],['Dining and Drinking > Restaurant > Mexican Restaurant > Taco Restaurant'],b'\x00\x00\x00\x00\x01\xc0Y\xd9x\xfa\xbd\xa0\xe0@4\xb9P\x97\xc8\x08B',"{'xmin': -103.398009, 'ymin': 20.723886, 'xmax': -103.398009, 'ymax': 20.723886}",dining and drinking > restaurant > mexican restaurant > taco restaurant,1
509c830af31c3808807da574,Los Faisanes,20.683601616452016,-101.37756586074829,Av. Manuel Gomez Morin 3421,Irapuato,Guanajuato,,,,,MX,2012-11-09,2020-11-23,,462 135 6689,,,,,losfaisanes1,['4bf58dd8d48988d151941735'],['Dining and Drinking > Restaurant > Mexican Restaurant > Taco Restaurant'],"b""\x00\x00\x00\x00\x01\xc0YX*\n\x00\x00\x00@4\xaf\x00\x83\xfa'v""","{'xmin': -101.37756586074829, 'ymin': 20.683601616452016, 'xmax': -101.37756586074829, 'ymax': 20.683601616452016}",dining and drinking > restaurant > mexican restaurant > taco restaurant,1
5aed2d96be7078003908e5a8,Tacos Ramón,21.875307,-102.303,Laureles,Aguascalientes,Aguascalientes,20220,,,,MX,2018-05-05,2020-11-23,,,,,,,,['4bf58dd8d48988d151941735'],['Dining and Drinking > Restaurant > Mexican Restaurant > Taco Restaurant'],b'\x00\x00\x00\x00\x01\xc0Y\x93dZ\x1c\xac\x08@5\xe0\x14\x1e\x9a\xf5\xba',"{'xmin': -102.303, 'ymin': 21.875307, 'xmax': -102.303, 'ymax': 21.875307}",dining and drinking > restaurant > mexican restaurant > taco restaurant,1
603c1ad990d26834e71f12a7,Taquería Los Conquistadotes,20.679417,-101.363775,Bulevar Lázaro Cárdenas,Irapuato,GTO,36690,,,,MX,2021-02-28,2021-02-28,,,,,,,,['4bf58dd8d48988d151941735'],['Dining and Drinking > Restaurant > Mexican Restaurant > Taco Restaurant'],b'\x00\x00\x00\x00\x01\xc0YWH\x16\xf0\x06\x8e@4\xad\xeeE\xc3X\xb0',"{'xmin': -101.363775, 'ymin': 20.679417, 'xmax': -101.363775, 'ymax': 20.679417}",dining and drinking > restaurant > mexican restaurant > taco restaurant,1
4bdc9876afe8c9b69f295085,Los Altenos,20.689401799077984,-103.38723241682159,Av. Terranova 727,Guadalajara,JAL,,,,,MX,2010-05-01,2021-08-12,,,,,,,,['4bf58dd8d48988d151941735' '4bf58dd8d48988d1c1941735'],"['Dining and Drinking > Restaurant > Mexican Restaurant > Taco Restaurant'
 'Dining and Drinking > Restaurant > Mexican Restaurant']",b'\x00\x00\x00\x00\x01\xc0Y\xd8\xc8jy\x8c\xc9@4\xb0|\xa2\xe4\xd7\xf0',"{'xmin': -103.38723241682159, 'ymin': 20.689401799077984, 'xmax': -103.38723241682159, 'ymax': 20.689401799077984}","dining and drinking > restaurant > mexican restaurant > taco restaurant, dining and drinking > restaurant > mexican restaurant",1
51868eed498e31ce1c229261,Aqui es texcoco,20.64406,-105.214521,Av. Las Torres 448,Puerto Vallarta,,,,,,MX,2013-05-05,2020-11-23,,,,,,,,['4bf58dd8d48988d151941735'],['Dining and Drinking > Restaurant > Mexican Restaurant > Taco Restaurant'],b'\x00\x00\x00\x00\x01\xc0ZM\xba\xb6I\xd3\x89@4\xa4\xe1\x1d\xbc\xa9i',"{'xmin': -105.214521, 'ymin': 20.64406, 'xmax': -105.214521, 'ymax': 20.64406}",dining and drinking > restaurant > mexican restaurant > taco restaurant,1
4dea6b9fd22da22d4ed320c8,Carnitas Tianguis Revolución,20.61834508535162,-103.31420660018921,,Tlaquepaque,JAL,,,,,MX,2011-06-04,2020-11-25,,,,,,,,['4bf58dd8d48988d151941735'],['Dining and Drinking > Restaurant > Mexican Restaurant > Taco Restaurant'],b'\x00\x00\x00\x00\x01\xc0Y\xd4\x1b\xf6\x00\x00\x00@4\x9eK\xdd\x0f:@',"{'xmin': -103.31420660018921, 'ymin': 20.61834508535162, 'xmax': -103.31420660018921, 'ymax': 20.61834508535162}",dining and drinking > restaurant > mexican restaurant > taco restaurant,1
4fc795bde4b05590cdeebbb1,tacos el tacoloco,20.66118867268304,-103.33735011530534,,Guadalajara,,,,,,MX,2012-05-31,2021-08-15,,,,,,,,['4bf58dd8d48988d151941735'],['Dining and Drinking > Restaurant > Mexican Restaurant > Taco Restaurant'],"b'\x00\x00\x00\x00\x01\xc0Y\xd5\x97$\xf0""s@4\xa9C\xa9-\xa8\xc8'","{'xmin': -103.33735011530534, 'ymin': 20.66118867268304, 'xmax': -103.33735011530534, 'ymax': 20.66118867268304}",dining and drinking > restaurant > mexican restaurant > taco restaurant,1
4f446d48e4b0868b4118fe08,taqueria la muñequita,19.23916183748308,-103.7257066074435,"Juárez, Colima, COL",Colima,Colima,,,,,MX,2012-02-22,2020-11-30,,,,,,,,['4bf58dd8d48988d151941735'],['Dining and Drinking > Restaurant > Mexican Restaurant > Taco Restaurant'],b'\x00\x00\x00\x00\x01\xc0Y\xeeq\xfa ]\x80@3=9\xb5\xcep\xec',"{'xmin': -103.7257066074435, 'ymin': 19.23916183748308, 'xmax': -103.7257066074435, 'ymax': 19.23916183748308}",dining and drinking > restaurant > mexican restaurant > taco restaurant,1
513c039de4b0d54ad67132b7,Taqueria Guadalupana,21.16200037267733,-101.64915397590727,,,,,,,,MX,2013-03-10,2021-08-16,,,,,,,,['4bf58dd8d48988d151941735'],['Dining and Drinking > Restaurant > Mexican Restaurant > Taco Restaurant'],b'\x00\x00\x00\x00\x01\xc0Yi\x8b\xbd\x1e%\xc4@5)x\xdb>\x96\xc5',"{'xmin': -101.64915397590727, 'ymin': 21.16200037267733, 'xmax': -101.64915397590727, 'ymax': 21.16200037267733}",dining and drinking > restaurant > mexican restaurant > taco restaurant,1
5684a1f038fab3a34e555e33,Tacos de Tripas Héctor,21.85355062702185,-102.26389274995739,Av. Siglo XXI,Aguascalientes,Ags,,,,,MX,2015-12-31,2020-11-24,,,,,,,,['4bf58dd8d48988d151941735'],['Dining and Drinking > Restaurant > Mexican Restaurant > Taco Restaurant'],b'\x00\x00\x00\x00\x01\xc0Y\x90\xe3\x9ej\xad\xfc@5\xda\x82K<\x8a\x05',"{'xmin': -102.26389274995739, 'ymin': 21.85355062702185, 'xmax': -102.26389274995739, 'ymax': 21.85355062702185}",dining and drinking > restaurant > mexican restaurant > taco restaurant,1
4e2c59f9d22d3f83c8986a6a,Tacos De Barbacoa Angie,20.659874,-103.382038,,Guadalajara,Jalisco,,,,,MX,2011-07-24,2021-08-21,,,,,,,,['4bf58dd8d48988d151941735'],['Dining and Drinking > Restaurant > Mexican Restaurant > Taco Restaurant'],b'\x00\x00\x00\x00\x01\xc0Y\xd8sO\x82\xf5\x12@4\xa8\xed\x80\xa1{\x0f',"{'xmin': -103.382038, 'ymin': 20.659874, 'xmax': -103.382038, 'ymax': 20.659874}",dining and drinking > restaurant > mexican restaurant > taco restaurant,1
608b61aea4c02610be205222,Tacos Papis,20.905941,-100.73101,Salida Real a Querétaro 181,San Miguel de Allende,Guanajuato,,,,,MX,2021-04-30,2021-04-30,,,,,,,,['4bf58dd8d48988d151941735'],['Dining and Drinking > Restaurant > Mexican Restaurant > Taco Restaurant'],"b'\x00\x00\x00\x00\x01\xc0Y.\xc8\xde*\xc3""@4\xe7\xeb\xbf\xd7\x1b\x04'","{'xmin': -100.73101, 'ymin': 20.905941, 'xmax': -100.73101, 'ymax': 20.905941}",dining and drinking > restaurant > mexican restaurant > taco restaurant,1
5246411d498e3aa27fe80d0f,tacos don miguelon,21.132808685302734,-101.6673812866211,,,,,,,,MX,2013-09-28,2021-08-10,,,,,,,,['4bf58dd8d48988d151941735'],['Dining and Drinking > Restaurant > Mexican Restaurant > Taco Restaurant'],b'\x00\x00\x00\x00\x01\xc0Yj\xb6`\x00\x00\x00@5!\xff\xc0\x00\x00\x00',"{'xmin': -101.6673812866211, 'ymin': 21.132808685302734, 'xmax': -101.6673812866211, 'ymax': 21.132808685302734}",dining and drinking > restaurant > mexican restaurant > taco restaurant,1
5152181be4b088768804f349,taqueria Aranda,20.424171474852034,-101.72225629484909,Sin Nombre,Penjamo,guanajuato,,,,,MX,2013-03-26,2023-12-21,,800 475 1100,,,,,,['4bf58dd8d48988d151941735'],['Dining and Drinking > Restaurant > Mexican Restaurant > Taco Restaurant'],b'\x00\x00\x00\x00\x01\xc0Yn9rwm?@4l\x96\x80tb\xb5',"{'xmin': -101.72225629484909, 'ymin': 20.424171474852034, 'xmax': -101.72225629484909, 'ymax': 20.424171474852034}",dining and drinking > restaurant > mexican restaurant > taco restaurant,1
50ac458ce4b0e228b960b953,"""Los LUPES"" Taquería",20.668954255493414,-103.33368443398122,Rivas Guillén #40,Guadalajara,Jalisco,,,,,MX,2012-11-21,2021-08-17,,,,,,,,['4bf58dd8d48988d151941735'],['Dining and Drinking > Restaurant > Mexican Restaurant > Taco Restaurant'],b'\x00\x00\x00\x00\x01\xc0Y\xd5[\x15\xf4\xc8\x8d@4\xab@\x96\t\xdd?',"{'xmin': -103.33368443398122, 'ymin': 20.668954255493414, 'xmax': -103.33368443398122, 'ymax': 20.668954255493414}",dining and drinking > restaurant > mexican restaurant > taco restaurant,1
5a3d4ffe49281473fe6b2dc6,Tacos Y Carnes Asadas A La Leña,20.535807,-100.77722,,Celaya,Guanajuato,,,,,MX,2017-12-22,2020-11-21,,,,,,,,['4bf58dd8d48988d151941735'],['Dining and Drinking > Restaurant > Mexican Restaurant > Taco Restaurant'],b'\x00\x00\x00\x00\x01\xc0Y1\xbd\xf8\xf4s\x04@4\x89*\xa5\xc5\xf7\xc6',"{'xmin': -100.77722, 'ymin': 20.535807, 'xmax': -100.77722, 'ymax': 20.535807}",dining and drinking > restaurant > mexican restaurant > taco restaurant,1
51ec0eda498e74df951d71e3,Pacharelas Boulervard,20.519892379319987,-100.82066938474196,,,,,,,,MX,2013-07-21,2021-08-15,,,,,,,,['4bf58dd8d48988d151941735'],['Dining and Drinking > Restaurant > Mexican Restaurant > Taco Restaurant'],b'\x00\x00\x00\x00\x01\xc0Y4\x85\xd8\xe2\x12\xe4@4\x85\x17\xaa\xbe\x9eu',"{'xmin': -100.82066938474196, 'ymin': 20.519892379319987, 'xmax': -100.82066938474196, 'ymax': 20.519892379319987}",dining and drinking > restaurant > mexican restaurant > taco restaurant,1
528508c411d240ce52e83d24,Gorditas Marfil,20.999724901789666,-101.28655533991517,Real de Marfil,Guanajuato,Guanajuato,,,,,MX,2013-11-14,2020-11-26,,,,,,,,['4bf58dd8d48988d1c1941735' '4bf58dd8d48988d151941735'],"['Dining and Drinking > Restaurant > Mexican Restaurant'
 'Dining and Drinking > Restaurant > Mexican Restaurant > Taco Restaurant']",b'\x00\x00\x00\x00\x01\xc0YRV\xec5[\x82@4\xff\xed\xf8\x9e.\xf5',"{'xmin': -101.28655533991517, 'ymin': 20.999724901789666, 'xmax': -101.28655533991517, 'ymax': 20.999724901789666}","dining and drinking > restaurant > mexican restaurant, dining and drinking > restaurant > mexican restaurant > taco restaurant",1
52debeba498ea76e0ee8f808,Taqueria El Guero,22.152858,-100.970663,calle Vicente Chico Sein # 108,,,,,,,MX,2014-01-21,2021-08-14,,,,,,,,['4bf58dd8d48988d151941735'],['Dining and Drinking > Restaurant > Mexican Restaurant > Taco Restaurant'],"b""\x00\x00\x00\x00\x01\xc0Y>\x1fW\xb4\x1b\xfc@6'!\xb3\xae\xee\x95""","{'xmin': -100.970663, 'ymin': 22.152858, 'xmax': -100.970663, 'ymax': 22.152858}",dining and drinking > restaurant > mexican restaurant > taco restaurant,1
597d5277bd40092a3068773c,Tacos Chuchu,20.669318,-103.429054,Av Ludwing Van Bettoven 5262,Zapopan,JAL,45030,,,,MX,2017-07-30,2020-11-22,,,,,,,,['4bf58dd8d48988d151941735'],['Dining and Drinking > Restaurant > Mexican Restaurant > Taco Restaurant'],b'\x00\x00\x00\x00\x01\xc0Y\xdbu\x9e\xe8\x8d\xf3@4\xabXl\xa8\x9f\xc7',"{'xmin': -103.429054, 'ymin': 20.669318, 'xmax': -103.429054, 'ymax': 20.669318}",dining and drinking > restaurant > mexican restaurant > taco restaurant,1
53456336498ee5dc8946721d,el sabor de nueva italia,19.674151,-101.21921,,,,,,,,MX,2014-04-09,2021-08-14,,,,,,,,['4bf58dd8d48988d151941735'],['Dining and Drinking > Restaurant > Mexican Restaurant > Taco Restaurant'],b'\x00\x00\x00\x00\x01\xc0YN\x07\x89a=2@3\xac\x95(\xf1\x90\xd1',"{'xmin': -101.21921, 'ymin': 19.674151, 'xmax': -101.21921, 'ymax': 19.674151}",dining and drinking > restaurant > mexican restaurant > taco restaurant,1
590d2e12c824ae79c85ad8e0,Tacos sin Nombre 2 X 1,20.652457,-103.438856,Tepeyac,Guadalajara,JAL,45053,,,,MX,2017-05-06,2020-11-25,,,,,,,,['4bf58dd8d48988d151941735'],['Dining and Drinking > Restaurant > Mexican Restaurant > Taco Restaurant'],b'\x00\x00\x00\x00\x01\xc0Y\xdc\x167y\xe9\xd1@4\xa7\x07l\x05\x0b\xd8',"{'xmin': -103.438856, 'ymin': 20.652457, 'xmax': -103.438856, 'ymax': 20.652457}",dining and drinking > restaurant > mexican restaurant > taco restaurant,1
509a9cfde4b095fae6f59538,super tacos de canasta,21.500822067260742,-104.91313934326172,,,,,,,,MX,2012-11-07,2021-08-13,,,,,,,,['4bf58dd8d48988d151941735'],['Dining and Drinking > Restaurant > Mexican Restaurant > Taco Restaurant'],b'\x00\x00\x00\x00\x01\xc0Z:p\xe0\x00\x00\x00@5\x805\xe0\x00\x00\x00',"{'xmin': -104.91313934326172, 'ymin': 21.500822067260742, 'xmax': -104.91313934326172, 'ymax': 21.500822067260742}",dining and drinking > restaurant > mexican restaurant > taco restaurant,1
4ee25e24be7b2be760a18e19,El Rinconcito,20.575963292925884,-103.31412840640557,Carr A Chapala,,,,,,,MX,2011-12-09,2021-08-16,,,,,,,,['4bf58dd8d48988d151941735'],['Dining and Drinking > Restaurant > Mexican Restaurant > Taco Restaurant'],b'\x00\x00\x00\x00\x01\xc0Y\xd4\x1a\xae\x08\x10k@4\x93rT\x92\xd0*',"{'xmin': -103.31412840640557, 'ymin': 20.575963292925884, 'xmax': -103.31412840640557, 'ymax': 20.575963292925884}",dining and drinking > restaurant > mexican restaurant > taco restaurant,1
50ccad50e4b029bca5b1574f,Tacos Los Primos,20.630828945932713,-103.40164077975378,Avenida Tabachines,Tlaquepaque,Jalisco,,,,,MX,2012-12-15,2020-11-22,,,,,,,,['4bf58dd8d48988d151941735' '4bf58dd8d48988d1cb941735'],"['Dining and Drinking > Restaurant > Mexican Restaurant > Taco Restaurant'
 'Dining and Drinking > Food Truck']",b'\x00\x00\x00\x00\x01\xc0Y\xd9\xb4{\x87r\x13@4\xa1~\x01|&\xb2',"{'xmin': -103.40164077975378, 'ymin': 20.630828945932713, 'xmax': -103.40164077975378, 'ymax': 20.630828945932713}","dining and drinking > restaurant > mexican restaurant > taco restaurant, dining and drinking > food truck",1
508c9428e4b07f1e639afb6e,Taqueria El Apache,20.141445481459435,-101.18391027249318,Urrutia,Uriangato,Guanajuato,38980,,,,MX,2012-10-28,2020-11-30,,,,,,,,['4bf58dd8d48988d151941735'],['Dining and Drinking > Restaurant > Mexican Restaurant > Taco Restaurant'],b'\x00\x00\x00\x00\x01\xc0YK\xc5/\x97pm@4$5\xc5e\t\x06',"{'xmin': -101.18391027249318, 'ymin': 20.141445481459435, 'xmax': -101.18391027249318, 'ymax': 20.141445481459435}",dining and drinking > restaurant > mexican restaurant > taco restaurant,1
581d4dbec25d200214e8c729,Tacos el Cholo,21.086769,-101.649093,,,,,,,,MX,2016-11-05,2021-08-17,,,,,,,,['4bf58dd8d48988d151941735'],['Dining and Drinking > Restaurant > Mexican Restaurant > Taco Restaurant'],b'\x00\x00\x00\x00\x01\xc0Yi\x8a\xbd]\xc4\x00@5\x166~AN\x7f',"{'xmin': -101.649093, 'ymin': 21.086769, 'xmax': -101.649093, 'ymax': 21.086769}",dining and drinking > restaurant > mexican restaurant > taco restaurant,1
4de6f5111f6e396609760d01,Tacos del tope,20.67563178256683,-103.44936847686768,av central 200,Zapopan,Jalisco,,,,,MX,2011-06-02,2020-11-25,,,,,,,,['4bf58dd8d48988d151941735'],['Dining and Drinking > Restaurant > Mexican Restaurant > Taco Restaurant'],b'\x00\x00\x00\x00\x01\xc0Y\xdc\xc2t\x00\x00\x00@4\xac\xf64ZCA',"{'xmin': -103.44936847686768, 'ymin': 20.67563178256683, 'xmax': -103.44936847686768, 'ymax': 20.67563178256683}",dining and drinking > restaurant > mexican restaurant > taco restaurant,1
59619bf135d3fc3e62a2ebfa,Tacos Vallartita,22.156475,-100.98554,,San Luis Potosí,San Luis Potosí,,,,,MX,2017-07-09,2020-11-21,,,,,,,,['4bf58dd8d48988d151941735'],['Dining and Drinking > Restaurant > Mexican Restaurant > Taco Restaurant'],b'\x00\x00\x00\x00\x01\xc0Y?\x13\x16]9\x97@6(\x0e\xbe\xdf\xa4@',"{'xmin': -100.98554, 'ymin': 22.156475, 'xmax': -100.98554, 'ymax': 22.156475}",dining and drinking > restaurant > mexican restaurant > taco restaurant,1
65c401f3df1372227097e2db,Tortas Y Antojos San Anita,21.889823,-102.313504,,Aguascalientes,Ags.,20040,,,,MX,2024-02-07,2024-02-07,,,,,,,,"['4bf58dd8d48988d1c5941735' '4bf58dd8d48988d151941735'
 '4bf58dd8d48988d143941735']","['Dining and Drinking > Restaurant > Sandwich Spot'
 'Dining and Drinking > Restaurant > Mexican Restaurant > Taco Restaurant'
 'Dining and Drinking > Breakfast Spot']",b'\x00\x00\x00\x00\x01\xc0Y\x94\x10s\x14\xca\x92@5\xe3\xcbp\xac:\x86',"{'xmin': -102.313504, 'ymin': 21.889823, 'xmax': -102.313504, 'ymax': 21.889823}","dining and drinking > restaurant > sandwich spot, dining and drinking > restaurant > mexican restaurant > taco restaurant, dining and drinking > breakfast spot",1
4f073b58e4b0945c69a8022c,La Barra,20.346548080444336,-102.02539825439453,,,,,,,,MX,2012-01-06,2021-08-16,,,,,,,,['4bf58dd8d48988d151941735'],['Dining and Drinking > Restaurant > Mexican Restaurant > Taco Restaurant'],b'\x00\x00\x00\x00\x01\xc0Y\x81\xa0 \x00\x00\x00@4X\xb7`\x00\x00\x00',"{'xmin': -102.02539825439453, 'ymin': 20.346548080444336, 'xmax': -102.02539825439453, 'ymax': 20.346548080444336}",dining and drinking > restaurant > mexican restaurant > taco restaurant,1
4dcb5b3d52b17cba4fa74819,Tacos Rafita,21.185262254492702,-101.66608671948774,Plomo 100 granjas de echeveste,León,GTO,,,,,MX,2011-05-12,2020-11-24,,,,,,,,['4bf58dd8d48988d151941735'],['Dining and Drinking > Restaurant > Mexican Restaurant > Taco Restaurant'],b'\x00\x00\x00\x00\x01\xc0Yj\xa1*1\x1f\xfc@5/mX\xdc:\xb9',"{'xmin': -101.66608671948774, 'ymin': 21.185262254492702, 'xmax': -101.66608671948774, 'ymax': 21.185262254492702}",dining and drinking > restaurant > mexican restaurant > taco restaurant,1
57000408498e53c6f42899e8,Birreria y Taqueria liz,20.618206,-105.230789,,,,,,,,MX,2016-04-02,2021-08-14,,,,,,,,['4bf58dd8d48988d151941735'],['Dining and Drinking > Restaurant > Mexican Restaurant > Taco Restaurant'],b'\x00\x00\x00\x00\x01\xc0ZN\xc5?9\xd1\xb3@4\x9eB\xbf\x980\xe4',"{'xmin': -105.230789, 'ymin': 20.618206, 'xmax': -105.230789, 'ymax': 20.618206}",dining and drinking > restaurant > mexican restaurant > taco restaurant,1
588c124eea1c0d4369cc9dd0,Tacos El Locuenamorado,20.54253,-100.6929,,Apaseo el Grande,Guanajuato,,,,,MX,2017-01-28,2020-11-22,,,,,,,,['4bf58dd8d48988d151941735'],['Dining and Drinking > Restaurant > Mexican Restaurant > Taco Restaurant'],"b'\x00\x00\x00\x00\x01\xc0Y,Xy=\xd9\x7f@4\x8a\xe3>\xff\x19P'","{'xmin': -100.6929, 'ymin': 20.54253, 'xmax': -100.6929, 'ymax': 20.54253}",dining and drinking > restaurant > mexican restaurant > taco restaurant,1
59eeb721b9ac38451eb354b5,El Gran Jardin,20.979199,-101.697914,,San Cristóbal,GTO,,,,,MX,2017-10-24,2020-11-23,,,,,,,,['4bf58dd8d48988d151941735'],['Dining and Drinking > Restaurant > Mexican Restaurant > Taco Restaurant'],b'\x00\x00\x00\x00\x01\xc0Yl\xaa\x9f{Z\xea@4\xfa\xac\xc9!F\xa2',"{'xmin': -101.697914, 'ymin': 20.979199, 'xmax': -101.697914, 'ymax': 20.979199}",dining and drinking > restaurant > mexican restaurant > taco restaurant,1
5c951ca9088158002c958006,Tacos Doña Lupe,20.642385,-103.260765,,Tonalá,Jalisco,45404,,,,MX,2019-03-22,2020-11-21,,,,,,,,['4bf58dd8d48988d151941735'],['Dining and Drinking > Restaurant > Mexican Restaurant > Taco Restaurant'],b'\x00\x00\x00\x00\x01\xc0Y\xd0\xb0_\xae\xbcA@4\xa4sW\xe6p\xe3',"{'xmin': -103.260765, 'ymin': 20.642385, 'xmax': -103.260765, 'ymax': 20.642385}",dining and drinking > restaurant > mexican restaurant > taco restaurant,1
4e6e6e5118380b4aac6ae6c5,Carnes Asadas Revolucion,20.66285902393488,-103.32881206163694,Av Revolucion 1183,Guadalajara,Jalisco,,,,,MX,2011-09-12,2021-08-30,,,,,,,,['4bf58dd8d48988d1df931735' '4bf58dd8d48988d151941735'],"['Dining and Drinking > Restaurant > BBQ Joint'
 'Dining and Drinking > Restaurant > Mexican Restaurant > Taco Restaurant']",b'\x00\x00\x00\x00\x01\xc0Y\xd5\x0bA\xbe\xd0\xb4@4\xa9\xb1!\x05\xa8\xa7',"{'xmin': -103.32881206163694, 'ymin': 20.66285902393488, 'xmax': -103.32881206163694, 'ymax': 20.66285902393488}","dining and drinking > restaurant > bbq joint, dining and drinking > restaurant > mexican restaurant > taco restaurant",1
dfcc9e53c2ca4912941b0391,El Papalote,21.858562,-102.273644,Avenida La Juventud 3709,Chihuahua,Chihuahua,20266,,,,MX,2013-05-03,2024-07-06,,614 541 5757,http://www.elpapalote.com,luisflores72@gmail.com,,,,['4bf58dd8d48988d151941735'],['Dining and Drinking > Restaurant > Mexican Restaurant > Taco Restaurant'],b'\x00\x00\x00\x00\x01\xc0Y\x91\x83b\x1f\xaf\xc9@5\xdb\xca\xb8\x1f\x96\x9e',"{'xmin': -102.273644, 'ymin': 21.858562, 'xmax': -102.273644, 'ymax': 21.858562}",dining and drinking > restaurant > mexican restaurant > taco restaurant,1
57996907498e32361bf5b5f9,Taquería La Tostada,22.155882,-101.00371,,San Luis Potosí,San Luis Potosí,78200,,,,MX,2016-07-28,2020-11-25,,,,,,,,['4bf58dd8d48988d151941735'],['Dining and Drinking > Restaurant > Mexican Restaurant > Taco Restaurant'],"b""\x00\x00\x00\x00\x01\xc0Y@<\xc8\xde*\xc3@6'\xe7\xe1\xfc\x08\xfa""","{'xmin': -101.00371, 'ymin': 22.155882, 'xmax': -101.00371, 'ymax': 22.155882}",dining and drinking > restaurant > mexican restaurant > taco restaurant,1
52004c20498e406f406d1062,taqueria napo,20.451946662658674,-101.52921512743623,Hidalgo,"Abasolo, GTO",,,,,,MX,2013-08-06,2020-11-25,,,,,,,,['4bf58dd8d48988d151941735'],['Dining and Drinking > Restaurant > Mexican Restaurant > Taco Restaurant'],b'\x00\x00\x00\x00\x01\xc0Ya\xde\xa9 8\xc6@4s\xb2\xc6\xc7\xa7\xc5',"{'xmin': -101.52921512743623, 'ymin': 20.451946662658674, 'xmax': -101.52921512743623, 'ymax': 20.451946662658674}",dining and drinking > restaurant > mexican restaurant > taco restaurant,1
51eb9d09498e6aba26742b1c,Super Tacos,20.880399644042225,-103.8292028608984,Carretera Internacional 606,Tequila,,,,,,MX,2013-07-21,2020-11-25,,,,,,,,['4bf58dd8d48988d1cb941735' '4bf58dd8d48988d151941735'],"['Dining and Drinking > Food Truck'
 'Dining and Drinking > Restaurant > Mexican Restaurant > Taco Restaurant']",b'\x00\x00\x00\x00\x01\xc0Y\xf5\x11\xa8\xe0S\xbb@4\xe1a\xde\xfe\x92G',"{'xmin': -103.8292028608984, 'ymin': 20.880399644042225, 'xmax': -103.8292028608984, 'ymax': 20.880399644042225}","dining and drinking > food truck, dining and drinking > restaurant > mexican restaurant > taco restaurant",1
550ba72c498e47c6c7e21ed9,Tacos Roger Bacon,20.696896005419823,-103.33491947477641,Rogelio Bacon,Guadalajara,Jalisco,44290,,,,MX,2015-03-20,2021-08-17,,,,,,,,['4bf58dd8d48988d151941735'],['Dining and Drinking > Restaurant > Mexican Restaurant > Taco Restaurant'],b'\x00\x00\x00\x00\x01\xc0Y\xd5oR\x17\xbdS@4\xb2g\xc6\xcf\xfd\xbe',"{'xmin': -103.33491947477641, 'ymin': 20.696896005419823, 'xmax': -103.33491947477641, 'ymax': 20.696896005419823}",dining and drinking > restaurant > mexican restaurant > taco restaurant,1
50f8807be4b04cc17414307c,La Ballena,20.64353445536267,-103.31916373835166,,,,,,,,MX,2013-01-17,2021-08-16,,,,,,,,['4bf58dd8d48988d151941735'],['Dining and Drinking > Restaurant > Mexican Restaurant > Taco Restaurant'],b'\x00\x00\x00\x00\x01\xc0Y\xd4m-\xbe\x92\x87@4\xa4\xbe\xac\x8f\xa1\xc0',"{'xmin': -103.31916373835166, 'ymin': 20.64353445536267, 'xmax': -103.31916373835166, 'ymax': 20.64353445536267}",dining and drinking > restaurant > mexican restaurant > taco restaurant,1
4e5079c418383eb2af316eb6,El Taco Es,19.269254108154716,-103.71649823342446,,Colima,Colima,,,,,MX,2011-08-21,2020-11-30,,,,,,,,['4bf58dd8d48988d151941735'],['Dining and Drinking > Restaurant > Mexican Restaurant > Taco Restaurant'],b'\x00\x00\x00\x00\x01\xc0Y\xed\xdb\x1bh\x0c\xca@3D\xed\xd6T\xd6\x91',"{'xmin': -103.71649823342446, 'ymin': 19.269254108154716, 'xmax': -103.71649823342446, 'ymax': 19.269254108154716}",dining and drinking > restaurant > mexican restaurant > taco restaurant,1
52d4c4de11d28eb0c5e5db40,Don Zacateco,20.676575336374793,-103.36924552917479,Av. Hidalgo 1465,Guadalajara,Jalisco,,,,,MX,2014-01-14,2021-08-11,,33 1333 0316,,,,,,['4bf58dd8d48988d151941735'],['Dining and Drinking > Restaurant > Mexican Restaurant > Taco Restaurant'],b'\x00\x00\x00\x00\x01\xc0Y\xd7\xa1\xb7\xff\xff\xff@4\xad4\n\x8f\x02\x8b',"{'xmin': -103.36924552917479, 'ymin': 20.676575336374793, 'xmax': -103.36924552917479, 'ymax': 20.676575336374793}",dining and drinking > restaurant > mexican restaurant > taco restaurant,1
575a3021498e520dcbb8de76,Pp's,19.685196,-101.200554,,,,,,,,MX,2016-06-10,2021-08-13,,,,,,,,['4bf58dd8d48988d151941735'],['Dining and Drinking > Restaurant > Mexican Restaurant > Taco Restaurant'],b'\x00\x00\x00\x00\x01\xc0YL\xd5\xe0q\xc5?@3\xafi\x01KY\x9b',"{'xmin': -101.200554, 'ymin': 19.685196, 'xmax': -101.200554, 'ymax': 19.685196}",dining and drinking > restaurant > mexican restaurant > taco restaurant,1
50f57ff6e4b0720a5e1294ec,Tacos de Barbacoa El Compa,20.722402534565465,-103.39049745000256,Morelos,Zapopan,,,,,,MX,2013-01-15,2020-11-22,,,,,,,,['4bf58dd8d48988d151941735'],['Dining and Drinking > Restaurant > Mexican Restaurant > Taco Restaurant'],b'\x00\x00\x00\x00\x01\xc0Y\xd8\xfd\xe9\x04;\xac@4\xb8\xef_\\\x81\x95',"{'xmin': -103.39049745000256, 'ymin': 20.722402534565465, 'xmax': -103.39049745000256, 'ymax': 20.722402534565465}",dining and drinking > restaurant > mexican restaurant > taco restaurant,1
518121cc498e49e7f6c3167e,Tacos De Famsa,22.152708053588867,-100.94845581054688,,,,,,,,MX,2013-05-01,2020-11-25,,,,,,,,['4bf58dd8d48988d151941735'],['Dining and Drinking > Restaurant > Mexican Restaurant > Taco Restaurant'],"b""\x00\x00\x00\x00\x01\xc0Y<\xb3\x80\x00\x00\x00@6'\x17\xe0\x00\x00\x00""","{'xmin': -100.94845581054688, 'ymin': 22.152708053588867, 'xmax': -100.94845581054688, 'ymax': 22.152708053588867}",dining and drinking > restaurant > mexican restaurant > taco restaurant,1
531802b5498efe394a4f1fdf,Tacos De Carne De PERRO los Chamulas,20.636662,-103.37163,,Guadalajara,Jalisco,,,,,MX,2014-03-06,2021-08-16,,,,,,,,['4bf58dd8d48988d151941735'],['Dining and Drinking > Restaurant > Mexican Restaurant > Taco Restaurant'],b'\x00\x00\x00\x00\x01\xc0Y\xd7\xc8\xc92\r\x99@4\xa2\xfcG\xe4\x9b ',"{'xmin': -103.37163, 'ymin': 20.636662, 'xmax': -103.37163, 'ymax': 20.636662}",dining and drinking > restaurant > mexican restaurant > taco restaurant,1
5116acc9e4b0030c4aacef48,tacos de la penal,20.675065994262695,-103.32584381103516,,,,,,,,MX,2013-02-09,2021-08-14,,,,,,,,['4bf58dd8d48988d151941735'],['Dining and Drinking > Restaurant > Mexican Restaurant > Taco Restaurant'],b'\x00\x00\x00\x00\x01\xc0Y\xd4\xda\xa0\x00\x00\x00@4\xac\xd1 \x00\x00\x00',"{'xmin': -103.32584381103516, 'ymin': 20.675065994262695, 'xmax': -103.32584381103516, 'ymax': 20.675065994262695}",dining and drinking > restaurant > mexican restaurant > taco restaurant,1
4e86108277c85dc9b1a39068,Tacos Pipes,20.739275,-103.424809,,Zapopan,Jalisco,,,,,MX,2011-09-30,2020-11-22,2014-10-26,,,,,,,['4bf58dd8d48988d151941735'],['Dining and Drinking > Restaurant > Mexican Restaurant > Taco Restaurant'],b'\x00\x00\x00\x00\x01\xc0Y\xdb0\x12\x16\x82\xf9@4\xbdA [\xc0\x1a',"{'xmin': -103.424809, 'ymin': 20.739275, 'xmax': -103.424809, 'ymax': 20.739275}",dining and drinking > restaurant > mexican restaurant > taco restaurant,1
4e462873e4cd9d94fb1e9a2e,El Gallo,22.148978,-101.022978,,San Luis Potosí,San Luis Potosí,,,,,MX,2011-08-13,2020-11-23,,,,,,,,['4bf58dd8d48988d151941735'],['Dining and Drinking > Restaurant > Mexican Restaurant > Taco Restaurant'],b'\x00\x00\x00\x00\x01\xc0YAxx\xb7\xa1\xc2@6&#l\x15\xd2\xd0',"{'xmin': -101.022978, 'ymin': 22.148978, 'xmax': -101.022978, 'ymax': 22.148978}",dining and drinking > restaurant > mexican restaurant > taco restaurant,1
51c47c4f498e037431f20b04,La Sonrisa Del Diablo,20.5094721549652,-100.99106943262788,,,,,,,,MX,2013-06-21,2021-08-11,,,,,,,,['4bf58dd8d48988d151941735'],['Dining and Drinking > Restaurant > Mexican Restaurant > Taco Restaurant'],b'\x00\x00\x00\x00\x01\xc0Y?m\xae|L\xee@4\x82l\xc4c\xccU',"{'xmin': -100.99106943262788, 'ymin': 20.5094721549652, 'xmax': -100.99106943262788, 'ymax': 20.5094721549652}",dining and drinking > restaurant > mexican restaurant > taco restaurant,1
525a0d6d11d2588b03791f9c,Taquería Ragubelo,21.919428441271354,-102.27468430995941,Rosa Versilia #201,Aguascalientes,AGS,20126,,,,MX,2013-10-13,2020-11-25,,449 251 2777,,,,,,['4bf58dd8d48988d151941735'],['Dining and Drinking > Restaurant > Mexican Restaurant > Taco Restaurant'],b'\x00\x00\x00\x00\x01\xc0Y\x91\x94m\x80\x00\x00@5\xeb_\xa9\x8eE\xd1',"{'xmin': -102.27468430995941, 'ymin': 21.919428441271354, 'xmax': -102.27468430995941, 'ymax': 21.919428441271354}",dining and drinking > restaurant > mexican restaurant > taco restaurant,1
51f74396498e9fdd021fd6ad,Tacos los Primos,22.151286047084426,-100.8996930550171,Cordillera Oriental 905,Soledad de Graciano Sanchez,San Luis Potosí,,,,,MX,2013-07-30,2020-11-24,,,,,,,,['4bf58dd8d48988d151941735'],['Dining and Drinking > Restaurant > Mexican Restaurant > Taco Restaurant'],"b""\x00\x00\x00\x00\x01\xc0Y9\x94\x92-\xef'@6&\xba\xae\xb0\x91\x98""","{'xmin': -100.8996930550171, 'ymin': 22.151286047084426, 'xmax': -100.8996930550171, 'ymax': 22.151286047084426}",dining and drinking > restaurant > mexican restaurant > taco restaurant,1
662d632ce9b8d25f178fdffd,Asados Victoria,21.099562,-101.637335,Centie Max,León,Gto.,37530,,,,MX,2024-04-27,2024-04-27,,,,,,,,['4bf58dd8d48988d151941735'],['Dining and Drinking > Restaurant > Mexican Restaurant > Taco Restaurant'],"b""\x00\x00\x00\x00\x01\xc0Yh\xca\x18\xbdf'@5\x19|\xe5-\xec\xa2""","{'xmin': -101.637335, 'ymin': 21.099562, 'xmax': -101.637335, 'ymax': 21.099562}",dining and drinking > restaurant > mexican restaurant > taco restaurant,1
64eac0b4ad77822f622acb47,Asadero Los Vales,20.707454,-103.349355,,Guadalajara,Jal.,44220,,,,MX,2023-08-27,2023-08-27,,,,,,,,['4bf58dd8d48988d151941735' '4bf58dd8d48988d1df931735'],"['Dining and Drinking > Restaurant > Mexican Restaurant > Taco Restaurant'
 'Dining and Drinking > Restaurant > BBQ Joint']",b'\x00\x00\x00\x00\x01\xc0Y\xd6[\xd5\x12\xecl@4\xb5\x1b\xb4\x91l\xa4',"{'xmin': -103.349355, 'ymin': 20.707454, 'xmax': -103.349355, 'ymax': 20.707454}","dining and drinking > restaurant > mexican restaurant > taco restaurant, dining and drinking > restaurant > bbq joint",1
55730e0c498e9a716ae5c798,"carnitas ""LA PERRAS""",20.594799,-103.335737,,,,,,,,MX,2015-06-06,2021-08-15,,,,,,,,['4bf58dd8d48988d151941735'],['Dining and Drinking > Restaurant > Mexican Restaurant > Taco Restaurant'],b'\x00\x00\x00\x00\x01\xc0Y\xd5|\xb7\n\xc3\xa8@4\x98D\xbfL\xb1\x89',"{'xmin': -103.335737, 'ymin': 20.594799, 'xmax': -103.335737, 'ymax': 20.594799}",dining and drinking > restaurant > mexican restaurant > taco restaurant,1
5a5c0ea825ecca0ede75aefb,Locos De Asar,20.627008,-103.416176,av. 18 de marzo 1974 A,Zapopan,Jalisco,45080,,,,MX,2018-01-15,2020-11-22,,,,,,,,['4bf58dd8d48988d151941735'],['Dining and Drinking > Restaurant > Mexican Restaurant > Taco Restaurant'],b'\x00\x00\x00\x00\x01\xc0Y\xda\xa2\xa0\xa9XS@4\xa0\x83\x98\xa6T\x93',"{'xmin': -103.416176, 'ymin': 20.627008, 'xmax': -103.416176, 'ymax': 20.627008}",dining and drinking > restaurant > mexican restaurant > taco restaurant,1
54eaa935498e8a6e35b32062,tacos el petete,20.709885438334922,-103.35164728422372,,,,,,,,MX,2015-02-23,2021-08-11,,,,,,,,['4bf58dd8d48988d151941735'],['Dining and Drinking > Restaurant > Mexican Restaurant > Taco Restaurant'],b'\x00\x00\x00\x00\x01\xc0Y\xd6\x81c\x9c]\xf5@4\xb5\xbb\rU\x8e\x1c',"{'xmin': -103.35164728422372, 'ymin': 20.709885438334922, 'xmax': -103.35164728422372, 'ymax': 20.709885438334922}",dining and drinking > restaurant > mexican restaurant > taco restaurant,1
615132f59e3f816dff2ddb9d,Taquería Danna,19.280827,-104.78822,,,Jalisco,48898,,,,MX,2021-09-27,2021-09-27,,,,,,,,['4bf58dd8d48988d151941735'],['Dining and Drinking > Restaurant > Mexican Restaurant > Taco Restaurant'],b'\x00\x00\x00\x00\x01\xc0Z2r2L\x83f@3G\xe4G<\xd5s',"{'xmin': -104.78822, 'ymin': 19.280827, 'xmax': -104.78822, 'ymax': 19.280827}",dining and drinking > restaurant > mexican restaurant > taco restaurant,1
5046b253e4b023513fb02e77,Lechón Rudy,21.878531335118385,-102.33492000148205,,,,,,,,MX,2012-09-05,2021-11-04,,,,,,,,['4bf58dd8d48988d151941735'],['Dining and Drinking > Restaurant > Mexican Restaurant > Taco Restaurant'],b'\x00\x00\x00\x00\x01\xc0Y\x95oTMI\x11@5\xe0\xe7m\xf8\xd8=',"{'xmin': -102.33492000148205, 'ymin': 21.878531335118385, 'xmax': -102.33492000148205, 'ymax': 21.878531335118385}",dining and drinking > restaurant > mexican restaurant > taco restaurant,1
50cc4146e4b0262ede42de28,Tacos del tio,21.097759259451397,-101.64695353391431,,,,,,,,MX,2012-12-15,2021-08-12,,,,,,,,['4bf58dd8d48988d151941735'],['Dining and Drinking > Restaurant > Mexican Restaurant > Taco Restaurant'],b'\x00\x00\x00\x00\x01\xc0Yig\xaf\xcb\x8cd@5\x19\x06\xc069\x95',"{'xmin': -101.64695353391431, 'ymin': 21.097759259451397, 'xmax': -101.64695353391431, 'ymax': 21.097759259451397}",dining and drinking > restaurant > mexican restaurant > taco restaurant,1
5321091e498e0b7205686f60,Tacos de Lechón Don Rafa,21.891691207885742,-102.30472564697266,,,,,,,,MX,2014-03-13,2021-08-16,,,,,,,,['4bf58dd8d48988d151941735'],['Dining and Drinking > Restaurant > Mexican Restaurant > Taco Restaurant'],b'\x00\x00\x00\x00\x01\xc0Y\x93\x80\xa0\x00\x00\x00@5\xe4E\xe0\x00\x00\x00',"{'xmin': -102.30472564697266, 'ymin': 21.891691207885742, 'xmax': -102.30472564697266, 'ymax': 21.891691207885742}",dining and drinking > restaurant > mexican restaurant > taco restaurant,1
4c81a53ad92ea093a7644372,Taqueria El Paisa,20.634676573055597,-103.42617332768027,Enrique Ladrón de Guevara 5435,Zapopan,JAL,,,,,MX,2010-09-04,2020-11-25,,,,,,,,['4bf58dd8d48988d151941735'],['Dining and Drinking > Restaurant > Mexican Restaurant > Taco Restaurant'],b'\x00\x00\x00\x00\x01\xc0Y\xdbFl~4\x1d@4\xa2z)\xf4\xcf\xa7',"{'xmin': -103.42617332768027, 'ymin': 20.634676573055597, 'xmax': -103.42617332768027, 'ymax': 20.634676573055597}",dining and drinking > restaurant > mexican restaurant > taco restaurant,1
4d2a7aa077a2a1cdfd2875b7,Taquería Los Charros,20.944306599646083,-101.4278293350211,,,,,,,,MX,2011-01-10,2021-08-16,,,,,,,,['4bf58dd8d48988d151941735'],['Dining and Drinking > Restaurant > Mexican Restaurant > Taco Restaurant'],b'\x00\x00\x00\x00\x01\xc0Y[a\x8eJ\x8b\xd8@4\xf1\xbe\x13\xca\xe0|',"{'xmin': -101.4278293350211, 'ymin': 20.944306599646083, 'xmax': -101.4278293350211, 'ymax': 20.944306599646083}",dining and drinking > restaurant > mexican restaurant > taco restaurant,1
5079a50be4b027ceddad97ae,Tacos Las Lupitas,20.726636349517356,-103.40853602492568,,,,,,,,MX,2012-10-13,2021-08-16,,,,,,,,['4bf58dd8d48988d151941735'],['Dining and Drinking > Restaurant > Mexican Restaurant > Taco Restaurant'],b'\x00\x00\x00\x00\x01\xc0Y\xda%tH\x92\xcb@4\xba\x04\xd6\xfdC\n',"{'xmin': -103.40853602492568, 'ymin': 20.726636349517356, 'xmax': -103.40853602492568, 'ymax': 20.726636349517356}",dining and drinking > restaurant > mexican restaurant > taco restaurant,1
4cc3a8941e596dcb9966cc67,El Trompo de San Javier,21.03091230701819,-101.25805770776375,Hotel La Abadía Plaza. Carr. Guanajuato-Dolores Hgo. Km 1,Guanajuato,Gto.,,,,,MX,2010-10-24,2020-11-25,,473 732 2140,,,,,,['4bf58dd8d48988d151941735'],['Dining and Drinking > Restaurant > Mexican Restaurant > Taco Restaurant'],b'\x00\x00\x00\x00\x01\xc0YP\x84\x04y\xd4\xde@5\x07\xe9\xdes\xaf\xe2',"{'xmin': -101.25805770776375, 'ymin': 21.03091230701819, 'xmax': -101.25805770776375, 'ymax': 21.03091230701819}",dining and drinking > restaurant > mexican restaurant > taco restaurant,1
50e1232be4b0b92a383d97c5,Tacos Sammy,20.551971456541757,-100.83746639777438,,,,,,,,MX,2012-12-31,2021-08-11,,,,,,,,['4bf58dd8d48988d151941735'],['Dining and Drinking > Restaurant > Mexican Restaurant > Taco Restaurant'],"b""\x00\x00\x00\x00\x01\xc0Y5\x99\x0c\xa9|'@4\x8dN\x00Z,\x1e""","{'xmin': -100.83746639777438, 'ymin': 20.551971456541757, 'xmax': -100.83746639777438, 'ymax': 20.551971456541757}",dining and drinking > restaurant > mexican restaurant > taco restaurant,1
597c2b5f25ecca3518ee3df9,Asadas Santa Rosalía,20.670457,-103.367859,Jose Guadalupe Zuno,Guadalajara,JAL,44150,,,,MX,2017-07-29,2021-08-12,,,,,,,,['4bf58dd8d48988d151941735'],['Dining and Drinking > Restaurant > Mexican Restaurant > Taco Restaurant'],b'\x00\x00\x00\x00\x01\xc0Y\xd7\x8b\x00y\xa2\x83@4\xab\xa3\x11\xe8_\xd0',"{'xmin': -103.367859, 'ymin': 20.670457, 'xmax': -103.367859, 'ymax': 20.670457}",dining and drinking > restaurant > mexican restaurant > taco restaurant,1
4e1db8d0b0fb93d2d064e4b9,Restaurant Licha,20.470565787754072,-101.61763544964823,,,Guanajuato,,,,,MX,2011-07-13,2020-11-30,,,,,,,,['4bf58dd8d48988d151941735'],['Dining and Drinking > Restaurant > Mexican Restaurant > Taco Restaurant'],b'\x00\x00\x00\x00\x01\xc0Yg\x87V\xd6E\xb9@4xv\xff\xdd\x05-',"{'xmin': -101.61763544964823, 'ymin': 20.470565787754072, 'xmax': -101.61763544964823, 'ymax': 20.470565787754072}",dining and drinking > restaurant > mexican restaurant > taco restaurant,1
543027d6498e64bc7d24fd93,Tortas Ahogadas Mike,20.536715,-104.037731,,,,,,,,MX,2014-10-04,2021-08-10,,,,,,,,['4bf58dd8d48988d151941735'],['Dining and Drinking > Restaurant > Mexican Restaurant > Taco Restaurant'],"b""\x00\x00\x00\x00\x01\xc0Z\x02j/H\xc2\xe7@4\x89f'|E\xcc""","{'xmin': -104.037731, 'ymin': 20.536715, 'xmax': -104.037731, 'ymax': 20.536715}",dining and drinking > restaurant > mexican restaurant > taco restaurant,1
5078eb74e4b03d49e4415a33,Tacos El Toñazo,20.660454624935593,-103.30016247143644,,,,,,,,MX,2012-10-13,2021-08-16,,,,,,,,['4bf58dd8d48988d151941735'],['Dining and Drinking > Restaurant > Mexican Restaurant > Taco Restaurant'],b'\x00\x00\x00\x00\x01\xc0Y\xd35\xdc\xa7\x93\x96@4\xa9\x13\x8d\xe6\x97\x1f',"{'xmin': -103.30016247143644, 'ymin': 20.660454624935593, 'xmax': -103.30016247143644, 'ymax': 20.660454624935593}",dining and drinking > restaurant > mexican restaurant > taco restaurant,1
5647afc5498ed0ce61aa23ce,El Guero del Ooapas (Plaza Katara),19.670921,-101.17223,Plaza Katara,,,,,,,MX,2015-11-14,2020-11-23,,,,,,,,['4bf58dd8d48988d151941735'],['Dining and Drinking > Restaurant > Mexican Restaurant > Taco Restaurant'],b'\x00\x00\x00\x00\x01\xc0YK\x05\xd0\xfaX\xf7@3\xab\xc1z\x893\x1a',"{'xmin': -101.17223, 'ymin': 19.670921, 'xmax': -101.17223, 'ymax': 19.670921}",dining and drinking > restaurant > mexican restaurant > taco restaurant,1
518ee5ed498edbeac6aae388,Taqueria Huitepec,21.117928,-101.671444,,,,,,,,MX,2013-05-12,2021-08-11,,,,,,,,['4bf58dd8d48988d151941735'],['Dining and Drinking > Restaurant > Mexican Restaurant > Taco Restaurant'],b'\x00\x00\x00\x00\x01\xc0Yj\xf8\xf0AF\x1b@5\x1e0\x87\x87H^',"{'xmin': -101.671444, 'ymin': 21.117928, 'xmax': -101.671444, 'ymax': 21.117928}",dining and drinking > restaurant > mexican restaurant > taco restaurant,1
5422e4eb498e9121f9618390,Tacos El Matador RV,19.311134338378906,-99.07978820800781,,,,,,,,MX,2014-09-24,2021-08-14,,,,,,,,['4bf58dd8d48988d151941735'],['Dining and Drinking > Restaurant > Mexican Restaurant > Taco Restaurant'],b'\x00\x00\x00\x00\x01\xc0X\xc5\x1b@\x00\x00\x00@3O\xa6\x80\x00\x00\x00',"{'xmin': -99.07978820800781, 'ymin': 19.311134338378906, 'xmax': -99.07978820800781, 'ymax': 19.311134338378906}",dining and drinking > restaurant > mexican restaurant > taco restaurant,1
6237e84bf359f20a8e1983e2,Taqueria Jalisco,19.287693,-99.58622,,Toluca,Edomex,50245,,,,MX,2022-03-21,2023-09-13,,,,,,,,['4bf58dd8d48988d151941735'],['Dining and Drinking > Restaurant > Mexican Restaurant > Taco Restaurant'],b'\x00\x00\x00\x00\x01\xc0X\xe5\x84\xa0\xe4\x10\xb6@3I\xa6?\x9aI\xc3',"{'xmin': -99.58622, 'ymin': 19.287693, 'xmax': -99.58622, 'ymax': 19.287693}",dining and drinking > restaurant > mexican restaurant > taco restaurant,1
638d0e5b9140b145ca5c2bcd,Tacos Orientales,16.851353,-99.852787,,Acapulco,GRO,39850,,,,MX,2022-12-04,2022-12-04,,,,,,,,['4bf58dd8d48988d151941735'],['Dining and Drinking > Restaurant > Mexican Restaurant > Taco Restaurant'],"b'\x00\x00\x00\x00\x01\xc0X\xf6\x94\x0f\xec\xdd\x0e@0\xd9\xf2E,Y\xfb'","{'xmin': -99.852787, 'ymin': 16.851353, 'xmax': -99.852787, 'ymax': 16.851353}",dining and drinking > restaurant > mexican restaurant > taco restaurant,1
52f402db11d271566e254ea2,Tacos y Antojitos Charly,19.30507469177246,-99.18486785888672,,,,,,,,MX,2014-02-06,2021-08-17,,,,,,,,['4bf58dd8d48988d151941735'],['Dining and Drinking > Restaurant > Mexican Restaurant > Taco Restaurant'],b'\x00\x00\x00\x00\x01\xc0X\xcb\xd4\xe0\x00\x00\x00@3N\x19`\x00\x00\x00',"{'xmin': -99.18486785888672, 'ymin': 19.30507469177246, 'xmax': -99.18486785888672, 'ymax': 19.30507469177246}",dining and drinking > restaurant > mexican restaurant > taco restaurant,1
4f2f512ee4b04551c1ee4d2e,Antojitos Lupita,17.554926085715696,-99.50349961280548,,,,,,,,MX,2012-02-06,2021-08-15,,,,,,,,['4bf58dd8d48988d151941735'],['Dining and Drinking > Restaurant > Mexican Restaurant > Taco Restaurant'],b'\x00\x00\x00\x00\x01\xc0X\xe09Vp\xa3\x16@1\x8e\x0f\xa2\xcd\xd8\xa1',"{'xmin': -99.50349961280548, 'ymin': 17.554926085715696, 'xmax': -99.50349961280548, 'ymax': 17.554926085715696}",dining and drinking > restaurant > mexican restaurant > taco restaurant,1
5516291a498e5fd57d837623,La Barrita,19.273123,-99.59244,Curcuito Cuauhtémoc,Izcalli Cuauhtémoc,Mexico,52176,,,,MX,2015-03-28,2020-11-23,,,,,,,,['4bf58dd8d48988d151941735'],['Dining and Drinking > Restaurant > Mexican Restaurant > Taco Restaurant'],b'\x00\x00\x00\x00\x01\xc0X\xe5\xea\x89v5\xe7@3E\xebc\x90\xc9\x10',"{'xmin': -99.59244, 'ymin': 19.273123, 'xmax': -99.59244, 'ymax': 19.273123}",dining and drinking > restaurant > mexican restaurant > taco restaurant,1
5185a110498e46caf3185234,Taqueria El Pastorcito,18.844139,-99.67831,Centro Ixtapán De La Sal,,,,,,,MX,2013-05-05,2021-08-13,,,,,,,,['4bf58dd8d48988d151941735'],['Dining and Drinking > Restaurant > Mexican Restaurant > Taco Restaurant'],b'\x00\x00\x00\x00\x01\xc0X\xebinX\xa3/@2\xd8\x19~VG4',"{'xmin': -99.67831, 'ymin': 18.844139, 'xmax': -99.67831, 'ymax': 18.844139}",dining and drinking > restaurant > mexican restaurant > taco restaurant,1
57dc7901498e8eec175c222c,Taqueria El Tacolin,19.132567,-96.113694,Cándido Aguilar entre calle Veracruz y Coahuila Local  #18-1,Boca del Río,VER,94298,,,,MX,2016-09-16,2020-11-30,,229 308 8549,,,,,,['4bf58dd8d48988d151941735'],['Dining and Drinking > Restaurant > Mexican Restaurant > Taco Restaurant'],b'\x00\x00\x00\x00\x01\xc0X\x07F\xc32\xf0\x17@3!\xef\xe91\x87b',"{'xmin': -96.113694, 'ymin': 19.132567, 'xmax': -96.113694, 'ymax': 19.132567}",dining and drinking > restaurant > mexican restaurant > taco restaurant,1
54e3eac2498ef817104c2e9d,tacos la morenaxa,18.979526815257813,-99.24543456572687,,,,,,,,MX,2015-02-18,2021-08-17,,,,,,,,['4bf58dd8d48988d151941735'],['Dining and Drinking > Restaurant > Mexican Restaurant > Taco Restaurant'],b'\x00\x00\x00\x00\x01\xc0X\xcf\xb53.F\xb6@2\xfa\xc2D\xf5\x16\\',"{'xmin': -99.24543456572687, 'ymin': 18.979526815257813, 'xmax': -99.24543456572687, 'ymax': 18.979526815257813}",dining and drinking > restaurant > mexican restaurant > taco restaurant,1
4de079d9ae605835c455460a,Asadero Don Pancho,19.150683267436662,-96.16054299261171,Violetas,Veracruz,Veracruz-Llave,91777,,,,MX,2011-05-28,2020-11-21,,,,,,,,['4bf58dd8d48988d151941735'],['Dining and Drinking > Restaurant > Mexican Restaurant > Taco Restaurant'],b'\x00\x00\x00\x00\x01\xc0X\nFV\x1d\xb7\xa2@3&\x93-\xb9\xb1\xe4',"{'xmin': -96.16054299261171, 'ymin': 19.150683267436662, 'xmax': -96.16054299261171, 'ymax': 19.150683267436662}",dining and drinking > restaurant > mexican restaurant > taco restaurant,1
5d33847f2262cb0008b0ec03,Parrilla Don Camilo,19.275098,-99.634719,"Prolongación 5 De Mayo 936, Valle Don Camilo",Toluca de Lerdo,Edomex,50140,,,,MX,2019-07-20,2023-09-12,,,,,,,,['4bf58dd8d48988d1df931735' '4bf58dd8d48988d151941735'],"['Dining and Drinking > Restaurant > BBQ Joint'
 'Dining and Drinking > Restaurant > Mexican Restaurant > Taco Restaurant']",b'\x00\x00\x00\x00\x01\xc0X\xe8\x9f<p\xc9\x97@3Fl\xd2\x911\xec',"{'xmin': -99.634719, 'ymin': 19.275098, 'xmax': -99.634719, 'ymax': 19.275098}","dining and drinking > restaurant > bbq joint, dining and drinking > restaurant > mexican restaurant > taco restaurant",1
59c5518bc0f1635db0ecf724,Tacos De Barbacoa De Res Y Consome,18.939026,-99.23112,,Cuernavaca,Morelos,62250,,,,MX,2017-09-22,2020-11-30,,,,,,,,['4bf58dd8d48988d151941735'],['Dining and Drinking > Restaurant > Mexican Restaurant > Taco Restaurant'],b'\x00\x00\x00\x00\x01\xc0X\xce\xca\xab\x8a\\\xe6@2\xf0d\x02\x08\x17\xfc',"{'xmin': -99.23112, 'ymin': 18.939026, 'xmax': -99.23112, 'ymax': 18.939026}",dining and drinking > restaurant > mexican restaurant > taco restaurant,1
4d3c5265af8ca143ffa300f7,Loncheria Dona Meche,19.250526,-99.099824,,,,,,,,MX,2011-01-23,2021-08-13,,,,,,,,['4bf58dd8d48988d151941735'],['Dining and Drinking > Restaurant > Mexican Restaurant > Taco Restaurant'],"b'\x00\x00\x00\x00\x01\xc0X\xc6c\x843\xd6\xc7@3@""x\xd0\xcc6'","{'xmin': -99.099824, 'ymin': 19.250526, 'xmax': -99.099824, 'ymax': 19.250526}",dining and drinking > restaurant > mexican restaurant > taco restaurant,1
571d15d7498ec5b7a8c9a5ac,El Tio Taquería,19.28616386655606,-99.12977748851492,,,,,,,,MX,2016-04-24,2021-08-12,,,,,,,,['4bf58dd8d48988d151941735'],['Dining and Drinking > Restaurant > Mexican Restaurant > Taco Restaurant'],"b""\x00\x00\x00\x00\x01\xc0X\xc8NF=;n@3IB\t\x00'\xba""","{'xmin': -99.12977748851492, 'ymin': 19.28616386655606, 'xmax': -99.12977748851492, 'ymax': 19.28616386655606}",dining and drinking > restaurant > mexican restaurant > taco restaurant,1
4f792472e4b0eedfe7a562b5,Las Asaderas,17.06215646531006,-96.6715568777761,,,,,,,,MX,2012-04-02,2021-08-16,,,,,,,,['4bf58dd8d48988d151941735'],['Dining and Drinking > Restaurant > Mexican Restaurant > Taco Restaurant'],b'\x00\x00\x00\x00\x01\xc0X*\xfa\xc9\xb2\xdc\xf1@1\x0f\xe9|q\xbd\xde',"{'xmin': -96.6715568777761, 'ymin': 17.06215646531006, 'xmax': -96.6715568777761, 'ymax': 17.06215646531006}",dining and drinking > restaurant > mexican restaurant > taco restaurant,1
50bd5e4fe4b0465630a7956a,Taqueria El Rancherito,18.62929029907951,-99.31979848757415,,,,,,,,MX,2012-12-04,2021-08-11,,,,,,,,['4bf58dd8d48988d151941735'],['Dining and Drinking > Restaurant > Mexican Restaurant > Taco Restaurant'],b'\x00\x00\x00\x00\x01\xc0X\xd4w\x94\x13\\=@2\xa1\x19+F<\x8f',"{'xmin': -99.31979848757415, 'ymin': 18.62929029907951, 'xmax': -99.31979848757415, 'ymax': 18.62929029907951}",dining and drinking > restaurant > mexican restaurant > taco restaurant,1
5484726d498e3e8cf7db490b,Carnitas se Rumora,19.288015575762504,-99.68417682963853,Av Adolfo López Mateos,Toluca,De México,50100,,,,MX,2014-12-07,2020-11-25,,,,,,,,['4bf58dd8d48988d151941735'],['Dining and Drinking > Restaurant > Mexican Restaurant > Taco Restaurant'],b'\x00\x00\x00\x00\x01\xc0X\xeb\xc9\x8d\x9c\xfe\x9f@3I\xbbc\x86\xa3y',"{'xmin': -99.68417682963853, 'ymin': 19.288015575762504, 'xmax': -99.68417682963853, 'ymax': 19.288015575762504}",dining and drinking > restaurant > mexican restaurant > taco restaurant,1
504ba414e4b0c9f21f3da69d,Carnitas La Cuadra,19.284921173838814,-99.20198484380107,,,,,,,,MX,2012-09-08,2021-08-13,,,,,,,,['4bf58dd8d48988d151941735'],['Dining and Drinking > Restaurant > Mexican Restaurant > Taco Restaurant'],b'\x00\x00\x00\x00\x01\xc0X\xcc\xedQ\xd6\x9as@3H\xf0\x98\x13\x93]',"{'xmin': -99.20198484380107, 'ymin': 19.284921173838814, 'xmax': -99.20198484380107, 'ymax': 19.284921173838814}",dining and drinking > restaurant > mexican restaurant > taco restaurant,1
4eec1acef790c40a888150f1,Quesadillas Las Fuentes,19.267254871337006,-99.14008343805371,,,,,,,,MX,2011-12-17,2021-08-10,,,,,,,,['4bf58dd8d48988d151941735'],['Dining and Drinking > Restaurant > Mexican Restaurant > Taco Restaurant'],b'\x00\x00\x00\x00\x01\xc0X\xc8\xf7 \x86I\xb9@3Dj\xd0\xb4\x16\xd1',"{'xmin': -99.14008343805371, 'ymin': 19.267254871337006, 'xmax': -99.14008343805371, 'ymax': 19.267254871337006}",dining and drinking > restaurant > mexican restaurant > taco restaurant,1
4e11375ed22d759bae60eae9,Taqueria Estrella,19.32001542168059,-99.24207418866456,Av San Bernabe 58,Cidade do México,Distrito Federal,,,,,MX,2011-07-04,2020-11-23,,,,,,,,['4bf58dd8d48988d151941735'],['Dining and Drinking > Restaurant > Mexican Restaurant > Taco Restaurant'],b'\x00\x00\x00\x00\x01\xc0X\xcf~$\xbc\xe1H@3Q\xec\x87\xdaUs',"{'xmin': -99.24207418866456, 'ymin': 19.32001542168059, 'xmax': -99.24207418866456, 'ymax': 19.32001542168059}",dining and drinking > restaurant > mexican restaurant > taco restaurant,1
5d92b2d77932c00008f06bd0,Tacos Don Cuco,19.29928,-99.04063,,Ciudad de México,Ciudad de México,13300,,,,MX,2019-10-01,2020-11-26,,,,,,,,['4bf58dd8d48988d151941735'],['Dining and Drinking > Restaurant > Mexican Restaurant > Taco Restaurant'],"b'\x00\x00\x00\x00\x01\xc0X\xc2\x99\xae\x92O""@3L\x9d\x9d4X\xcd'","{'xmin': -99.04063, 'ymin': 19.29928, 'xmax': -99.04063, 'ymax': 19.29928}",dining and drinking > restaurant > mexican restaurant > taco restaurant,1
53822e24498e77bc15f5fba3,Hoyo 4 Green Snack,19.684942,-101.162413,,,,,,,,MX,2014-05-25,2021-08-16,,,,,,,,['4bf58dd8d48988d151941735'],['Dining and Drinking > Restaurant > Mexican Restaurant > Taco Restaurant'],b'\x00\x00\x00\x00\x01\xc0YJd\xf9~\xdc\x7f@3\xafX[\xe1\xa8&',"{'xmin': -101.162413, 'ymin': 19.684942, 'xmax': -101.162413, 'ymax': 19.684942}",dining and drinking > restaurant > mexican restaurant > taco restaurant,1
660f4e28738c34454ee8aca3,Taquería El Chapaneco,16.553673,-95.09302,Militar,Ciudad Ixtepec,Oaxaca,70110,,,,MX,2024-04-05,2024-04-05,,,,,,,,['4bf58dd8d48988d151941735'],['Dining and Drinking > Restaurant > Mexican Restaurant > Taco Restaurant'],b'\x00\x00\x00\x00\x01\xc0W\xc5\xf4\n(w\xee@0\x8d\xbd\x83\x83\xad\x9f',"{'xmin': -95.09302, 'ymin': 16.553673, 'xmax': -95.09302, 'ymax': 16.553673}",dining and drinking > restaurant > mexican restaurant > taco restaurant,1
50df318ce4b092e9a055c9de,Cocina Economica Angy,17.530622,-99.492858,,,,,,,,MX,2012-12-29,2021-08-15,,,,,,,,['4bf58dd8d48988d151941735'],['Dining and Drinking > Restaurant > Mexican Restaurant > Taco Restaurant'],b'\x00\x00\x00\x00\x01\xc0X\xdf\x8a\xfcG\xe4\x9b@1\x87\xd6\xd7\xe8\x89\xc2',"{'xmin': -99.492858, 'ymin': 17.530622, 'xmax': -99.492858, 'ymax': 17.530622}",dining and drinking > restaurant > mexican restaurant > taco restaurant,1
639bd06d3a6a4a4418fcd2e8,Taqueria “El Saboree”,19.33485,-99.070881,,Iztapalapa,CDMX,09860,,,,MX,2022-12-16,2022-12-16,,,,,,,,['4bf58dd8d48988d151941735'],['Dining and Drinking > Restaurant > Mexican Restaurant > Taco Restaurant'],b'\x00\x00\x00\x00\x01\xc0X\xc4\x89Pv:\x19@3U\xb8\xba\xc7\x10\xcb',"{'xmin': -99.070881, 'ymin': 19.33485, 'xmax': -99.070881, 'ymax': 19.33485}",dining and drinking > restaurant > mexican restaurant > taco restaurant,1
4d79918fc307a35dad144731,Taqueria San Francisco,19.298566499857046,-99.07119343249583,,,,,,,,MX,2011-03-11,2021-08-16,,,,,,,,['4bf58dd8d48988d151941735'],['Dining and Drinking > Restaurant > Mexican Restaurant > Taco Restaurant'],b'\x00\x00\x00\x00\x01\xc0X\xc4\x8en\xe6\x10\x9d@3Ln\xda\xa8\x914',"{'xmin': -99.07119343249583, 'ymin': 19.298566499857046, 'xmax': -99.07119343249583, 'ymax': 19.298566499857046}",dining and drinking > restaurant > mexican restaurant > taco restaurant,1
52464f3e11d2029993a30d4b,Juan Pablo's Tacos,19.102637,-96.103626,,,,,,,,MX,2013-09-28,2021-08-14,,,,,,,,['4bf58dd8d48988d151941735'],['Dining and Drinking > Restaurant > Mexican Restaurant > Taco Restaurant'],b'\x00\x00\x00\x00\x01\xc0X\x06\xa1\xce\xf2@\xfb@3\x1aFk\x1e\\\x0c',"{'xmin': -96.103626, 'ymin': 19.102637, 'xmax': -96.103626, 'ymax': 19.102637}",dining and drinking > restaurant > mexican restaurant > taco restaurant,1
53a78e4a498e4ec9e98a884a,Taco loco,16.233299911240437,-92.13321174345121,Boulevard belisario Dominguez sur,Comitan,Chiapas,,,,,MX,2014-06-23,2020-11-25,,,,,,,,['4bf58dd8d48988d151941735'],['Dining and Drinking > Restaurant > Mexican Restaurant > Taco Restaurant'],b'\x00\x00\x00\x00\x01\xc0W\x08\x86\x8a\x8cd;@0;\xb9\x8b\x00\xef\xf8',"{'xmin': -92.13321174345121, 'ymin': 16.233299911240437, 'xmax': -92.13321174345121, 'ymax': 16.233299911240437}",dining and drinking > restaurant > mexican restaurant > taco restaurant,1
543341e9498e0f620718f4ed,taqueria el infierno,17.967745766972598,-102.2170580549767,,Lázaro Cárdenas,Michoacán,60950,,,,MX,2014-10-07,2020-11-20,2014-10-08,,,,,,,['4bf58dd8d48988d1c1941735' '4bf58dd8d48988d151941735'],"['Dining and Drinking > Restaurant > Mexican Restaurant'
 'Dining and Drinking > Restaurant > Mexican Restaurant > Taco Restaurant']",b'\x00\x00\x00\x00\x01\xc0Y\x8d\xe4Gw\xddU@1\xf7\xbe/\xc3\xfd`',"{'xmin': -102.2170580549767, 'ymin': 17.967745766972598, 'xmax': -102.2170580549767, 'ymax': 17.967745766972598}","dining and drinking > restaurant > mexican restaurant, dining and drinking > restaurant > mexican restaurant > taco restaurant",1
55ecd6f6498e94255c384e97,"Tacos De La Curva ""Don""",19.271642929569644,-99.15949378722792,,,,,,,,MX,2015-09-07,2021-08-16,,,,,,,,['4bf58dd8d48988d151941735'],['Dining and Drinking > Restaurant > Mexican Restaurant > Taco Restaurant'],b'\x00\x00\x00\x00\x01\xc0X\xca5%n\x03\xc8@3E\x8ad\x1a\xb0\xf6',"{'xmin': -99.15949378722792, 'ymin': 19.271642929569644, 'xmax': -99.15949378722792, 'ymax': 19.271642929569644}",dining and drinking > restaurant > mexican restaurant > taco restaurant,1
4c0a9e64340720a1b2c08693,Tacos Pepe,19.282894346529005,-99.63671458296017,,Toluca,Mexico,,,,,MX,2010-06-05,2020-11-23,,,,,,,,['4bf58dd8d48988d151941735'],['Dining and Drinking > Restaurant > Mexican Restaurant > Taco Restaurant'],b'\x00\x00\x00\x00\x01\xc0X\xe8\xbf\xee\x85\xac\xd0@3Hk\xc3\x8e\x90\xbc',"{'xmin': -99.63671458296017, 'ymin': 19.282894346529005, 'xmax': -99.63671458296017, 'ymax': 19.282894346529005}",dining and drinking > restaurant > mexican restaurant > taco restaurant,1
55f19695498e2d47054ffb64,"Fritanga ""El Guayabas""",20.061922653311022,-102.71609276533127,,Sahuayo,Michoacán,,,,,MX,2015-09-10,2020-11-23,,,,,,,,['4bf58dd8d48988d151941735'],['Dining and Drinking > Restaurant > Mexican Restaurant > Taco Restaurant'],b'\x00\x00\x00\x00\x01\xc0Y\xad\xd4v\xc0\x00\x00@4\x0f\xda)\xba\xda6',"{'xmin': -102.71609276533127, 'ymin': 20.061922653311022, 'xmax': -102.71609276533127, 'ymax': 20.061922653311022}",dining and drinking > restaurant > mexican restaurant > taco restaurant,1
50f4c798e4b075cdecd8434d,Barbacoa Rafa,19.70743383073528,-101.18899352669642,Héroe de Nacozari,Morelia,Michoacán,58000,,,,MX,2013-01-15,2020-11-26,,443 132 2227,,,,,,['4bf58dd8d48988d151941735'],['Dining and Drinking > Restaurant > Mexican Restaurant > Taco Restaurant'],b'\x00\x00\x00\x00\x01\xc0YL\x18xN\x14G@3\xb5\x1ab/\x17\x8f',"{'xmin': -101.18899352669642, 'ymin': 19.70743383073528, 'xmax': -101.18899352669642, 'ymax': 19.70743383073528}",dining and drinking > restaurant > mexican restaurant > taco restaurant,1
4c9d5ff00e9bb1f75202dd5f,Tacos El Panteón,19.959942353822978,-102.30727381489537,Arista Pte. 152,Jacona de Plancarte,Michoacán de Ocampo,,,,,MX,2010-09-25,2020-11-30,,351 120 0204,,,,,,['4bf58dd8d48988d151941735'],['Dining and Drinking > Restaurant > Mexican Restaurant > Taco Restaurant'],b'\x00\x00\x00\x00\x01\xc0Y\x93\xaa_\xcay#@3\xf5\xbe\xc87\xb7\x07',"{'xmin': -102.30727381489537, 'ymin': 19.959942353822978, 'xmax': -102.30727381489537, 'ymax': 19.959942353822978}",dining and drinking > restaurant > mexican restaurant > taco restaurant,1
5071a658e4b0f7be6e2ec8e1,Tacos Alfredo,20.54933375528246,-102.50845315456534,,,,,,,,MX,2012-10-07,2021-08-15,,,,,,,,['4bf58dd8d48988d151941735'],['Dining and Drinking > Restaurant > Mexican Restaurant > Taco Restaurant'],b'\x00\x00\x00\x00\x01\xc0Y\xa0\x8a\x7f\x19\x99\xff@4\x8c\xa1#\x11\x86\xec',"{'xmin': -102.50845315456534, 'ymin': 20.54933375528246, 'xmax': -102.50845315456534, 'ymax': 20.54933375528246}",dining and drinking > restaurant > mexican restaurant > taco restaurant,1
59b0c77d1543c72365a9a229,Taqueria Las Delicias,19.293607,-99.220252,,Ciudad de México,CDMX,14240,,,,MX,2017-09-07,2020-11-30,,,,,,,,['4bf58dd8d48988d151941735'],['Dining and Drinking > Restaurant > Mexican Restaurant > Taco Restaurant'],b'\x00\x00\x00\x00\x01\xc0X\xce\x18\x9b\xd88;@3K)\xd4\x0e\xe0n',"{'xmin': -99.220252, 'ymin': 19.293607, 'xmax': -99.220252, 'ymax': 19.293607}",dining and drinking > restaurant > mexican restaurant > taco restaurant,1
52d0a8e8498e6724b8f8fbc7,Taqueria Nayeli,17.82334,-97.778143,,Huajuapan De Leon,Oaxaca,69005,,,,MX,2014-01-11,2020-11-23,,,,,,,,['4bf58dd8d48988d151941735'],['Dining and Drinking > Restaurant > Mexican Restaurant > Taco Restaurant'],"b""\x00\x00\x00\x00\x01\xc0Xq\xcd\x18L' @1\xd2\xc6i\x05}\x18""","{'xmin': -97.778143, 'ymin': 17.82334, 'xmax': -97.778143, 'ymax': 17.82334}",dining and drinking > restaurant > mexican restaurant > taco restaurant,1
57e6a303cd10de62e1417c1d,"Barbacoa ""De La Fray""",18.923357,-99.23282,,,,,,,,MX,2016-09-24,2021-08-14,,,,,,,,['4bf58dd8d48988d151941735'],['Dining and Drinking > Restaurant > Mexican Restaurant > Taco Restaurant'],b'\x00\x00\x00\x00\x01\xc0X\xce\xe6\x85\xdbv\xb4@2\xeca\x1f\xd5\x88]',"{'xmin': -99.23282, 'ymin': 18.923357, 'xmax': -99.23282, 'ymax': 18.923357}",dining and drinking > restaurant > mexican restaurant > taco restaurant,1
4fcd18a3e4b093c385cd22f1,"Taqueria ""La Chulada""",18.957152186511774,-99.23575901266716,,,,,,,,MX,2012-06-04,2021-08-14,,,,,,,,['4bf58dd8d48988d151941735'],['Dining and Drinking > Restaurant > Mexican Restaurant > Taco Restaurant'],"b'\x00\x00\x00\x00\x01\xc0X\xcf\x16\xac\xf8I""@2\xf5\x07\xec\xfa\\\xeb'","{'xmin': -99.23575901266716, 'ymin': 18.957152186511774, 'xmax': -99.23575901266716, 'ymax': 18.957152186511774}",dining and drinking > restaurant > mexican restaurant > taco restaurant,1
54cafc29498e66d2da84a41b,Tacos Pancho,19.821606559871835,-101.78059815464447,5 De Febrero #901,Zacapu,Michoacán,58630,,,,MX,2015-01-30,2020-11-22,,,,,,,,['4bf58dd8d48988d151941735'],['Dining and Drinking > Restaurant > Mexican Restaurant > Taco Restaurant'],b'\x00\x00\x00\x00\x01\xc0Yq\xf5Q\xf6a\x05@3\xd2T\xce\xb8\xd4\x1f',"{'xmin': -101.78059815464447, 'ymin': 19.821606559871835, 'xmax': -101.78059815464447, 'ymax': 19.821606559871835}",dining and drinking > restaurant > mexican restaurant > taco restaurant,1
56820a4f498ebdd3fab37447,Sr. Taco Grill,17.661483667747675,-101.60203183400965,,,,,,,,MX,2015-12-29,2021-08-11,,,,,,,,['4bf58dd8d48988d151941735'],['Dining and Drinking > Restaurant > Mexican Restaurant > Taco Restaurant'],b'\x00\x00\x00\x00\x01\xc0Yf\x87\xb0\x87\x8e;@1\xa9V\xfe_\xd0|',"{'xmin': -101.60203183400965, 'ymin': 17.661483667747675, 'xmax': -101.60203183400965, 'ymax': 17.661483667747675}",dining and drinking > restaurant > mexican restaurant > taco restaurant,1
4d12d7fc0ad2f04d8b7caf54,Los Güeros,19.34277134475699,-99.04443688259502,Eje 8 Sur (Calz. Ermita Iztapalapa) 23,México,DF,,,,,MX,2010-12-23,2020-11-23,,,,,,,,['4bf58dd8d48988d151941735'],['Dining and Drinking > Restaurant > Mexican Restaurant > Taco Restaurant'],b'\x00\x00\x00\x00\x01\xc0X\xc2\xd8\r\xcb^\xd6@3W\xbf\xdc\xe3\xbc\xba',"{'xmin': -99.04443688259502, 'ymin': 19.34277134475699, 'xmax': -99.04443688259502, 'ymax': 19.34277134475699}",dining and drinking > restaurant > mexican restaurant > taco restaurant,1
51847744498e908674f7793d,Taquitos Torres,19.329875,-99.147577,,,,,,,,MX,2013-05-04,2021-08-16,,,,,,,,['4bf58dd8d48988d151941735'],['Dining and Drinking > Restaurant > Mexican Restaurant > Taco Restaurant'],b'\x00\x00\x00\x00\x01\xc0X\xc9q\xe6\xcd)\x13@3Tr\xb0 \xc4\x9c',"{'xmin': -99.147577, 'ymin': 19.329875, 'xmax': -99.147577, 'ymax': 19.329875}",dining and drinking > restaurant > mexican restaurant > taco restaurant,1
4fe7244de4b0b8bb5b32745d,Tacos David de transito,19.19967491035599,-96.14535387214765,Guerrero,Veracruz,Veracruz,91700,,,,MX,2012-06-24,2020-11-23,,,,,,,,['4bf58dd8d48988d151941735'],['Dining and Drinking > Restaurant > Mexican Restaurant > Taco Restaurant'],"b""\x00\x00\x00\x00\x01\xc0X\tMzS\xce'@33\x1d\xe5\x19\xcf\x8b""","{'xmin': -96.14535387214765, 'ymin': 19.19967491035599, 'xmax': -96.14535387214765, 'ymax': 19.19967491035599}",dining and drinking > restaurant > mexican restaurant > taco restaurant,1
4c1c3b0d63750f478754b667,Taqueria El Chiringuito,18.924088424733437,-99.21940303890392,,Cuernavaca,,,,,,MX,2010-06-19,2020-11-23,,,,,,,,['4bf58dd8d48988d151941735'],['Dining and Drinking > Restaurant > Mexican Restaurant > Taco Restaurant'],b'\x00\x00\x00\x00\x01\xc0X\xce\n\xb3\x0b/\x10@2\xec\x91\x0f\x1a\xd7\x9f',"{'xmin': -99.21940303890392, 'ymin': 18.924088424733437, 'xmax': -99.21940303890392, 'ymax': 18.924088424733437}",dining and drinking > restaurant > mexican restaurant > taco restaurant,1
612ade11df8e67353a44b854,Tacos Rio Hondito,19.292464,-99.434377,Av. Rio Hondito,Ocoyoacac,Edomex,52743,,,,MX,2021-08-29,2023-04-21,,722 169 5664,,,,,,['4bf58dd8d48988d151941735'],['Dining and Drinking > Restaurant > Mexican Restaurant > Taco Restaurant'],b'\x00\x00\x00\x00\x01\xc0X\xdb\xcc\xd50H\x9d@3J\xde\xeb\xb3A\xe1',"{'xmin': -99.434377, 'ymin': 19.292464, 'xmax': -99.434377, 'ymax': 19.292464}",dining and drinking > restaurant > mexican restaurant > taco restaurant,1
5a58e5bafc9e9406658b86af,Tacos Don Chuy,19.28326,-99.138099,,Ciudad de México,CDMX,14380,,,,MX,2018-01-12,2020-11-22,,,,,,,,['4bf58dd8d48988d151941735'],['Dining and Drinking > Restaurant > Mexican Restaurant > Taco Restaurant'],"b""\x00\x00\x00\x00\x01\xc0X\xc8\xd6\x9d0'\x0f@3H\x83\xba4C\xd4""","{'xmin': -99.138099, 'ymin': 19.28326, 'xmax': -99.138099, 'ymax': 19.28326}",dining and drinking > restaurant > mexican restaurant > taco restaurant,1
4e8f50e48b81c6df653e901c,El Farolito,19.316878,-99.221604,PERIFERICO SUR 3579,Mexico City,,,,,,MX,2011-10-07,2020-11-25,2017-03-23,,,,,,,['4bf58dd8d48988d151941735'],['Dining and Drinking > Restaurant > Mexican Restaurant > Taco Restaurant'],b'\x00\x00\x00\x00\x01\xc0X\xce.\xc2\x8b*k@3Q\x1e\xea\xa6\xd2g',"{'xmin': -99.221604, 'ymin': 19.316878, 'xmax': -99.221604, 'ymax': 19.316878}",dining and drinking > restaurant > mexican restaurant > taco restaurant,1
513560c9e4b0e0add69bb1d2,tacos El Cuñado,19.33328559719595,-99.17159858198606,Anacahuita,,,,,,,MX,2013-03-05,2021-08-13,,,,,,,,['4bf58dd8d48988d151941735'],['Dining and Drinking > Restaurant > Mexican Restaurant > Taco Restaurant'],b'\x00\x00\x00\x00\x01\xc0X\xca\xfbx\x9ej\xe3@3UR4t/7',"{'xmin': -99.17159858198606, 'ymin': 19.33328559719595, 'xmax': -99.17159858198606, 'ymax': 19.33328559719595}",dining and drinking > restaurant > mexican restaurant > taco restaurant,1
59f2a3086a59506e7a463b1e,"Taqueria ""El Mayk""",19.261687,-99.589418,,Metepec,Edomex,50200,,,,MX,2017-10-27,2020-11-25,,,,,,,,['4bf58dd8d48988d151941735'],['Dining and Drinking > Restaurant > Mexican Restaurant > Taco Restaurant'],b'\x00\x00\x00\x00\x01\xc0X\xe5\xb9\x06Fk\x1e@3B\xfd\xebR\xc9\xd1',"{'xmin': -99.589418, 'ymin': 19.261687, 'xmax': -99.589418, 'ymax': 19.261687}",dining and drinking > restaurant > mexican restaurant > taco restaurant,1
4e04fb22483b0fc09d17fff5,Fonda Argentina,19.295101397391694,-99.17506722130027,San Fernando 417,Tlalpan,Distrito Federal,14070,,,,MX,2011-06-24,2020-11-24,,55 5171 9965,http://www.fondaargentina.com,,,,fondaargentina,['4bf58dd8d48988d107941735' '4bf58dd8d48988d151941735'],"['Dining and Drinking > Restaurant > Latin American Restaurant > South American Restaurant > Argentinian Restaurant'
 'Dining and Drinking > Restaurant > Mexican Restaurant > Taco Restaurant']",b'\x00\x00\x00\x00\x01\xc0X\xcb4M%\x85\x85@3K\x8b\xc3\xe2\xcd\x1d',"{'xmin': -99.17506722130027, 'ymin': 19.295101397391694, 'xmax': -99.17506722130027, 'ymax': 19.295101397391694}","dining and drinking > restaurant > latin american restaurant > south american restaurant > argentinian restaurant, dining and drinking > restaurant > mexican restaurant > taco restaurant",1
500a2a3be4b09b29521e69d4,Taqueria Ruben Y Tita,20.350852,-102.765167,,,,,,,,MX,2012-07-21,2021-08-10,,,,,,,,['4bf58dd8d48988d151941735'],['Dining and Drinking > Restaurant > Mexican Restaurant > Taco Restaurant'],b'\x00\x00\x00\x00\x01\xc0Y\xb0\xf8\x7f\x02>\x9f@4Y\xd1o\xc9\xbcw',"{'xmin': -102.765167, 'ymin': 20.350852, 'xmax': -102.765167, 'ymax': 20.350852}",dining and drinking > restaurant > mexican restaurant > taco restaurant,1
529c0b9f498e2032fcdb1a9e,"Taqueria ""My Friends""",17.08481425447708,-96.71121207427782,Mártires de Tacubaña,Oaxaca,Oaxaca,68020,,,,MX,2013-12-02,2020-11-23,,,,,,,,['4bf58dd8d48988d151941735'],['Dining and Drinking > Restaurant > Mexican Restaurant > Taco Restaurant'],b'\x00\x00\x00\x00\x01\xc0X-\x84\x7f\xa5\xe2\xca@1\x15\xb6c\x116\xb4',"{'xmin': -96.71121207427782, 'ymin': 17.08481425447708, 'xmax': -96.71121207427782, 'ymax': 17.08481425447708}",dining and drinking > restaurant > mexican restaurant > taco restaurant,1
529df4f4498eda972f2ad32a,Señor Nuevo Canataquis,19.270305,-99.163528,,,,,,,,MX,2013-12-03,2021-08-14,,,,,,,,['4bf58dd8d48988d151941735'],['Dining and Drinking > Restaurant > Mexican Restaurant > Taco Restaurant'],b'\x00\x00\x00\x00\x01\xc0X\xcaw>$\xfe\xbd@3E2\xb5^\xf1\xfe',"{'xmin': -99.163528, 'ymin': 19.270305, 'xmax': -99.163528, 'ymax': 19.270305}",dining and drinking > restaurant > mexican restaurant > taco restaurant,1
524e309411d2b05f45ce3566,Tacos Memo,19.69472244492834,-103.46796220867135,Sitio de Acapulco,Zamora,Michoacán de Ocampo,59650,,,,MX,2013-10-04,2020-11-30,,,,,,,,['4bf58dd8d48988d151941735' '4bf58dd8d48988d1cb941735'],"['Dining and Drinking > Restaurant > Mexican Restaurant > Taco Restaurant'
 'Dining and Drinking > Food Truck']",b'\x00\x00\x00\x00\x01\xc0Y\xdd\xf3\x17\xc3\x80y@3\xb1\xd9T\x84\xc3\xae',"{'xmin': -103.46796220867135, 'ymin': 19.69472244492834, 'xmax': -103.46796220867135, 'ymax': 19.69472244492834}","dining and drinking > restaurant > mexican restaurant > taco restaurant, dining and drinking > food truck",1
51c52964498ebaa350db7c44,Deli restaurante,18.925235942637794,-99.22588443401601,Plan De Ayala,,,,,,,MX,2013-06-22,2021-08-15,,,,,,,,['4bf58dd8d48988d151941735'],['Dining and Drinking > Restaurant > Mexican Restaurant > Taco Restaurant'],b'\x00\x00\x00\x00\x01\xc0X\xcet\xe3\xfc1\x8d@2\xec\xdcCB\xb6\x8b',"{'xmin': -99.22588443401601, 'ymin': 18.925235942637794, 'xmax': -99.22588443401601, 'ymax': 18.925235942637794}",dining and drinking > restaurant > mexican restaurant > taco restaurant,1
4f77c113e4b03b459dc0c9b8,Tacos Don Pepe,19.296440873014777,-99.63506753323917,Dolores Hidalgo 2011 Col. Independencia,Toluca,Mexico,,,,,MX,2012-04-01,2020-11-30,,,,,,,,['4bf58dd8d48988d151941735'],['Dining and Drinking > Restaurant > Mexican Restaurant > Taco Restaurant'],b'\x00\x00\x00\x00\x01\xc0X\xe8\xa4\xf2K\x80\xdf@3K\xe3\x8c\x8e\xcb\xd1',"{'xmin': -99.63506753323917, 'ymin': 19.296440873014777, 'xmax': -99.63506753323917, 'ymax': 19.296440873014777}",dining and drinking > restaurant > mexican restaurant > taco restaurant,1
56a5a84e498ece5cad3d46f6,Taqueria El cheff,19.106077,-96.15653,,,,,,,,MX,2016-01-25,2020-11-24,,,,,,,,['4bf58dd8d48988d151941735'],['Dining and Drinking > Restaurant > Mexican Restaurant > Taco Restaurant'],"b""\x00\x00\x00\x00\x01\xc0X\n\x04\x96g\xb5\xf2@3\x1b'\xdc\xbd\xdb\x98""","{'xmin': -96.15653, 'ymin': 19.106077, 'xmax': -96.15653, 'ymax': 19.106077}",dining and drinking > restaurant > mexican restaurant > taco restaurant,1
514f29fce4b08735da1f3cdc,Antojitos Edith,19.262975,-99.131282,Xicotencatl 120,,,,,,,MX,2013-03-24,2021-08-16,,,,,,,,['4bf58dd8d48988d151941735'],['Dining and Drinking > Restaurant > Mexican Restaurant > Taco Restaurant'],b'\x00\x00\x00\x00\x01\xc0X\xc8f\xec\x9e#l@3CRT`\xaae',"{'xmin': -99.131282, 'ymin': 19.262975, 'xmax': -99.131282, 'ymax': 19.262975}",dining and drinking > restaurant > mexican restaurant > taco restaurant,1
5169cee1e4b05c4b9bb960b3,Los Charros,18.959537506103516,-99.64099884033203,Rayon,Villa Guerrero,,,,,,MX,2013-04-13,2023-12-20,,844 414 1054,,,,,,['4bf58dd8d48988d151941735'],['Dining and Drinking > Restaurant > Mexican Restaurant > Taco Restaurant'],b'\x00\x00\x00\x00\x01\xc0X\xe9\x06 \x00\x00\x00@2\xf5\xa4@\x00\x00\x00',"{'xmin': -99.64099884033203, 'ymin': 18.959537506103516, 'xmax': -99.64099884033203, 'ymax': 18.959537506103516}",dining and drinking > restaurant > mexican restaurant > taco restaurant,1
5deb314fe91ae30008c46a3b,El Takuche Taquería,19.282754,-99.177487,Cuautla,Mexico City,CDMX,14420,,,,MX,2019-12-07,2020-11-23,,,,,,,,['4bf58dd8d48988d151941735'],['Dining and Drinking > Restaurant > Mexican Restaurant > Taco Restaurant'],b'\x00\x00\x00\x00\x01\xc0X\xcb[\xf2o\x1d\xc5@3Hb\x90\xee\xd0-',"{'xmin': -99.177487, 'ymin': 19.282754, 'xmax': -99.177487, 'ymax': 19.282754}",dining and drinking > restaurant > mexican restaurant > taco restaurant,1
5794d70b498e24d6d667c83a,Barbacoa Leo,19.289311,-99.438871,,,,,,,,MX,2016-07-24,2020-11-25,,,,,,,,['4bf58dd8d48988d151941735'],['Dining and Drinking > Restaurant > Mexican Restaurant > Taco Restaurant'],b'\x00\x00\x00\x00\x01\xc0X\xdc\x16vd\nl@3J\x10I#_\x81',"{'xmin': -99.438871, 'ymin': 19.289311, 'xmax': -99.438871, 'ymax': 19.289311}",dining and drinking > restaurant > mexican restaurant > taco restaurant,1
4ec5cb510aaf9c3cca60e05c,Taquería Juquilita,19.27233900377436,-99.17360544204712,,,,,,,,MX,2011-11-18,2021-08-16,,,,,,,,['4bf58dd8d48988d151941735'],['Dining and Drinking > Restaurant > Mexican Restaurant > Taco Restaurant'],b'\x00\x00\x00\x00\x01\xc0X\xcb\x1cZ\x00\x00\x00@3E\xb8\x02J\xa2\xd7',"{'xmin': -99.17360544204712, 'ymin': 19.27233900377436, 'xmax': -99.17360544204712, 'ymax': 19.27233900377436}",dining and drinking > restaurant > mexican restaurant > taco restaurant,1
5fa8c5eec44f087cfeacaa47,Taqueria Checos,20.56693,-103.34616,,San Pedro Tlaquepaque,Jalisco,,,,,MX,2020-11-09,2020-11-09,,,,,,,,['4bf58dd8d48988d151941735'],['Dining and Drinking > Restaurant > Mexican Restaurant > Taco Restaurant'],"b'\x00\x00\x00\x00\x01\xc0Y\xd6\'|E\xcb\xbc@4\x91""S\x11\x1f\x0c'","{'xmin': -103.34616, 'ymin': 20.56693, 'xmax': -103.34616, 'ymax': 20.56693}",dining and drinking > restaurant > mexican restaurant > taco restaurant,1
