fsq_place_id,name,latitude,longitude,address,locality,region,postcode,admin_region,post_town,po_box,country,date_created,date_refreshed,date_closed,tel,website,email,facebook_id,instagram,twitter,fsq_category_ids,fsq_category_labels,geom,bbox,labels_str,taco_restaurant
6a060de26c8241bfae898f8a,Tacos Varios,,,Nuevo Leon 179,Cajeme,Sonora,85000,,,,MX,2013-10-29,2023-12-06,,644 413 7979,,,,,,['4bf58dd8d48988d151941735'],['Dining and Drinking > Restaurant > Mexican Restaurant > Taco Restaurant'],,"{'xmin': None, 'ymin': None, 'xmax': None, 'ymax': None}",dining and drinking > restaurant > mexican restaurant > taco restaurant,1
4d51aebe3626a09369d226bd,Flautas Inn,32.53770377476504,-116.92010068626008,,,,,,,,MX,2011-02-08,2021-08-14,,,,,,,,['4bf58dd8d48988d1c1941735' '4bf58dd8d48988d151941735'],"['Dining and Drinking > Restaurant > Mexican Restaurant'
 'Dining and Drinking > Restaurant > Mexican Restaurant > Taco Restaurant']",b'\x00\x00\x00\x00\x01\xc0]:\xe2\xed\xfd \xe9@@D\xd3z/\xc6\x9b',"{'xmin': -116.92010068626008, 'ymin': 32.53770377476504, 'xmax': -116.92010068626008, 'ymax': 32.53770377476504}","dining and drinking > restaurant > mexican restaurant, dining and drinking > restaurant > mexican restaurant > taco restaurant",1
4d3fa4ba89616dcb9b80fcb4,Tacos los Perrones,32.52018399717684,-117.02542304992676,Calle guanajuato colonia cacho,Tijuana,Baja California,,,,,MX,2011-01-26,2023-12-19,,664 684 7455,,,,,,['4bf58dd8d48988d151941735'],['Dining and Drinking > Restaurant > Mexican Restaurant > Taco Restaurant'],b'\x00\x00\x00\x00\x01\xc0]A\xa0\x88\x00\x00\x00@@B\x95c\xa3\xe3w',"{'xmin': -117.02542304992676, 'ymin': 32.52018399717684, 'xmax': -117.02542304992676, 'ymax': 32.52018399717684}",dining and drinking > restaurant > mexican restaurant > taco restaurant,1
659374f4365944af7fd413d2,Hojalateria Flash,32.50128,-116.917003,Avenida Bufadora,Tijuana,Baja California,20002,,,,MX,2013-06-28,2023-12-06,,664 660 1353,,,,,,['4bf58dd8d48988d151941735' '4d4b7105d754a06378d81259'],"['Dining and Drinking > Restaurant > Mexican Restaurant > Taco Restaurant'
 'Retail']",b'\x00\x00\x00\x00\x01\xc0]:\xb0-Y\xd5^@@@)\xf1k\x11\xc7',"{'xmin': -116.917003, 'ymin': 32.50128, 'xmax': -116.917003, 'ymax': 32.50128}","dining and drinking > restaurant > mexican restaurant > taco restaurant, retail",1
4df2a07714954f21cf2b81f1,El Pandita,31.86597454279176,-116.60596858550541,,Ensenada,BC,,,,,MX,2011-06-10,2020-11-24,,,,,,,,['4bf58dd8d48988d151941735'],['Dining and Drinking > Restaurant > Mexican Restaurant > Taco Restaurant'],b'\x00\x00\x00\x00\x01\xc0]&\xc80vI\x8b@?\xdd\xb0\x81\xf4u\x8c',"{'xmin': -116.60596858550541, 'ymin': 31.86597454279176, 'xmax': -116.60596858550541, 'ymax': 31.86597454279176}",dining and drinking > restaurant > mexican restaurant > taco restaurant,1
505e1d26e4b0c31355891be4,Los Trompos,32.529262,-116.9262732,Galerías Merida,,,,,,,MX,2012-09-22,2021-08-10,,,,,,,,['4bf58dd8d48988d151941735' '4bf58dd8d48988d1c1941735'],"['Dining and Drinking > Restaurant > Mexican Restaurant > Taco Restaurant'
 'Dining and Drinking > Restaurant > Mexican Restaurant']",b'\x00\x00\x00\x00\x01\xc0];H\x0fcJR@@C\xbe\xdbr\x81\xfe',"{'xmin': -116.9262732, 'ymin': 32.529262, 'xmax': -116.9262732, 'ymax': 32.529262}","dining and drinking > restaurant > mexican restaurant > taco restaurant, dining and drinking > restaurant > mexican restaurant",1
52f052fa498ee187dd773bbc,tacos villa #13,31.828081594052758,-116.59236019164938,,,,,,,,MX,2014-02-04,2021-08-13,,,,,,,,['4bf58dd8d48988d151941735'],['Dining and Drinking > Restaurant > Mexican Restaurant > Taco Restaurant'],"b""\x00\x00\x00\x00\x01\xc0]%\xe9:\xb8\xa5\x87@?\xd3\xfd'\xc4\xe0K""","{'xmin': -116.59236019164938, 'ymin': 31.828081594052758, 'xmax': -116.59236019164938, 'ymax': 31.828081594052758}",dining and drinking > restaurant > mexican restaurant > taco restaurant,1
51f6cf1e498e85c80ce1a5a2,Tacos Varios,32.50723942709654,-116.92017675701373,,,,,,,,MX,2013-07-29,2020-11-25,,,,,,,,['4bf58dd8d48988d151941735'],['Dining and Drinking > Restaurant > Mexican Restaurant > Taco Restaurant'],b'\x00\x00\x00\x00\x01\xc0]:\xe4-\rzt@@@\xed8\xb7O\x8b',"{'xmin': -116.92017675701373, 'ymin': 32.50723942709654, 'xmax': -116.92017675701373, 'ymax': 32.50723942709654}",dining and drinking > restaurant > mexican restaurant > taco restaurant,1
4eb1aedce3008b29019e6d8a,Taqueria El poblano,32.7187474368929,-114.72881772102178,,,,,,,,MX,2011-11-02,2021-08-12,,,,,,,,['4bf58dd8d48988d151941735'],['Dining and Drinking > Restaurant > Mexican Restaurant > Taco Restaurant'],"b'\x00\x00\x00\x00\x01\xc0\\\xae\xa4\xf3\x15""*@@[\xff\xea\x7f\xc4\xf8'","{'xmin': -114.72881772102178, 'ymin': 32.7187474368929, 'xmax': -114.72881772102178, 'ymax': 32.7187474368929}",dining and drinking > restaurant > mexican restaurant > taco restaurant,1
4d9e81b29b91a1cdf21b58c0,Tacos Los Troncos,32.522248,-117.01272,"Paseo de Los Heroes 10356, Zona Río,",Tijuana,Baja California,22416,,,,MX,2011-04-08,2020-11-25,2016-11-13,664 634 3261,http://tacoslostroncos.com,,,,,['4bf58dd8d48988d151941735'],['Dining and Drinking > Restaurant > Mexican Restaurant > Taco Restaurant'],b'\x00\x00\x00\x00\x01\xc0]@\xd0g\x8c\x00T@@B\xd9\x05\xc03a',"{'xmin': -117.01272, 'ymin': 32.522248, 'xmax': -117.01272, 'ymax': 32.522248}",dining and drinking > restaurant > mexican restaurant > taco restaurant,1
4ed7b6e65c5ce1cd63917f12,"Tacos De Birria ""La Gorda""",32.500452858685684,-116.97895011872158,Calle 11,Tijuana,BC,21000,,,,MX,2011-12-01,2020-11-22,,,,,,,,['4bf58dd8d48988d151941735'],['Dining and Drinking > Restaurant > Mexican Restaurant > Taco Restaurant'],b'\x00\x00\x00\x00\x01\xc0]>\xa7\x1ef\x14\xc5@@@\x0e\xd6\xda\x9fS',"{'xmin': -116.97895011872158, 'ymin': 32.500452858685684, 'xmax': -116.97895011872158, 'ymax': 32.500452858685684}",dining and drinking > restaurant > mexican restaurant > taco restaurant,1
5d8fab2448805d000877349e,Xolotacos La Cuesta,32.420497,-117.030989,,Tijuana,BC,22650,,,,MX,2019-09-28,2020-11-23,,,,,,,,['4bf58dd8d48988d151941735'],['Dining and Drinking > Restaurant > Mexican Restaurant > Taco Restaurant'],b'\x00\x00\x00\x00\x01\xc0]A\xfb\xb9IbJ@@5\xd2\xd8\x7f\x88v',"{'xmin': -117.030989, 'ymin': 32.420497, 'xmax': -117.030989, 'ymax': 32.420497}",dining and drinking > restaurant > mexican restaurant > taco restaurant,1
4d858950e83fa1435a7f7da1,El Grill,32.659875,-115.421491,,,,,,,,MX,2011-03-20,2021-08-16,2014-01-13,,,,,,,['4bf58dd8d48988d151941735'],['Dining and Drinking > Restaurant > Mexican Restaurant > Taco Restaurant'],b'\x00\x00\x00\x00\x01\xc0\\\xda\xf9\xb5c#\xbc@@Tv\xc8\xb49X',"{'xmin': -115.421491, 'ymin': 32.659875, 'xmax': -115.421491, 'ymax': 32.659875}",dining and drinking > restaurant > mexican restaurant > taco restaurant,1
52b9d7c7498e46756eb76ef8,Rincon del Puerto,31.890443801879883,-116.69122314453125,M,Sauzal,Baja California,22760,,,,MX,2013-12-24,2020-11-24,,646 131 7536,,,,,,['4bf58dd8d48988d151941735'],['Dining and Drinking > Restaurant > Mexican Restaurant > Taco Restaurant'],"b'\x00\x00\x00\x00\x01\xc0],=\x00\x00\x00\x00@?\xe3\xf4 \x00\x00\x00'","{'xmin': -116.69122314453125, 'ymin': 31.890443801879883, 'xmax': -116.69122314453125, 'ymax': 31.890443801879883}",dining and drinking > restaurant > mexican restaurant > taco restaurant,1
503da5f1e4b0857b0025bf61,Only Sonora Tacos & Ribs,32.51965016590038,-116.98303179655095,,,,,,,,MX,2012-08-29,2023-12-19,,664 116 9826,,,,,,['4bf58dd8d48988d151941735'],['Dining and Drinking > Restaurant > Mexican Restaurant > Taco Restaurant'],b'\x00\x00\x00\x00\x01\xc0]>\xe9\xfe2GS@@B\x83\xe5\x89\xf3\x99',"{'xmin': -116.98303179655095, 'ymin': 32.51965016590038, 'xmax': -116.98303179655095, 'ymax': 32.51965016590038}",dining and drinking > restaurant > mexican restaurant > taco restaurant,1
4d9c943183f36ea86f7ba494,Tacos A Vapor Gil,32.5286986637749,-116.9484244371226,,,,,,,,MX,2011-04-06,2023-12-19,,664 210 4717,,,,,,['4bf58dd8d48988d151941735'],['Dining and Drinking > Restaurant > Mexican Restaurant > Taco Restaurant'],b'\x00\x00\x00\x00\x01\xc0]<\xb2\xfci\n\xcd@@C\xace\xd7-\x11',"{'xmin': -116.9484244371226, 'ymin': 32.5286986637749, 'xmax': -116.9484244371226, 'ymax': 32.5286986637749}",dining and drinking > restaurant > mexican restaurant > taco restaurant,1
4d38c5d7c5285481e558dcb9,Gorditas Doña Tota,32.64890404210064,-115.4775460673094,,,,,,,,MX,2011-01-20,2023-12-20,,686 556 1412,,,,,,['4bf58dd8d48988d1c1941735' '4bf58dd8d48988d151941735'],"['Dining and Drinking > Restaurant > Mexican Restaurant'
 'Dining and Drinking > Restaurant > Mexican Restaurant > Taco Restaurant']",b'\x00\x00\x00\x00\x01\xc0\\\xde\x90\x1da[Y@@S\x0fI\xa3\x88@',"{'xmin': -115.4775460673094, 'ymin': 32.64890404210064, 'xmax': -115.4775460673094, 'ymax': 32.64890404210064}","dining and drinking > restaurant > mexican restaurant, dining and drinking > restaurant > mexican restaurant > taco restaurant",1
58f2ab0e1ffe9748fd489644,Mariscos el Machatlan,32.535387,-117.034119,,,,,,,,MX,2017-04-15,2023-12-20,,664 688 1261,,,,,,['4bf58dd8d48988d151941735'],['Dining and Drinking > Restaurant > Mexican Restaurant > Taco Restaurant'],b'\x00\x00\x00\x00\x01\xc0]B/\x01uK\x06@@D\x87\x8f\xab\xda\x0e',"{'xmin': -117.034119, 'ymin': 32.535387, 'xmax': -117.034119, 'ymax': 32.535387}",dining and drinking > restaurant > mexican restaurant > taco restaurant,1
5057d62ce4b05aa0401079f3,tacos el deudas,20.91045246295774,-100.74636965590425,,,,,,,,MX,2012-09-18,2021-08-15,,,,,,,,['4bf58dd8d48988d151941735'],['Dining and Drinking > Restaurant > Mexican Restaurant > Taco Restaurant'],b'\x00\x00\x00\x00\x01\xc0Y/\xc4\x85;\xb5y@4\xe9\x13i\xa0\xf7U',"{'xmin': -100.74636965590425, 'ymin': 20.91045246295774, 'xmax': -100.74636965590425, 'ymax': 20.91045246295774}",dining and drinking > restaurant > mexican restaurant > taco restaurant,1
63783c979c7e4e5424d729df,Tacos Jhony,19.228085,-104.705376,,San Patricio,Jalisco,48980,,,,MX,2022-11-19,2022-11-19,,,,,,,,['4bf58dd8d48988d151941735'],['Dining and Drinking > Restaurant > Mexican Restaurant > Taco Restaurant'],b'\x00\x00\x00\x00\x01\xc0Z-$\xe1`\xd8\x88@3:c\xc7O\xb5J',"{'xmin': -104.705376, 'ymin': 19.228085, 'xmax': -104.705376, 'ymax': 19.228085}",dining and drinking > restaurant > mexican restaurant > taco restaurant,1
5c57b810c62b49002cd1bcc7,Taqueria Lupita,20.942208,-101.428652,,Silao,GTO,36100,,,,MX,2019-02-04,2020-11-25,,,,,,,,['4bf58dd8d48988d151941735' '4bf58dd8d48988d1c1941735'],"['Dining and Drinking > Restaurant > Mexican Restaurant > Taco Restaurant'
 'Dining and Drinking > Restaurant > Mexican Restaurant']","b'\x00\x00\x00\x00\x01\xc0Y[o\x08\xccW\\@4\xf14\x8b""\x07\x92'","{'xmin': -101.428652, 'ymin': 20.942208, 'xmax': -101.428652, 'ymax': 20.942208}","dining and drinking > restaurant > mexican restaurant > taco restaurant, dining and drinking > restaurant > mexican restaurant",1
4cfb1903c51fa1cd8d08e52b,Taqueria el Halcon Pena,20.682874,-103.358986,Garibaldi 853,Guadalajara,Jalisco,,,,,MX,2010-12-05,2021-08-15,,,,,,,,['4bf58dd8d48988d151941735'],['Dining and Drinking > Restaurant > Mexican Restaurant > Taco Restaurant'],b'\x00\x00\x00\x00\x01\xc0Y\xd6\xf9\xa0jn3@4\xae\xd0\xd4\x99I\xe9',"{'xmin': -103.358986, 'ymin': 20.682874, 'xmax': -103.358986, 'ymax': 20.682874}",dining and drinking > restaurant > mexican restaurant > taco restaurant,1
4ec31dfc02d5ad633a0d2b65,"Tacos ""el canelo""",20.7283883,-102.8922414,,,,,,,,MX,2011-11-16,2020-11-24,,,,,,,,['4bf58dd8d48988d151941735'],['Dining and Drinking > Restaurant > Mexican Restaurant > Taco Restaurant'],b'\x00\x00\x00\x00\x01\xc0Y\xb9\x1a{\xacH\xc9@4\xbaw\xa7\xd7I\xfe',"{'xmin': -102.8922414, 'ymin': 20.7283883, 'xmax': -102.8922414, 'ymax': 20.7283883}",dining and drinking > restaurant > mexican restaurant > taco restaurant,1
510d337be4b0ae0248a8b5fe,sony,20.673855962055306,-103.38086701083206,,,,,,,,MX,2013-02-02,2021-08-13,,,,,,,,['4bf58dd8d48988d151941735'],['Dining and Drinking > Restaurant > Mexican Restaurant > Taco Restaurant'],b'\x00\x00\x00\x00\x01\xc0Y\xd8` \x06\xe9\x89@4\xac\x81\xd3\x07=\xfe',"{'xmin': -103.38086701083206, 'ymin': 20.673855962055306, 'xmax': -103.38086701083206, 'ymax': 20.673855962055306}",dining and drinking > restaurant > mexican restaurant > taco restaurant,1
59360f241b0ea560e3154a63,Asador De En 1/2,20.682896,-103.433002,122 Calle Toulouse Lautrec,Guadalajara,JAL,45029,,,,MX,2017-06-06,2020-11-22,,,,,,,,['4bf58dd8d48988d151941735' '4bf58dd8d48988d1df931735'],"['Dining and Drinking > Restaurant > Mexican Restaurant > Taco Restaurant'
 'Dining and Drinking > Restaurant > BBQ Joint']",b'\x00\x00\x00\x00\x01\xc0Y\xdb\xb6N\x05F\x91@4\xae\xd2E\xb2\x91\xb8',"{'xmin': -103.433002, 'ymin': 20.682896, 'xmax': -103.433002, 'ymax': 20.682896}","dining and drinking > restaurant > mexican restaurant > taco restaurant, dining and drinking > restaurant > bbq joint",1
52e081fd498ee8792fb128b6,Tacos La Perla de Jalisco,20.698009636068782,-103.34095025157474,Diego Rivera 500,"Guadalajara, JAL",Jalisco,,,,,MX,2014-01-23,2021-08-11,,,,,,,,['4bf58dd8d48988d151941735'],['Dining and Drinking > Restaurant > Mexican Restaurant > Taco Restaurant'],b'\x00\x00\x00\x00\x01\xc0Y\xd5\xd2!\x01\x04\xe5@4\xb2\xb0\xc2o5R',"{'xmin': -103.34095025157474, 'ymin': 20.698009636068782, 'xmax': -103.34095025157474, 'ymax': 20.698009636068782}",dining and drinking > restaurant > mexican restaurant > taco restaurant,1
568b4c1a498e4216396f022f,"tacos ""Doña Mary""",19.768371,-104.372818,Manuel Doblado 113,Autlan De Navarro,Jalisco,,,,,MX,2016-01-05,2020-11-24,,,,,,,,['4bf58dd8d48988d151941735'],['Dining and Drinking > Restaurant > Mexican Restaurant > Taco Restaurant'],b'\x00\x00\x00\x00\x01\xc0Z\x17\xdc@\x07W\x0c@3\xc4\xb3\xf6<1\xdf',"{'xmin': -104.372818, 'ymin': 19.768371, 'xmax': -104.372818, 'ymax': 19.768371}",dining and drinking > restaurant > mexican restaurant > taco restaurant,1
51ae5c9f498eed687b423ab9,Los Arrayanes,21.440490945440388,-104.90035235010411,,,,,,,,MX,2013-06-04,2021-08-11,,,,,,,,['4bf58dd8d48988d151941735'],['Dining and Drinking > Restaurant > Mexican Restaurant > Taco Restaurant'],b'\x00\x00\x00\x00\x01\xc0Z9\x9f_v\xa4\xbb@5p\xc4\x03\xbc\xd9\xc0',"{'xmin': -104.90035235010411, 'ymin': 21.440490945440388, 'xmax': -104.90035235010411, 'ymax': 21.440490945440388}",dining and drinking > restaurant > mexican restaurant > taco restaurant,1
58253abc5cc1d73f75413665,Tacos Pinha,20.754292,-105.24243,,,,,,,,MX,2016-11-11,2021-08-12,,,,,,,,['4bf58dd8d48988d151941735'],['Dining and Drinking > Restaurant > Mexican Restaurant > Taco Restaurant'],b'\x00\x00\x00\x00\x01\xc0ZO\x83\xf9\x1edo@4\xc1\x19G\xcf\xa2j',"{'xmin': -105.24243, 'ymin': 20.754292, 'xmax': -105.24243, 'ymax': 20.754292}",dining and drinking > restaurant > mexican restaurant > taco restaurant,1
4f0c7c2de4b0261c943fd6b4,tacos el renegon,20.693270206415022,-103.30652785954568,,,,,,,,MX,2012-01-10,2021-08-11,,,,,,,,['4bf58dd8d48988d151941735'],['Dining and Drinking > Restaurant > Mexican Restaurant > Taco Restaurant'],"b""\x00\x00\x00\x00\x01\xc0Y\xd3\x9e'\x07\x03\xf1@4\xb1z'\xff\xd7\xfc""","{'xmin': -103.30652785954568, 'ymin': 20.693270206415022, 'xmax': -103.30652785954568, 'ymax': 20.693270206415022}",dining and drinking > restaurant > mexican restaurant > taco restaurant,1
529977fd11d2e613b01b250d,Tacos Los Gerentes,20.719286,-103.346963,,,,,,,,MX,2013-11-30,2021-08-14,,,,,,,,['4bf58dd8d48988d151941735'],['Dining and Drinking > Restaurant > Mexican Restaurant > Taco Restaurant'],b'\x00\x00\x00\x00\x01\xc0Y\xd64\xa4L{\x03@4\xb8# \x96x}',"{'xmin': -103.346963, 'ymin': 20.719286, 'xmax': -103.346963, 'ymax': 20.719286}",dining and drinking > restaurant > mexican restaurant > taco restaurant,1
4febb5fbe4b0602aa61110eb,Tacos El Chato,21.10585903316212,-101.64810060843199,,,,,,,,MX,2012-06-28,2021-08-15,,,,,,,,['4bf58dd8d48988d151941735'],['Dining and Drinking > Restaurant > Mexican Restaurant > Taco Restaurant'],b'\x00\x00\x00\x00\x01\xc0Yizz\xf9n\xeb@5\x1b\x19\x93\xddj\xe0',"{'xmin': -101.64810060843199, 'ymin': 21.10585903316212, 'xmax': -101.64810060843199, 'ymax': 21.10585903316212}",dining and drinking > restaurant > mexican restaurant > taco restaurant,1
799e9078532a47bcb6206d12,Quesadillas Presa del Tigre,21.174088,-101.63937,Presa del Tigre 311,León,Guanajuato,37000,,,,MX,2013-03-29,2023-12-06,,477 790 6103,,,,,,['4bf58dd8d48988d151941735'],['Dining and Drinking > Restaurant > Mexican Restaurant > Taco Restaurant'],"b'\x00\x00\x00\x00\x01\xc0Yh\xebp&\x02\xc9@5,\x91\x07\xfa\xa0E'","{'xmin': -101.63937, 'ymin': 21.174088, 'xmax': -101.63937, 'ymax': 21.174088}",dining and drinking > restaurant > mexican restaurant > taco restaurant,1
568dcc6f498e59e7a04d19c3,Tacos El Toluco,20.748741,-105.252124,,,,,,,,MX,2016-01-07,2021-08-17,,,,,,,,['4bf58dd8d48988d151941735'],['Dining and Drinking > Restaurant > Mexican Restaurant > Taco Restaurant'],"b'\x00\x00\x00\x00\x01\xc0ZP""\xcc\xb3\xa2Y@4\xbf\xad}|,\xa1'","{'xmin': -105.252124, 'ymin': 20.748741, 'xmax': -105.252124, 'ymax': 20.748741}",dining and drinking > restaurant > mexican restaurant > taco restaurant,1
4e420f8218a8627fce424fc2,Tacos Naranja,20.66948110851729,-103.4182284875251,Clouthier 290,Zapopan,JAL,,,,,MX,2011-08-10,2023-12-20,,33 1815 2203,,,,,,['4bf58dd8d48988d151941735' '4bf58dd8d48988d1c1941735'],"['Dining and Drinking > Restaurant > Mexican Restaurant > Taco Restaurant'
 'Dining and Drinking > Restaurant > Mexican Restaurant']",b'\x00\x00\x00\x00\x01\xc0Y\xda\xc4Ak\x0bA@4\xabc\x1d*_ ',"{'xmin': -103.4182284875251, 'ymin': 20.66948110851729, 'xmax': -103.4182284875251, 'ymax': 20.66948110851729}","dining and drinking > restaurant > mexican restaurant > taco restaurant, dining and drinking > restaurant > mexican restaurant",1
5334dee5498edf0bebf3dd9e,Los Gueros de Arandas,21.86374606994301,-102.26955426063554,,,,,,,,MX,2014-03-28,2021-08-11,,,,,,,,['4bf58dd8d48988d151941735'],['Dining and Drinking > Restaurant > Mexican Restaurant > Taco Restaurant'],b'\x00\x00\x00\x00\x01\xc0Y\x91@`\x83{V@5\xdd\x1evbt)',"{'xmin': -102.26955426063554, 'ymin': 21.86374606994301, 'xmax': -102.26955426063554, 'ymax': 21.86374606994301}",dining and drinking > restaurant > mexican restaurant > taco restaurant,1
4e98e157cc218247d919dd3f,El charco,22.157372876676476,-100.99674987729622,Colorines,,,,,,,MX,2011-10-15,2021-08-15,,,,,,,,['4bf58dd8d48988d151941735'],['Dining and Drinking > Restaurant > Mexican Restaurant > Taco Restaurant'],b'\x00\x00\x00\x00\x01\xc0Y?\xca\xbf\xffQ\xe0@6(I\x96\xbe\x9aX',"{'xmin': -100.99674987729622, 'ymin': 22.157372876676476, 'xmax': -100.99674987729622, 'ymax': 22.157372876676476}",dining and drinking > restaurant > mexican restaurant > taco restaurant,1
662b02c6b451280a75ecd0a8,Tacos El Gordo,19.265835,-103.717688,,Colima,Col.,28017,,,,MX,2024-04-26,2024-04-26,,,,,,,,['4bf58dd8d48988d151941735'],['Dining and Drinking > Restaurant > Mexican Restaurant > Taco Restaurant'],b'\x00\x00\x00\x00\x01\xc0Y\xed\xee\x99\xa6.\xd3@3D\r\xc37!\xd5',"{'xmin': -103.717688, 'ymin': 19.265835, 'xmax': -103.717688, 'ymax': 19.265835}",dining and drinking > restaurant > mexican restaurant > taco restaurant,1
52f7030611d2b8a519d521de,"Tacos ""Esmeralda""",19.120652,-104.345599,,Manzanillo,COL,,,,,MX,2014-02-09,2020-11-22,,,,,,,,['4bf58dd8d48988d151941735'],['Dining and Drinking > Restaurant > Mexican Restaurant > Taco Restaurant'],b'\x00\x00\x00\x00\x01\xc0Z\x16\x1eKD\xa1\xf1@3\x1e\xe3\x0c\xaa2n',"{'xmin': -104.345599, 'ymin': 19.120652, 'xmax': -104.345599, 'ymax': 19.120652}",dining and drinking > restaurant > mexican restaurant > taco restaurant,1
5323b017498e34ea15cc0540,Taqueria Camila,20.660567,-105.236513,,,,,,,,MX,2014-03-15,2021-08-14,,,,,,,,['4bf58dd8d48988d151941735'],['Dining and Drinking > Restaurant > Mexican Restaurant > Taco Restaurant'],b'\x00\x00\x00\x00\x01\xc0ZO#\x07l\x05\x0c@4\xa9\x1a\xeb=\xd1\x1c',"{'xmin': -105.236513, 'ymin': 20.660567, 'xmax': -105.236513, 'ymax': 20.660567}",dining and drinking > restaurant > mexican restaurant > taco restaurant,1
4ec6b0cb5c5ce271bc99a1a1,Tacos Lamat (Barbacoa),20.637812,-103.42856,,Zapopan,Jalisco,,,,,MX,2011-11-18,2020-11-30,,,,,,,,['4bf58dd8d48988d151941735'],['Dining and Drinking > Restaurant > Mexican Restaurant > Taco Restaurant'],b'\x00\x00\x00\x00\x01\xc0Y\xdbm\x86\xec\x17\xec@4\xa3G\xa5\xb0\xff\x11',"{'xmin': -103.42856, 'ymin': 20.637812, 'xmax': -103.42856, 'ymax': 20.637812}",dining and drinking > restaurant > mexican restaurant > taco restaurant,1
588ea15465be581749cfe82c,Mi Takiza !,20.650967,-103.287428,Manuel R Alatorre 3709,Guadalajara,Jalisco,,,,,MX,2017-01-30,2021-08-12,,,,,,,,['4bf58dd8d48988d151941735'],['Dining and Drinking > Restaurant > Mexican Restaurant > Taco Restaurant'],b'\x00\x00\x00\x00\x01\xc0Y\xd2e8h\xfd\x1a@4\xa6\xa5\xc5\xf7\xc6v',"{'xmin': -103.287428, 'ymin': 20.650967, 'xmax': -103.287428, 'ymax': 20.650967}",dining and drinking > restaurant > mexican restaurant > taco restaurant,1
520d599b11d2a4edcd56fb85,Las Quekas del comal,20.728532791137695,-103.37533569335938,Venustiano Carranza,Guadalajara,Jalisco,,,,,MX,2013-08-15,2020-11-24,,,,,,,,['4bf58dd8d48988d151941735'],['Dining and Drinking > Restaurant > Mexican Restaurant > Taco Restaurant'],b'\x00\x00\x00\x00\x01\xc0Y\xd8\x05\x80\x00\x00\x00@4\xba\x81 \x00\x00\x00',"{'xmin': -103.37533569335938, 'ymin': 20.728532791137695, 'xmax': -103.37533569335938, 'ymax': 20.728532791137695}",dining and drinking > restaurant > mexican restaurant > taco restaurant,1
517ad013e4b03b8e0c77477c,Tacos al vapor El Gera,20.67380278032129,-103.3694434431046,,Guadalajara,JAL,,,,,MX,2013-04-26,2021-08-13,,,,,,,,['4bf58dd8d48988d151941735'],['Dining and Drinking > Restaurant > Mexican Restaurant > Taco Restaurant'],b'\x00\x00\x00\x00\x01\xc0Y\xd7\xa4\xf6\x1cv\xc7@4\xac~V\xc9o\x0e',"{'xmin': -103.3694434431046, 'ymin': 20.67380278032129, 'xmax': -103.3694434431046, 'ymax': 20.67380278032129}",dining and drinking > restaurant > mexican restaurant > taco restaurant,1
54bfd9ec498e25bb5b9e44c9,Tacos City,20.672816303209405,-103.38117729484843,Francisco De Quevedo,Guadalajara,Jalisco,44130,,,,MX,2015-01-21,2021-08-16,,,,,,,,['4bf58dd8d48988d151941735'],['Dining and Drinking > Restaurant > Mexican Restaurant > Taco Restaurant'],b'\x00\x00\x00\x00\x01\xc0Y\xd8e5s\xd6\x83@4\xac=\xb0r\x80\x01',"{'xmin': -103.38117729484843, 'ymin': 20.672816303209405, 'xmax': -103.38117729484843, 'ymax': 20.672816303209405}",dining and drinking > restaurant > mexican restaurant > taco restaurant,1
4e0c8b13fa76eaf8b39e122d,El Che & Mesie,20.721011029316323,-103.36330176690838,Atemajac 1378,Zapopan,Jalisco,,,,,MX,2011-06-30,2023-02-21,,33 1542 1524,,,,,,['4bf58dd8d48988d151941735'],['Dining and Drinking > Restaurant > Mexican Restaurant > Taco Restaurant'],b'\x00\x00\x00\x00\x01\xc0Y\xd7@V\r\xdc\xd5@4\xb8\x94-\xc6\xf8\n',"{'xmin': -103.36330176690838, 'ymin': 20.721011029316323, 'xmax': -103.36330176690838, 'ymax': 20.721011029316323}",dining and drinking > restaurant > mexican restaurant > taco restaurant,1
516f6c40e4b011f401f7a84c,Tacos de Vino Tinto,20.699014818278354,-103.35489045571286,Federalismo,Guadalajara,Jalisco,,,,,MX,2013-04-18,2021-08-14,,,,,,,,['4bf58dd8d48988d151941735'],['Dining and Drinking > Restaurant > Mexican Restaurant > Taco Restaurant'],b'\x00\x00\x00\x00\x01\xc0Y\xd6\xb6\x86u<\xc1@4\xb2\xf2\xa2\x97\xec\xc7',"{'xmin': -103.35489045571286, 'ymin': 20.699014818278354, 'xmax': -103.35489045571286, 'ymax': 20.699014818278354}",dining and drinking > restaurant > mexican restaurant > taco restaurant,1
4eece2e79911d70cb72a19a4,"Tacos El amigo ""Gus""",20.689170961945155,-103.32490730528008,Monte ajusco 648,Guadalajara,Jalisco,,,,,MX,2011-12-17,2021-08-15,,,,,,,,['4bf58dd8d48988d151941735'],['Dining and Drinking > Restaurant > Mexican Restaurant > Taco Restaurant'],b'\x00\x00\x00\x00\x01\xc0Y\xd4\xcbH\x02\x9a4@4\xb0m\x82\x16\xe8E',"{'xmin': -103.32490730528008, 'ymin': 20.689170961945155, 'xmax': -103.32490730528008, 'ymax': 20.689170961945155}",dining and drinking > restaurant > mexican restaurant > taco restaurant,1
4e5c41ded22dcfc93412c934,Tacos Reyes,21.1183827908485,-101.6831889863652,,León de Los Aldama,Guanajuato,,,,,MX,2011-08-30,2021-08-25,,,,,,,,['4bf58dd8d48988d151941735'],['Dining and Drinking > Restaurant > Mexican Restaurant > Taco Restaurant'],b'\x00\x00\x00\x00\x01\xc0Yk\xb9^L[B@5\x1eNU\xa7\x1a\x80',"{'xmin': -101.6831889863652, 'ymin': 21.1183827908485, 'xmax': -101.6831889863652, 'ymax': 21.1183827908485}",dining and drinking > restaurant > mexican restaurant > taco restaurant,1
5495c65a498e3b3acba9d477,Ola Chula,20.691222,-103.324016,Belisario Domínguez 1360 A,Guadalajara,Jalisco,,,,,MX,2014-12-20,2021-08-12,,33 1803 3514,,,,,,['4bf58dd8d48988d151941735'],['Dining and Drinking > Restaurant > Mexican Restaurant > Taco Restaurant'],b'\x00\x00\x00\x00\x01\xc0Y\xd4\xbc\xad\x9a\xd8^@4\xb0\xf3\xec\xccF\x95',"{'xmin': -103.324016, 'ymin': 20.691222, 'xmax': -103.324016, 'ymax': 20.691222}",dining and drinking > restaurant > mexican restaurant > taco restaurant,1
4dce0013d164679b8cf5b680,Los Orientales,19.243985194188472,-103.71199789826875,Insurgentes,Colima,COL,,,,,MX,2011-05-14,2020-11-26,,,,,,,,['4bf58dd8d48988d151941735'],['Dining and Drinking > Restaurant > Mexican Restaurant > Taco Restaurant'],b'\x00\x00\x00\x00\x01\xc0Y\xed\x91_\xa1\xf8\xa4@3>u\xd0M\xbfi',"{'xmin': -103.71199789826875, 'ymin': 19.243985194188472, 'xmax': -103.71199789826875, 'ymax': 19.243985194188472}",dining and drinking > restaurant > mexican restaurant > taco restaurant,1
4fa355f8e4b0bbcd4860a4fa,Takitos El Cebollo,20.802106,-103.494961,,,,,,,,MX,2012-05-04,2020-11-30,,,,,,,,['4bf58dd8d48988d151941735'],['Dining and Drinking > Restaurant > Mexican Restaurant > Taco Restaurant'],b'\x00\x00\x00\x00\x01\xc0Y\xdf\xadp\xe6\xf2\xe9@4\xcdV\xd1\x9d\xec\xe5',"{'xmin': -103.494961, 'ymin': 20.802106, 'xmax': -103.494961, 'ymax': 20.802106}",dining and drinking > restaurant > mexican restaurant > taco restaurant,1
4c83077ed4e23704e2c56d88,Tacos Los Gansos,20.691100038822476,-101.35428252274211,Blvd. Ejercito Nacional,Irapuato,GTO,,,,,MX,2010-09-05,2020-11-26,,,,,,,,['4bf58dd8d48988d151941735'],['Dining and Drinking > Restaurant > Mexican Restaurant > Taco Restaurant'],b'\x00\x00\x00\x00\x01\xc0YV\xac\x90\x9a.1@4\xb0\xeb\xee\xa1\x01\xc2',"{'xmin': -101.35428252274211, 'ymin': 20.691100038822476, 'xmax': -101.35428252274211, 'ymax': 20.691100038822476}",dining and drinking > restaurant > mexican restaurant > taco restaurant,1
4f4d20f7e4b0ca29913d4d07,Los Abuelos Tacos & Lonches,20.660133,-103.353361,Calzada Del Águila 64-B,Guadalajara,Jalisco,,,,,MX,2012-02-28,2021-08-13,2012-11-02,,,,,,,['4bf58dd8d48988d151941735'],['Dining and Drinking > Restaurant > Mexican Restaurant > Taco Restaurant'],b'\x00\x00\x00\x00\x01\xc0Y\xd6\x9dwt\xab\xa4@4\xa8\xfey\xee\x02\xa7',"{'xmin': -103.353361, 'ymin': 20.660133, 'xmax': -103.353361, 'ymax': 20.660133}",dining and drinking > restaurant > mexican restaurant > taco restaurant,1
59866e01e96d0c55fca9c14e,Tacos Pancho,20.984058,-101.284514,Euquerio Guerrero,Guanajuato,GTO,36256,,,,MX,2017-08-06,2020-11-25,,,,,,,,['4bf58dd8d48988d151941735'],['Dining and Drinking > Restaurant > Mexican Restaurant > Taco Restaurant'],b'\x00\x00\x00\x00\x01\xc0YR5z5PD@4\xfb\xeb9\x9f]\xff',"{'xmin': -101.284514, 'ymin': 20.984058, 'xmax': -101.284514, 'ymax': 20.984058}",dining and drinking > restaurant > mexican restaurant > taco restaurant,1
5214288a11d2acef75cc41d3,JOS,20.640745,-103.394437,,,,,,,,MX,2013-08-21,2021-08-16,,,,,,,,['4bf58dd8d48988d151941735'],['Dining and Drinking > Restaurant > Mexican Restaurant > Taco Restaurant'],b'\x00\x00\x00\x00\x01\xc0Y\xd9>t\xaf\xd5E@4\xa4\x07\xddD\x13U',"{'xmin': -103.394437, 'ymin': 20.640745, 'xmax': -103.394437, 'ymax': 20.640745}",dining and drinking > restaurant > mexican restaurant > taco restaurant,1
5473e3ca498e965916e5a3ea,tijuana tacos,20.729422,-103.451805,,,,,,,,MX,2014-11-25,2021-08-15,,,,,,,,['4bf58dd8d48988d151941735'],['Dining and Drinking > Restaurant > Mexican Restaurant > Taco Restaurant'],b'\x00\x00\x00\x00\x01\xc0Y\xdc\xea_\x84\xca\xd5@4\xba\xbbfr\xfb\xa0',"{'xmin': -103.451805, 'ymin': 20.729422, 'xmax': -103.451805, 'ymax': 20.729422}",dining and drinking > restaurant > mexican restaurant > taco restaurant,1
5ad0d95024962312272a5d97,Los 7 Filos,21.494254,-104.8945,,Tepic,NAY,63155,,,,MX,2018-04-13,2020-11-22,,,,,,,,['4bf58dd8d48988d151941735'],['Dining and Drinking > Restaurant > Mexican Restaurant > Taco Restaurant'],b'\x00\x00\x00\x00\x01\xc0Z9?|\xed\x91h@5~\x87n\x1d\xea\xcd',"{'xmin': -104.8945, 'ymin': 21.494254, 'xmax': -104.8945, 'ymax': 21.494254}",dining and drinking > restaurant > mexican restaurant > taco restaurant,1
56d47e25498e7ef4039c2447,Tortillería Márquez,21.10284900263709,-101.66619787233819,Almendro 102,León,Guabajuato,37480,,,,MX,2016-02-29,2020-11-25,,,,,,,,['4bf58dd8d48988d151941735'],['Dining and Drinking > Restaurant > Mexican Restaurant > Taco Restaurant'],b'\x00\x00\x00\x00\x01\xc0Yj\xa2\xfcf\x96\xde@5\x1aTO\xee\xc0\xa5',"{'xmin': -101.66619787233819, 'ymin': 21.10284900263709, 'xmax': -101.66619787233819, 'ymax': 21.10284900263709}",dining and drinking > restaurant > mexican restaurant > taco restaurant,1
53402d81498eca34f88819f4,tacos de canasta,19.6871,-101.191856,Virrey De Mendoza Local 1,,,,,,,MX,2014-04-05,2021-08-17,,,,,,,,['4bf58dd8d48988d151941735'],['Dining and Drinking > Restaurant > Mexican Restaurant > Taco Restaurant'],b'\x00\x00\x00\x00\x01\xc0YLG^cb\xa6@3\xaf\xe5\xc9\x1d\x14\xe4',"{'xmin': -101.191856, 'ymin': 19.6871, 'xmax': -101.191856, 'ymax': 19.6871}",dining and drinking > restaurant > mexican restaurant > taco restaurant,1
507203c9e4b00022a2299cc5,"Taqueria ""La Marchanta""",20.757479,-105.34041,,,,,,,,MX,2012-10-07,2021-08-17,,,,,,,,['4bf58dd8d48988d151941735'],['Dining and Drinking > Restaurant > Mexican Restaurant > Taco Restaurant'],b'\x00\x00\x00\x00\x01\xc0ZU\xc9G\x06N\xcf@4\xc1\xea$\xcch#',"{'xmin': -105.34041, 'ymin': 20.757479, 'xmax': -105.34041, 'ymax': 20.757479}",dining and drinking > restaurant > mexican restaurant > taco restaurant,1
5667570c498ecb6cc73fc094,tacos el remolque,20.703625,-103.459105,,,,,,,,MX,2015-12-08,2021-08-10,,,,,,,,['4bf58dd8d48988d151941735'],['Dining and Drinking > Restaurant > Mexican Restaurant > Taco Restaurant'],b'\x00\x00\x00\x00\x01\xc0Y\xdda\xf9\xf0\x1b\x86@4\xb4 \xc4\x9b\xa5\xe3',"{'xmin': -103.459105, 'ymin': 20.703625, 'xmax': -103.459105, 'ymax': 20.703625}",dining and drinking > restaurant > mexican restaurant > taco restaurant,1
65a02af2bd5aa02356a7cf24,Tacos Goyo,20.714014,-105.275408,Calle Valle De Los Olivos,Valle Dorado,Nay.,63735,,,,MX,2024-01-11,2024-01-11,,,,,,,,['4bf58dd8d48988d151941735'],['Dining and Drinking > Restaurant > Mexican Restaurant > Taco Restaurant'],b'\x00\x00\x00\x00\x01\xc0ZQ\xa0H\xe0C\xa2@4\xb6\xc9\x9f\x1a\xe2\xda',"{'xmin': -105.275408, 'ymin': 20.714014, 'xmax': -105.275408, 'ymax': 20.714014}",dining and drinking > restaurant > mexican restaurant > taco restaurant,1
644c3b72b92eda361c712cbd,Tacos Al Vapor,20.616454,-103.362296,,Guadalajara,JAL,44977,,,,MX,2023-04-28,2023-04-28,,,,,,,,['4bf58dd8d48988d151941735'],['Dining and Drinking > Restaurant > Mexican Restaurant > Taco Restaurant'],b'\x00\x00\x00\x00\x01\xc0Y\xd7/\xdb\x8f\xde/@4\x9d\xcf\xed\xe9}\x07',"{'xmin': -103.362296, 'ymin': 20.616454, 'xmax': -103.362296, 'ymax': 20.616454}",dining and drinking > restaurant > mexican restaurant > taco restaurant,1
53c020b2498e50b638ab257e,La Cocina de Juanita,21.143830766371075,-101.70494556427002,Oceano Pacífico #125,León,Guanajuato,,,,,MX,2014-07-11,2020-11-24,,477 141 3133,,,,,,['4bf58dd8d48988d151941735' '4bf58dd8d48988d1c1941735'],"['Dining and Drinking > Restaurant > Mexican Restaurant > Taco Restaurant'
 'Dining and Drinking > Restaurant > Mexican Restaurant']",b'\x00\x00\x00\x00\x01\xc0Ym\x1d\xd4\x00\x00\x00@5$\xd2\x17\xd5\xb8\xee',"{'xmin': -101.70494556427002, 'ymin': 21.143830766371075, 'xmax': -101.70494556427002, 'ymax': 21.143830766371075}","dining and drinking > restaurant > mexican restaurant > taco restaurant, dining and drinking > restaurant > mexican restaurant",1
51c51711498edd33f65b67ba,Matute Tacos & Parrilla,20.664945,-103.397174,,,,,,,,MX,2013-06-22,2021-08-15,,,,,,,,['4bf58dd8d48988d151941735'],['Dining and Drinking > Restaurant > Mexican Restaurant > Taco Restaurant'],b'\x00\x00\x00\x00\x01\xc0Y\xd9kL\x7f4\x94@4\xaa9\xd5\xe4\xa3\x83',"{'xmin': -103.397174, 'ymin': 20.664945, 'xmax': -103.397174, 'ymax': 20.664945}",dining and drinking > restaurant > mexican restaurant > taco restaurant,1
4c8530efd92ea093798e6372,Tacos de carnitas El Güero,20.697102374395783,-103.3100570307942,Nudo de cempoaltepetl,Guadalajara,Jalisco,,,,,MX,2010-09-06,2021-08-14,,,,,,,,['4bf58dd8d48988d151941735'],['Dining and Drinking > Restaurant > Mexican Restaurant > Taco Restaurant'],b'\x00\x00\x00\x00\x01\xc0Y\xd3\xd7\xf9q\xc9\xfb@4\xb2uM\x1b\xfel',"{'xmin': -103.3100570307942, 'ymin': 20.697102374395783, 'xmax': -103.3100570307942, 'ymax': 20.697102374395783}",dining and drinking > restaurant > mexican restaurant > taco restaurant,1
4f14f8ede4b07e9ecdf57653,Tacos Don Luis,20.682092819943882,-103.33385361694071,Pablo Valdez,Guadalajara,,,,,,MX,2012-01-17,2021-08-13,,,,,,,,['4bf58dd8d48988d151941735'],['Dining and Drinking > Restaurant > Mexican Restaurant > Taco Restaurant'],b'\x00\x00\x00\x00\x01\xc0Y\xd5]\xdb\x8f\x9aY@4\xae\x9d\xa2\x92~\xd2',"{'xmin': -103.33385361694071, 'ymin': 20.682092819943882, 'xmax': -103.33385361694071, 'ymax': 20.682092819943882}",dining and drinking > restaurant > mexican restaurant > taco restaurant,1
4fe5f99de4b09896095c8a93,Las Mejores Carnitas Del Mundo De Las Carnitas,20.622371352441025,-103.39253420885704,,,,,,,,MX,2012-06-23,2021-08-12,,,,,,,,['4bf58dd8d48988d151941735'],['Dining and Drinking > Restaurant > Mexican Restaurant > Taco Restaurant'],b'\x00\x00\x00\x00\x01\xc0Y\xd9\x1fG\xcdf\x8b@4\x9fS\xba\x9c\xb3\x95',"{'xmin': -103.39253420885704, 'ymin': 20.622371352441025, 'xmax': -103.39253420885704, 'ymax': 20.622371352441025}",dining and drinking > restaurant > mexican restaurant > taco restaurant,1
594d3b71ccad6b590b12b187,Taqueria La Roca,21.164713,-101.726906,,Plan de Ayala,Guanajuato,,,,,MX,2017-06-23,2020-11-22,,,,,,,,['4bf58dd8d48988d151941735'],['Dining and Drinking > Restaurant > Mexican Restaurant > Taco Restaurant'],b'\x00\x00\x00\x00\x01\xc0Yn\x85\xa0\xbeQ\t@5**\xa1\x949\xde',"{'xmin': -101.726906, 'ymin': 21.164713, 'xmax': -101.726906, 'ymax': 21.164713}",dining and drinking > restaurant > mexican restaurant > taco restaurant,1
53198649498efc5a73e27b4e,Tacos El Rodri,20.668605,-103.419019,,,,,,,,MX,2014-03-07,2021-08-13,,,,,,,,['4bf58dd8d48988d151941735'],['Dining and Drinking > Restaurant > Mexican Restaurant > Taco Restaurant'],"b'\x00\x00\x00\x00\x01\xc0Y\xda\xd15\x11Y\xc5@4\xab)\xb2\x80\xf1,'","{'xmin': -103.419019, 'ymin': 20.668605, 'xmax': -103.419019, 'ymax': 20.668605}",dining and drinking > restaurant > mexican restaurant > taco restaurant,1
4fcb8306e4b03cd963fbe984,Birriera El Amigo,20.685548,-103.317759,,,,,,,,MX,2012-06-03,2021-08-16,,,,,,,,['4bf58dd8d48988d151941735'],['Dining and Drinking > Restaurant > Mexican Restaurant > Taco Restaurant'],b'\x00\x00\x00\x00\x01\xc0Y\xd4V)\xd8@\x9e@4\xaf\x80\x12\xdf\xd6\x95',"{'xmin': -103.317759, 'ymin': 20.685548, 'xmax': -103.317759, 'ymax': 20.685548}",dining and drinking > restaurant > mexican restaurant > taco restaurant,1
6184414cb9b4d661cd6352e3,Las Ahoganitas,21.152917,-101.689893,Valle De Señora 234,León,GTO,37150,,,,MX,2021-11-04,2023-09-13,,,,,,,,['4bf58dd8d48988d151941735' '56aa371ce4b08b9a8d57356c'],"['Dining and Drinking > Restaurant > Mexican Restaurant > Taco Restaurant'
 'Dining and Drinking > Bar > Beer Bar']","b""\x00\x00\x00\x00\x01\xc0Yl'4\xf8/Q@5'%\x91\x8a\x00\x9f""","{'xmin': -101.689893, 'ymin': 21.152917, 'xmax': -101.689893, 'ymax': 21.152917}","dining and drinking > restaurant > mexican restaurant > taco restaurant, dining and drinking > bar > beer bar",1
51034d49e4b07c00413c74db,"Tacos ""El Cuñado""",21.843095,-102.293932,,,,,,,,MX,2013-01-26,2021-08-10,,,,,,,,['4bf58dd8d48988d151941735'],['Dining and Drinking > Restaurant > Mexican Restaurant > Taco Restaurant'],b'\x00\x00\x00\x00\x01\xc0Y\x92\xcf\xc8)\xcf\xdd@5\xd7\xd5\x12\xeck\xcf',"{'xmin': -102.293932, 'ymin': 21.843095, 'xmax': -102.293932, 'ymax': 21.843095}",dining and drinking > restaurant > mexican restaurant > taco restaurant,1
62d3938339fe1a7855f11741,Taquería González,20.767678,-103.419371,,Zapopan,JAL,45134,,,,MX,2022-07-17,2022-07-17,,,,,,,,['4bf58dd8d48988d151941735'],['Dining and Drinking > Restaurant > Mexican Restaurant > Taco Restaurant'],b'\x00\x00\x00\x00\x01\xc0Y\xda\xd6\xf9vy\x03@4\xc4\x86\x8b\x9f\xdb\xd3',"{'xmin': -103.419371, 'ymin': 20.767678, 'xmax': -103.419371, 'ymax': 20.767678}",dining and drinking > restaurant > mexican restaurant > taco restaurant,1
4f805f31e4b0e160b92e4852,Tacos D Lucy,20.613619,-103.433178,,,,,,,,MX,2012-04-07,2021-08-17,,,,,,,,['4bf58dd8d48988d151941735'],['Dining and Drinking > Restaurant > Mexican Restaurant > Taco Restaurant'],"b'\x00\x00\x00\x00\x01\xc0Y\xdb\xb907\xd60@4\x9d\x16""\x814H'","{'xmin': -103.433178, 'ymin': 20.613619, 'xmax': -103.433178, 'ymax': 20.613619}",dining and drinking > restaurant > mexican restaurant > taco restaurant,1
536c4e5a498e256851be5a27,Lechón Aguascalientes,22.15218734741211,-100.99345397949219,Mariano Otero,,,,,,,MX,2014-05-09,2021-08-16,,,,,,,,['4bf58dd8d48988d151941735'],['Dining and Drinking > Restaurant > Mexican Restaurant > Taco Restaurant'],b'\x00\x00\x00\x00\x01\xc0Y?\x94\xc0\x00\x00\x00@6&\xf5\xc0\x00\x00\x00',"{'xmin': -100.99345397949219, 'ymin': 22.15218734741211, 'xmax': -100.99345397949219, 'ymax': 22.15218734741211}",dining and drinking > restaurant > mexican restaurant > taco restaurant,1
5b8c6fa4f96b2c002c35bd41,Taqueria La Flamita,22.159754,-100.979673,,San Luis Potosí,S.L.P.,78049,,,,MX,2018-09-02,2020-11-22,,,,,,,,['4bf58dd8d48988d151941735'],['Dining and Drinking > Restaurant > Mexican Restaurant > Taco Restaurant'],b'\x00\x00\x00\x00\x01\xc0Y>\xb2\xf6a\xf1\x8d@6(\xe5\xa3]g\xba',"{'xmin': -100.979673, 'ymin': 22.159754, 'xmax': -100.979673, 'ymax': 22.159754}",dining and drinking > restaurant > mexican restaurant > taco restaurant,1
6084dddf1859b72002212fd8,Taquitos Chef Pavo,20.650045,-103.33015,,Guadalajara,Jalisco,44870,,,,MX,2021-04-25,2021-08-13,,,,,,,,['4bf58dd8d48988d151941735'],['Dining and Drinking > Restaurant > Mexican Restaurant > Taco Restaurant'],b'\x00\x00\x00\x00\x01\xc0Y\xd5!-w1\x90@4\xa6iY_\xed\xa6',"{'xmin': -103.33015, 'ymin': 20.650045, 'xmax': -103.33015, 'ymax': 20.650045}",dining and drinking > restaurant > mexican restaurant > taco restaurant,1
55560a7a498e7c6f82821738,tacos doña sandra,20.639755232250312,-103.39435659956318,,,,,,,,MX,2015-05-15,2021-08-19,,,,,,,,['4bf58dd8d48988d151941735'],['Dining and Drinking > Restaurant > Mexican Restaurant > Taco Restaurant'],b'\x00\x00\x00\x00\x01\xc0Y\xd9=#v\x85{@4\xa3\xc6\xff\xb7\xf5\xc1',"{'xmin': -103.39435659956318, 'ymin': 20.639755232250312, 'xmax': -103.39435659956318, 'ymax': 20.639755232250312}",dining and drinking > restaurant > mexican restaurant > taco restaurant,1
3d7a69f561eb4fa7e579ef1b,Restaurant Moctezuma,20.660446,-103.282931,Gigantes 52,Guadalajara,Jalisco,44450,,,,MX,2014-11-17,2024-07-04,,33 3618 4579,,,,,,['4bf58dd8d48988d151941735'],['Dining and Drinking > Restaurant > Mexican Restaurant > Taco Restaurant'],b'\x00\x00\x00\x00\x01\xc0Y\xd2\x1b\x8a\xa0\x01\x93@4\xa9\x12\xfd2\xc6&',"{'xmin': -103.282931, 'ymin': 20.660446, 'xmax': -103.282931, 'ymax': 20.660446}",dining and drinking > restaurant > mexican restaurant > taco restaurant,1
4f7733d4e4b09489363ba388,"Tacos al vapor ""Doña Mary""",20.640803,-103.394485,quebrada 2780,,,,,,,MX,2012-03-31,2021-08-12,,,,,,,,['4bf58dd8d48988d151941735'],['Dining and Drinking > Restaurant > Mexican Restaurant > Taco Restaurant'],b'\x00\x00\x00\x00\x01\xc0Y\xd9?>\x03p\xce@4\xa4\x0b\xaaX-\xbe',"{'xmin': -103.394485, 'ymin': 20.640803, 'xmax': -103.394485, 'ymax': 20.640803}",dining and drinking > restaurant > mexican restaurant > taco restaurant,1
57af5191498e57e1beb19d36,Tacos de Ollita Don Chava,20.669535,-103.29313,Cairo 507,Guadalajara,Jalisco,44750,,,,MX,2016-08-13,2021-08-14,,,,,,,,['4bf58dd8d48988d151941735'],['Dining and Drinking > Restaurant > Mexican Restaurant > Taco Restaurant'],b'\x00\x00\x00\x00\x01\xc0Y\xd2\xc2\xa4T\xde\x7f@4\xabf\xa5P\x87\x01',"{'xmin': -103.29313, 'ymin': 20.669535, 'xmax': -103.29313, 'ymax': 20.669535}",dining and drinking > restaurant > mexican restaurant > taco restaurant,1
51dac2f8498eb4a6e7e9ad3f,Tacos La Wera,20.702172,-103.360031,,,,,,,,MX,2013-07-08,2021-08-12,,,,,,,,['4bf58dd8d48988d151941735'],['Dining and Drinking > Restaurant > Mexican Restaurant > Taco Restaurant'],b'\x00\x00\x00\x00\x01\xc0Y\xd7\n\xbfv\xa2\xf5@4\xb3\xc1\x8bP*\xbb',"{'xmin': -103.360031, 'ymin': 20.702172, 'xmax': -103.360031, 'ymax': 20.702172}",dining and drinking > restaurant > mexican restaurant > taco restaurant,1
5b91bebe811045002c136bf1,Tacos Rafa,22.140786,-100.954708,,San Luis Potosí,S.L.P.,78399,,,,MX,2018-09-06,2020-11-20,,,,,,,,['4bf58dd8d48988d151941735'],['Dining and Drinking > Restaurant > Mexican Restaurant > Taco Restaurant'],b'\x00\x00\x00\x00\x01\xc0Y=\x19\xef\x95N\xb1@6$\n\x8d!\xbc\x12',"{'xmin': -100.954708, 'ymin': 22.140786, 'xmax': -100.954708, 'ymax': 22.140786}",dining and drinking > restaurant > mexican restaurant > taco restaurant,1
4c65f6b4aebea593011c72d0,Tacos “Belisario”,20.693889666373757,-103.32318745544003,Bélisario,Guadalajara,Jalisco,44340,,,,MX,2010-08-14,2021-08-14,,,,,,,,['4bf58dd8d48988d151941735'],['Dining and Drinking > Restaurant > Mexican Restaurant > Taco Restaurant'],b'\x00\x00\x00\x00\x01\xc0Y\xd4\xaf\x1ao\xe5\xea@4\xb1\xa2\xc0\xd0\x1b\x8e',"{'xmin': -103.32318745544003, 'ymin': 20.693889666373757, 'xmax': -103.32318745544003, 'ymax': 20.693889666373757}",dining and drinking > restaurant > mexican restaurant > taco restaurant,1
50611f61e4b0cd99b4795333,taquechi,21.12652191204791,-101.69019856171055,,,,,,,,MX,2012-09-25,2021-08-16,,,,,,,,['4bf58dd8d48988d151941735'],['Dining and Drinking > Restaurant > Mexican Restaurant > Taco Restaurant'],"b'\x00\x00\x00\x00\x01\xc0Yl,6\x96\x92\xc1@5 c\xbdry!'","{'xmin': -101.69019856171055, 'ymin': 21.12652191204791, 'xmax': -101.69019856171055, 'ymax': 21.12652191204791}",dining and drinking > restaurant > mexican restaurant > taco restaurant,1
4ff7bddfe4b0463f717ab4a0,Taqueria El Charco,20.544124875056426,-100.77988807463723,,,,,,,,MX,2012-07-07,2021-08-12,,,,,,,,['4bf58dd8d48988d151941735'],['Dining and Drinking > Restaurant > Mexican Restaurant > Taco Restaurant'],b'\x00\x00\x00\x00\x01\xc0Y1\xe9\xaf\xab\xc6\xde@4\x8bK\xc4\x8fN\xb4',"{'xmin': -100.77988807463723, 'ymin': 20.544124875056426, 'xmax': -100.77988807463723, 'ymax': 20.544124875056426}",dining and drinking > restaurant > mexican restaurant > taco restaurant,1
56775485498ed4177d76b894,tripas Martin,21.527609,-102.240957,,,,,,,,MX,2015-12-21,2021-08-15,,,,,,,,['4bf58dd8d48988d151941735'],['Dining and Drinking > Restaurant > Mexican Restaurant > Taco Restaurant'],b'\x00\x00\x00\x00\x01\xc0Y\x8fk\xd6\xe8\xaf\x81@5\x87\x11b(\x13E',"{'xmin': -102.240957, 'ymin': 21.527609, 'xmax': -102.240957, 'ymax': 21.527609}",dining and drinking > restaurant > mexican restaurant > taco restaurant,1
522b426f93cd0d9055621ad1,Tacos Gourmet,20.342916810121434,-102.0235812664032,"Aquiles Serdán, 186",La Piedad,Michoacán,59300,,,,MX,2013-09-07,2020-11-24,,,,,,,,['4bf58dd8d48988d151941735'],['Dining and Drinking > Restaurant > Mexican Restaurant > Taco Restaurant'],b'\x00\x00\x00\x00\x01\xc0Y\x81\x82[\x00\x00\x00@4W\xc9ed\xb8_',"{'xmin': -102.0235812664032, 'ymin': 20.342916810121434, 'xmax': -102.0235812664032, 'ymax': 20.342916810121434}",dining and drinking > restaurant > mexican restaurant > taco restaurant,1
4f256ca3e4b01b0c6075e54d,Tacos Ivan,21.363308861231832,-101.93502700663063,Constituyentes,Lagos De Moreno,Jalisco,,,,,MX,2012-01-29,2020-11-23,,,,,,,,['4bf58dd8d48988d151941735'],['Dining and Drinking > Restaurant > Mexican Restaurant > Taco Restaurant'],b'\x00\x00\x00\x00\x01\xc0Y{\xd7{\x83\x96\xbe@5]\x01\xcf=Vu',"{'xmin': -101.93502700663063, 'ymin': 21.363308861231832, 'xmax': -101.93502700663063, 'ymax': 21.363308861231832}",dining and drinking > restaurant > mexican restaurant > taco restaurant,1
5622846e498e58775e948445,Birria,21.16614718315642,-101.68492882889834,,,,,,,,MX,2015-10-17,2021-08-16,,,,,,,,['4bf58dd8d48988d151941735'],['Dining and Drinking > Restaurant > Mexican Restaurant > Taco Restaurant'],b'\x00\x00\x00\x00\x01\xc0Yk\xd5\xdf\xba\r.@5*\x88\x9f-\xfa\xb6',"{'xmin': -101.68492882889834, 'ymin': 21.16614718315642, 'xmax': -101.68492882889834, 'ymax': 21.16614718315642}",dining and drinking > restaurant > mexican restaurant > taco restaurant,1
4f2f88d7e4b07ca317663a13,Tacos La Gloria,21.89044611350363,-102.25752541592199,Av. Ojocaliente 105,,,,,,,MX,2012-02-06,2021-08-12,,,,,,,,['4bf58dd8d48988d151941735'],['Dining and Drinking > Restaurant > Mexican Restaurant > Taco Restaurant'],b'\x00\x00\x00\x00\x01\xc0Y\x90{K\xe1\xd1\x85@5\xe3\xf4F\xc8Y0',"{'xmin': -102.25752541592199, 'ymin': 21.89044611350363, 'xmax': -102.25752541592199, 'ymax': 21.89044611350363}",dining and drinking > restaurant > mexican restaurant > taco restaurant,1
4f333e8de4b0747f3f69a660,Ricos Tacos,20.639094494645356,-103.30749199856048,Hidalgo #91,,,,,,,MX,2012-02-09,2021-08-16,,,,,,,,['4bf58dd8d48988d151941735'],['Dining and Drinking > Restaurant > Mexican Restaurant > Taco Restaurant'],b'\x00\x00\x00\x00\x01\xc0Y\xd3\xad\xf2\xebfU@4\xa3\x9b\xb2a\x8e2',"{'xmin': -103.30749199856048, 'ymin': 20.639094494645356, 'xmax': -103.30749199856048, 'ymax': 20.639094494645356}",dining and drinking > restaurant > mexican restaurant > taco restaurant,1
5158f894e4b028506dc58ec5,Tacos los gueros,20.655656814575195,-103.36917114257812,Pino,Guadalajara,jalisco,44900,,,,MX,2013-04-01,2021-08-14,,,,,,,,['4bf58dd8d48988d151941735'],['Dining and Drinking > Restaurant > Mexican Restaurant > Taco Restaurant'],b'\x00\x00\x00\x00\x01\xc0Y\xd7\xa0\x80\x00\x00\x00@4\xa7\xd9 \x00\x00\x00',"{'xmin': -103.36917114257812, 'ymin': 20.655656814575195, 'xmax': -103.36917114257812, 'ymax': 20.655656814575195}",dining and drinking > restaurant > mexican restaurant > taco restaurant,1
4f37d76ae4b0beedd2652c85,Carnitas Cornejo,20.651267101644954,-103.22710478037682,,,,,,,,MX,2012-02-12,2021-08-15,,,,,,,,['4bf58dd8d48988d151941735'],['Dining and Drinking > Restaurant > Mexican Restaurant > Taco Restaurant'],b'\x00\x00\x00\x00\x01\xc0Y\xce\x88\xe2}\x1e\xf5@4\xa6\xb9p\xd6\x86\x9a',"{'xmin': -103.22710478037682, 'ymin': 20.651267101644954, 'xmax': -103.22710478037682, 'ymax': 20.651267101644954}",dining and drinking > restaurant > mexican restaurant > taco restaurant,1
5204fb85498e42b028a2db35,Tacos El Pariente,20.67667512023756,-103.35659385891938,,Guadalajara,,,,,,MX,2013-08-09,2021-08-17,,,,,,,,['4bf58dd8d48988d151941735'],['Dining and Drinking > Restaurant > Mexican Restaurant > Taco Restaurant'],b'\x00\x00\x00\x00\x01\xc0Y\xd6\xd2o\x0c\x80\xd8@4\xad:\x94\xa7o\xec',"{'xmin': -103.35659385891938, 'ymin': 20.67667512023756, 'xmax': -103.35659385891938, 'ymax': 20.67667512023756}",dining and drinking > restaurant > mexican restaurant > taco restaurant,1
51795524e4b0de302d8ec1c8,"Cheos ""Tacos""",20.142278798611343,-101.16783254805485,,"Uriangato, GTO",,,,,,MX,2013-04-25,2020-11-21,,,,,,,,['4bf58dd8d48988d151941735'],['Dining and Drinking > Restaurant > Mexican Restaurant > Taco Restaurant'],"b'\x00\x00\x00\x00\x01\xc0YJ\xbd\xc4\xbaFe@4$lb""\xf3,'","{'xmin': -101.16783254805485, 'ymin': 20.142278798611343, 'xmax': -101.16783254805485, 'ymax': 20.142278798611343}",dining and drinking > restaurant > mexican restaurant > taco restaurant,1
4fa74e79e4b0ddd4978330fa,tkos del tio de kathitho's 2,20.61946577542782,-103.36019251421322,,Guadalajara,Jalisco,,,,,MX,2012-05-07,2021-08-11,,,,,,,,['4bf58dd8d48988d151941735'],['Dining and Drinking > Restaurant > Mexican Restaurant > Taco Restaurant'],b'\x00\x00\x00\x00\x01\xc0Y\xd7\rd\xe73\xd4@4\x9e\x95O\x1et*',"{'xmin': -103.36019251421322, 'ymin': 20.61946577542782, 'xmax': -103.36019251421322, 'ymax': 20.61946577542782}",dining and drinking > restaurant > mexican restaurant > taco restaurant,1
585b4348cf4451174c0c2d9e,El carboncito,20.540118,-104.042578,,,,,,,,MX,2016-12-22,2021-08-15,,,,,,,,['4bf58dd8d48988d151941735'],['Dining and Drinking > Restaurant > Mexican Restaurant > Taco Restaurant'],"b'\x00\x00\x00\x00\x01\xc0Z\x02\xb9\x99\x13a\xdd@4\x8aE,Y\xfb\x1e'","{'xmin': -104.042578, 'ymin': 20.540118, 'xmax': -104.042578, 'ymax': 20.540118}",dining and drinking > restaurant > mexican restaurant > taco restaurant,1
531e965e11d217c59642a1d9,Taqueria Roger,20.74779510498047,-105.25055694580078,16 De Septiembre,San Vicente,Nayarit,,,,,MX,2014-03-11,2020-11-22,,,,,,,,['4bf58dd8d48988d151941735'],['Dining and Drinking > Restaurant > Mexican Restaurant > Taco Restaurant'],b'\x00\x00\x00\x00\x01\xc0ZP\t \x00\x00\x00@4\xbfo\x80\x00\x00\x00',"{'xmin': -105.25055694580078, 'ymin': 20.74779510498047, 'xmax': -105.25055694580078, 'ymax': 20.74779510498047}",dining and drinking > restaurant > mexican restaurant > taco restaurant,1
1cd9566d0c954f7205294fc2,Taquizas Alma Castillo,20.63871,-103.385376,Isla Lanzarote 3095,Guadalajara,Jalisco,44950,,,,MX,2010-11-04,2024-07-14,,33 3646 6783,,,,,,['4bf58dd8d48988d151941735'],['Dining and Drinking > Restaurant > Mexican Restaurant > Taco Restaurant'],b'\x00\x00\x00\x00\x01\xc0Y\xd8\xaa\x00\x19*s@4\xa3\x82\x7f\xa1\xa0\xcf',"{'xmin': -103.385376, 'ymin': 20.63871, 'xmax': -103.385376, 'ymax': 20.63871}",dining and drinking > restaurant > mexican restaurant > taco restaurant,1
530cf2ab11d223848c39dfea,carnitas y ahogadas el negro,19.875265,-103.602538,Avenida Juarez 242,Sayula,Jalisco,49300,,,,MX,2014-02-25,2020-11-22,,342 422 2602,,,,,,['4bf58dd8d48988d151941735'],['Dining and Drinking > Restaurant > Mexican Restaurant > Taco Restaurant'],b'\x00\x00\x00\x00\x01\xc0Y\xe6\x8f\xfb\x8b&9@3\xe0\x11]\xf6U\\',"{'xmin': -103.602538, 'ymin': 19.875265, 'xmax': -103.602538, 'ymax': 19.875265}",dining and drinking > restaurant > mexican restaurant > taco restaurant,1
5809ad4938fa4875ad1a2eb9,tacos el pastorcito,22.160811,-100.964546,,,,,,,,MX,2016-10-21,2021-08-17,,,,,,,,['4bf58dd8d48988d151941735'],['Dining and Drinking > Restaurant > Mexican Restaurant > Taco Restaurant'],b'\x00\x00\x00\x00\x01\xc0Y=\xbb\x1f%_5@6)*\xe8\xe1\xd6I',"{'xmin': -100.964546, 'ymin': 22.160811, 'xmax': -100.964546, 'ymax': 22.160811}",dining and drinking > restaurant > mexican restaurant > taco restaurant,1
54d58ee3498e9ceb8a1318b9,"Taqueria ""Los árbolitos""",20.733548528958522,-103.2444776329306,,,,,,,,MX,2015-02-07,2020-11-22,,,,,,,,['4bf58dd8d48988d151941735'],['Dining and Drinking > Restaurant > Mexican Restaurant > Taco Restaurant'],b'\x00\x00\x00\x00\x01\xc0Y\xcf\xa5\x85\x83\x82\x96@4\xbb\xc9\xd6\x1d\xe7\xe0',"{'xmin': -103.2444776329306, 'ymin': 20.733548528958522, 'xmax': -103.2444776329306, 'ymax': 20.733548528958522}",dining and drinking > restaurant > mexican restaurant > taco restaurant,1
529b996111d2dcd0fb030f1a,Don Cayetano,20.682201671883277,-103.41968095969219,Av Inglaterra 5003 d12,Zapopan,JAL,45027,,,,MX,2013-12-01,2020-11-23,,,,,,,tacoscayetano,['4bf58dd8d48988d151941735'],['Dining and Drinking > Restaurant > Mexican Restaurant > Taco Restaurant'],b'\x00\x00\x00\x00\x01\xc0Y\xda\xdc\r\x87(p@4\xae\xa4\xc4\xce\x03\xe4',"{'xmin': -103.41968095969219, 'ymin': 20.682201671883277, 'xmax': -103.41968095969219, 'ymax': 20.682201671883277}",dining and drinking > restaurant > mexican restaurant > taco restaurant,1
4e4c86b4d4c083e9648c27fe,Tacos Los 3 Chiles,20.700624,-102.351937,General arteaga 308,,Jalisco,,,,,MX,2011-08-18,2021-08-13,,,,,,,,['4bf58dd8d48988d151941735'],['Dining and Drinking > Restaurant > Mexican Restaurant > Taco Restaurant'],"b'\x00\x00\x00\x00\x01\xc0Y\x96\x86""\xc4P\'@4\xb3\\\x18.\xca\xef'","{'xmin': -102.351937, 'ymin': 20.700624, 'xmax': -102.351937, 'ymax': 20.700624}",dining and drinking > restaurant > mexican restaurant > taco restaurant,1
52bc65cf498e8a826de5bcde,Gorditas La Casita,21.99303326992157,-102.29206902378516,,,,,,,,MX,2013-12-26,2020-11-25,,,,,,,,['4bf58dd8d48988d151941735'],['Dining and Drinking > Restaurant > Mexican Restaurant > Taco Restaurant'],"b""\x00\x00\x00\x00\x01\xc0Y\x92\xb1BFU>@5\xfe7m\xaa'0""","{'xmin': -102.29206902378516, 'ymin': 21.99303326992157, 'xmax': -102.29206902378516, 'ymax': 21.99303326992157}",dining and drinking > restaurant > mexican restaurant > taco restaurant,1
6699ae77d593ed6dd3543b19,Taqueria “El Leoncito”,19.675633,-101.216455,,Morelia,Mich.,58090,,,,MX,2024-07-19,2024-07-19,,,,,,,,['4bf58dd8d48988d151941735' '4bf58dd8d48988d1c1941735'],"['Dining and Drinking > Restaurant > Mexican Restaurant > Taco Restaurant'
 'Dining and Drinking > Restaurant > Mexican Restaurant']",b'\x00\x00\x00\x00\x01\xc0YM\xdaf\x12\x83\x90@3\xac\xf6H\xc7\x19/',"{'xmin': -101.216455, 'ymin': 19.675633, 'xmax': -101.216455, 'ymax': 19.675633}","dining and drinking > restaurant > mexican restaurant > taco restaurant, dining and drinking > restaurant > mexican restaurant",1
5b2487465455b2003957a1f8,Los Güeros,20.736186,-103.419835,Marina Mazatlan 663,Zapopan,JAL,45130,,,,MX,2018-06-16,2020-11-25,,,,,,,,['4bf58dd8d48988d151941735'],['Dining and Drinking > Restaurant > Mexican Restaurant > Taco Restaurant'],b'\x00\x00\x00\x00\x01\xc0Y\xda\xde\x93\x9e\xad\xd6@4\xbcv\xaf\x89\xc5\xe7',"{'xmin': -103.419835, 'ymin': 20.736186, 'xmax': -103.419835, 'ymax': 20.736186}",dining and drinking > restaurant > mexican restaurant > taco restaurant,1
5af279218c35dc002cb330c6,Taqueria Jade,20.759608,-105.343299,,Bucerías,NAY,63732,,,,MX,2018-05-09,2020-11-25,,,,,,,,['4bf58dd8d48988d151941735'],['Dining and Drinking > Restaurant > Mexican Restaurant > Taco Restaurant'],b'\x00\x00\x00\x00\x01\xc0ZU\xf8\x9c^o\xf8@4\xc2u\xab}\xc7\xac',"{'xmin': -105.343299, 'ymin': 20.759608, 'xmax': -105.343299, 'ymax': 20.759608}",dining and drinking > restaurant > mexican restaurant > taco restaurant,1
4eaec102f5b936710c065a8f,Tacos Y Tortas Los Mora,21.10014105854639,-101.65440356586605,Oceano Atlantico,León de Los Aldama,GTO,,,,,MX,2011-10-31,2020-11-30,,,,,,,,['4bf58dd8d48988d151941735'],['Dining and Drinking > Restaurant > Mexican Restaurant > Taco Restaurant'],b'\x00\x00\x00\x00\x01\xc0Yi\xe1\xbf~q\xf3@5\x19\xa2\xd8+q\x8e',"{'xmin': -101.65440356586605, 'ymin': 21.10014105854639, 'xmax': -101.65440356586605, 'ymax': 21.10014105854639}",dining and drinking > restaurant > mexican restaurant > taco restaurant,1
53b38a11498e24434d7c25b4,tacos gilligans,20.637664,-103.400964,Independencia,"Zapopan, JAL",Jalisco,45187,,,,MX,2014-07-02,2020-11-25,,,,,,,gilligansgdl,['4bf58dd8d48988d151941735'],['Dining and Drinking > Restaurant > Mexican Restaurant > Taco Restaurant'],b'\x00\x00\x00\x00\x01\xc0Y\xd9\xa9d\xe8\xb7\xe5@4\xa3=\xf2\xa9\xd6(',"{'xmin': -103.400964, 'ymin': 20.637664, 'xmax': -103.400964, 'ymax': 20.637664}",dining and drinking > restaurant > mexican restaurant > taco restaurant,1
5466fd99498e7f9936cd78aa,TACOS JAVI'S desde 1988,21.6743106842041,-102.58963012695312,Calle Moreno,Villa Hidalgo Jalisco,jalisco,47250,,,,MX,2014-11-15,2020-11-22,,495 107 5050,,,,,juaces,['4bf58dd8d48988d151941735'],['Dining and Drinking > Restaurant > Mexican Restaurant > Taco Restaurant'],b'\x00\x00\x00\x00\x01\xc0Y\xa5\xbc\x80\x00\x00\x00@5\xac\x9f\xa0\x00\x00\x00',"{'xmin': -102.58963012695312, 'ymin': 21.6743106842041, 'xmax': -102.58963012695312, 'ymax': 21.6743106842041}",dining and drinking > restaurant > mexican restaurant > taco restaurant,1
5f64c9e5e0571715521f2772,TACOS DE BARBACOA Valle de Ameca,20.744476,-103.430798,Valle De Ameca 2131,Zapopan,JAL,45138,,,,MX,2020-09-18,2020-11-23,,33 1796 6821,,,,,,['4bf58dd8d48988d151941735'],['Dining and Drinking > Restaurant > Mexican Restaurant > Taco Restaurant'],b'\x00\x00\x00\x00\x01\xc0Y\xdb\x921\xc6K\xa9@4\xbe\x95\xfa\xa8\xa8*',"{'xmin': -103.430798, 'ymin': 20.744476, 'xmax': -103.430798, 'ymax': 20.744476}",dining and drinking > restaurant > mexican restaurant > taco restaurant,1
532c6fbb498e25afcf5bf7ba,TAQUERIA LA ESTRELLITA,22.148026,-102.274612,,,,,,,,MX,2014-03-21,2021-08-14,,,,,,,,['4bf58dd8d48988d151941735'],['Dining and Drinking > Restaurant > Mexican Restaurant > Taco Restaurant'],"b'\x00\x00\x00\x00\x01\xc0Y\x91\x93>5\xc5\xb5@6%\xe5\x08,\xf5,'","{'xmin': -102.274612, 'ymin': 22.148026, 'xmax': -102.274612, 'ymax': 22.148026}",dining and drinking > restaurant > mexican restaurant > taco restaurant,1
520a584f11d276ea36940f99,Tacos Los Más Buenos del Mundo,20.615626,-103.078618,,Zapotlanejo,JAL,,,,,MX,2013-08-13,2020-11-22,,,,,,,,['4bf58dd8d48988d151941735'],['Dining and Drinking > Restaurant > Mexican Restaurant > Taco Restaurant'],b'\x00\x00\x00\x00\x01\xc0Y\xc5\x08\x13\xca\xb8 @4\x9d\x99\xaa`\x91:',"{'xmin': -103.078618, 'ymin': 20.615626, 'xmax': -103.078618, 'ymax': 20.615626}",dining and drinking > restaurant > mexican restaurant > taco restaurant,1
647c294d0c68e824e442d869,Tacos De Barbacoa Don Javier,20.722961,-105.269455,Valle de Malvar #168,Valle Dorado,Nayarit,63735,,,,MX,2023-06-04,2023-09-14,,,,,,,,['4bf58dd8d48988d151941735'],['Dining and Drinking > Restaurant > Mexican Restaurant > Taco Restaurant'],b'\x00\x00\x00\x00\x01\xc0ZQ>\xc0//\x98@4\xb9\x13\xf8\xdbH\x91',"{'xmin': -105.269455, 'ymin': 20.722961, 'xmax': -105.269455, 'ymax': 20.722961}",dining and drinking > restaurant > mexican restaurant > taco restaurant,1
529b542011d2c462313607c2,Cabeza De Res Estilo Guasave,20.63952418946238,-103.41751881947306,Volcan Vesubio 4586,Zapopan,Jalisco,45070,,,,MX,2013-12-01,2020-11-25,,,,,,cabezaderesguasave,,['4bf58dd8d48988d151941735'],['Dining and Drinking > Restaurant > Mexican Restaurant > Taco Restaurant'],b'\x00\x00\x00\x00\x01\xc0Y\xda\xb8\xa0\xda\xc6|@4\xa3\xb7\xdbv\xbd\xe9',"{'xmin': -103.41751881947306, 'ymin': 20.63952418946238, 'xmax': -103.41751881947306, 'ymax': 20.63952418946238}",dining and drinking > restaurant > mexican restaurant > taco restaurant,1
54a49ee5498ea5a445e2e8a5,Emiliano's,19.116829,-104.352964,Bulevares Miguel de la Madrid,"Manzanillo, COL",Colima,,,,,MX,2015-01-01,2020-11-23,,,,,,,,['4bf58dd8d48988d151941735'],['Dining and Drinking > Restaurant > Mexican Restaurant > Taco Restaurant'],b'\x00\x00\x00\x00\x01\xc0Z\x16\x96\xf6Q*\x95@3\x1d\xe8\x81^9q',"{'xmin': -104.352964, 'ymin': 19.116829, 'xmax': -104.352964, 'ymax': 19.116829}",dining and drinking > restaurant > mexican restaurant > taco restaurant,1
59e189fe0e5da87770defd45,Tacos El Profe,20.704859,-103.312707,Av. De La Cruz,Guadalajara,JAL,45679,,,,MX,2017-10-14,2021-08-14,,,,,,,,['4bf58dd8d48988d151941735'],['Dining and Drinking > Restaurant > Mexican Restaurant > Taco Restaurant'],b'\x00\x00\x00\x00\x01\xc0Y\xd4\x03d8\x8e\xbd@4\xb4q\xa3\xb1J\x90',"{'xmin': -103.312707, 'ymin': 20.704859, 'xmax': -103.312707, 'ymax': 20.704859}",dining and drinking > restaurant > mexican restaurant > taco restaurant,1
5023e0ece4b090dce15c97a4,Taqueria La Pasadita,22.155519,-100.976514,,,,,,,,MX,2012-08-09,2021-08-17,,,,,,,,['4bf58dd8d48988d151941735'],['Dining and Drinking > Restaurant > Mexican Restaurant > Taco Restaurant'],"b""\x00\x00\x00\x00\x01\xc0Y>\x7f4\x93\x85\x83@6'\xd0\x17\xda\xe8\x19""","{'xmin': -100.976514, 'ymin': 22.155519, 'xmax': -100.976514, 'ymax': 22.155519}",dining and drinking > restaurant > mexican restaurant > taco restaurant,1
599cd37b79187162cb1f4267,Tacos Frente Al Peter,20.675953,-103.366214,Colonias,Guadalajara,JAL,44160,,,,MX,2017-08-23,2021-08-14,,,,,,,,['4bf58dd8d48988d151941735'],['Dining and Drinking > Restaurant > Mexican Restaurant > Taco Restaurant'],b'\x00\x00\x00\x00\x01\xc0Y\xd7p\x0c\xd8U\x97@4\xad\x0bA|\xa2\x12',"{'xmin': -103.366214, 'ymin': 20.675953, 'xmax': -103.366214, 'ymax': 20.675953}",dining and drinking > restaurant > mexican restaurant > taco restaurant,1
4fdde1e3e4b0599175073d97,"""El Chaparrón""",21.5240545,-102.2468218,Pasaje Jauregui,Encarnación de Díaz,Jalisco,47270,,,,MX,2012-06-17,2020-11-30,,,,,,,,['4bf58dd8d48988d151941735'],['Dining and Drinking > Restaurant > Mexican Restaurant > Taco Restaurant'],"b""\x00\x00\x00\x00\x01\xc0Y\x8f\xcb\xed\xa9\xbc'@5\x86(o\x8a\xd2V""","{'xmin': -102.2468218, 'ymin': 21.5240545, 'xmax': -102.2468218, 'ymax': 21.5240545}",dining and drinking > restaurant > mexican restaurant > taco restaurant,1
4e30684a18a8172289a5a6f8,Tacos Fer,21.136387028087253,-101.70732147831416,,,,,,,,MX,2011-07-27,2021-08-14,,,,,,,,['4bf58dd8d48988d151941735'],['Dining and Drinking > Restaurant > Mexican Restaurant > Taco Restaurant'],"b'\x00\x00\x00\x00\x01\xc0YmD\xc1NG\x88@5""\xeaB\xa1;\xbf'","{'xmin': -101.70732147831416, 'ymin': 21.136387028087253, 'xmax': -101.70732147831416, 'ymax': 21.136387028087253}",dining and drinking > restaurant > mexican restaurant > taco restaurant,1
520447b3498e8c170bf087c9,"Tacos ""Don Pancho""",21.640279946934378,-102.97527801587417,Insurgentes 318,Jalpa,Zacatecas,99601,,,,MX,2013-08-09,2020-11-30,,,,,,,,['4bf58dd8d48988d151941735'],['Dining and Drinking > Restaurant > Mexican Restaurant > Taco Restaurant'],b'\x00\x00\x00\x00\x01\xc0Y\xbej\xf4{\xab\xfd@5\xa3\xe9b\xf8^&',"{'xmin': -102.97527801587417, 'ymin': 21.640279946934378, 'xmax': -102.97527801587417, 'ymax': 21.640279946934378}",dining and drinking > restaurant > mexican restaurant > taco restaurant,1
50fe05f3e4b04f85657782bf,Tacos Don Paco,20.624641747120222,-103.25732709157089,,,,,,,,MX,2013-01-22,2021-08-15,,,,,,,,['4bf58dd8d48988d151941735'],['Dining and Drinking > Restaurant > Mexican Restaurant > Taco Restaurant'],b'\x00\x00\x00\x00\x01\xc0Y\xd0x\x0c\x0c\xaa\xfe@4\x9f\xe8\x85\x83\x99\x00',"{'xmin': -103.25732709157089, 'ymin': 20.624641747120222, 'xmax': -103.25732709157089, 'ymax': 20.624641747120222}",dining and drinking > restaurant > mexican restaurant > taco restaurant,1
50ee2c16e4b0819865125ec5,Tacos El Veloz,21.130636469735606,-101.64564218165629,,,,,,,,MX,2013-01-10,2021-08-13,,,,,,,,['4bf58dd8d48988d151941735'],['Dining and Drinking > Restaurant > Mexican Restaurant > Taco Restaurant'],b'\x00\x00\x00\x00\x01\xc0YiR3\x95\xc8p@5!qdE-\xe8',"{'xmin': -101.64564218165629, 'ymin': 21.130636469735606, 'xmax': -101.64564218165629, 'ymax': 21.130636469735606}",dining and drinking > restaurant > mexican restaurant > taco restaurant,1
53404b1e498e503a0fe212e2,Taquería Amezcua,20.681325912475586,-103.36845397949219,Garibaldi 1411,,Jalisco,,,,,MX,2014-04-05,2023-12-20,,33 3827 6300,,,,,,['4bf58dd8d48988d151941735'],['Dining and Drinking > Restaurant > Mexican Restaurant > Taco Restaurant'],b'\x00\x00\x00\x00\x01\xc0Y\xd7\x94\xc0\x00\x00\x00@4\xaek`\x00\x00\x00',"{'xmin': -103.36845397949219, 'ymin': 20.681325912475586, 'xmax': -103.36845397949219, 'ymax': 20.681325912475586}",dining and drinking > restaurant > mexican restaurant > taco restaurant,1
51074402e4b03a8fd371d26f,Taquería Dany (Frente Banamex Jardín Municipal),19.806249502162522,-104.21238742239412,,El Grullo,Jal.,,,,,MX,2013-01-29,2020-11-24,,321 102 0055,,,,,,['4bf58dd8d48988d151941735'],['Dining and Drinking > Restaurant > Mexican Restaurant > Taco Restaurant'],b'\x00\x00\x00\x00\x01\xc0Z\r\x97\xc1jP\xed@3\xcef^\x0c4N',"{'xmin': -104.21238742239412, 'ymin': 19.806249502162522, 'xmax': -104.21238742239412, 'ymax': 19.806249502162522}",dining and drinking > restaurant > mexican restaurant > taco restaurant,1
593cd45b8c812a1b831f14dd,Saul's Tacos,21.12715,-101.64125,Blvd. Vicente Valtierra 6556 calle,León,Guanajuato,,,,,MX,2017-06-11,2020-11-22,,,,,,,,['4bf58dd8d48988d151941735'],['Dining and Drinking > Restaurant > Mexican Restaurant > Taco Restaurant'],b'\x00\x00\x00\x00\x01\xc0Yi\n=p\xa3\xd7@5 \x8c\xe7\x03\xaf\xb8',"{'xmin': -101.64125, 'ymin': 21.12715, 'xmax': -101.64125, 'ymax': 21.12715}",dining and drinking > restaurant > mexican restaurant > taco restaurant,1
52b4e098498e2861244c52cc,Tacos El Rojo,20.74483764747585,-103.42755912049445,,,,,,,,MX,2013-12-21,2021-08-13,,,,,,,,['4bf58dd8d48988d151941735'],['Dining and Drinking > Restaurant > Mexican Restaurant > Taco Restaurant'],b'\x00\x00\x00\x00\x01\xc0Y\xdb] \xed\xe8U@4\xbe\xad\xae\x18\xbd\x05',"{'xmin': -103.42755912049445, 'ymin': 20.74483764747585, 'xmax': -103.42755912049445, 'ymax': 20.74483764747585}",dining and drinking > restaurant > mexican restaurant > taco restaurant,1
50feb134e4b0c867428cf3e5,"Terraza ""Don Javi"" Tacos de Barbacoa",20.744590718928038,-103.41908274411135,,,,,,,,MX,2013-01-22,2021-08-17,,,,,,,,['4bf58dd8d48988d151941735'],['Dining and Drinking > Restaurant > Mexican Restaurant > Taco Restaurant'],b'\x00\x00\x00\x00\x01\xc0Y\xda\xd2@n\x11\xad@4\xbe\x9d\x7fR\xb3x',"{'xmin': -103.41908274411135, 'ymin': 20.744590718928038, 'xmax': -103.41908274411135, 'ymax': 20.744590718928038}",dining and drinking > restaurant > mexican restaurant > taco restaurant,1
4c9fb88527d3bfb7c2083267,Tacos El Pastorcito,20.675430635583734,-103.35451624689564,Av. Federalismo,Guadalajara,Jalisco,,,,,MX,2010-09-26,2021-08-16,,,,,,,,['4bf58dd8d48988d151941735'],['Dining and Drinking > Restaurant > Mexican Restaurant > Taco Restaurant'],b'\x00\x00\x00\x00\x01\xc0Y\xd6\xb0d\xe9\x94Q@4\xac\xe9\x05\xaa\x8cs',"{'xmin': -103.35451624689564, 'ymin': 20.675430635583734, 'xmax': -103.35451624689564, 'ymax': 20.675430635583734}",dining and drinking > restaurant > mexican restaurant > taco restaurant,1
51aba06a498ef2b8d0a6b02b,Durería Pérez,20.98103911970792,-101.28303742955444,,,,,,,,MX,2013-06-02,2021-08-16,,,,,,,,['4bf58dd8d48988d151941735'],['Dining and Drinking > Restaurant > Mexican Restaurant > Taco Restaurant'],b'\x00\x00\x00\x00\x01\xc0YR\x1dI\x05\xde\xbc@4\xfb%a7=\xfd',"{'xmin': -101.28303742955444, 'ymin': 20.98103911970792, 'xmax': -101.28303742955444, 'ymax': 20.98103911970792}",dining and drinking > restaurant > mexican restaurant > taco restaurant,1
581a40180b08c70a283e7978,Takazoo,20.677429,-103.382559,,Guadalajara,Jalisco,,,,,MX,2016-11-02,2021-08-12,,,,,,,,['4bf58dd8d48988d151941735'],['Dining and Drinking > Restaurant > Mexican Restaurant > Taco Restaurant'],b'\x00\x00\x00\x00\x01\xc0Y\xd8{\xd8\xber\x97@4\xadk\xfc\xa8\\\xab',"{'xmin': -103.382559, 'ymin': 20.677429, 'xmax': -103.382559, 'ymax': 20.677429}",dining and drinking > restaurant > mexican restaurant > taco restaurant,1
54e4b695498e6ac819e4e219,Quesadillas Doña Lupe (La Generosa),21.909750180441122,-102.30326661523755,San Miguel El Alto 302,Aguascalientes,Aguascalientes,20130,,,,MX,2015-02-18,2020-11-21,,,,,,,,['4bf58dd8d48988d151941735'],['Dining and Drinking > Restaurant > Mexican Restaurant > Taco Restaurant'],b'\x00\x00\x00\x00\x01\xc0Y\x93h\xb8`\x9a}@5\xe8\xe5cH\x86T',"{'xmin': -102.30326661523755, 'ymin': 21.909750180441122, 'xmax': -102.30326661523755, 'ymax': 21.909750180441122}",dining and drinking > restaurant > mexican restaurant > taco restaurant,1
54908976498edfc96fdd563f,Taco Tote,21.141138,-101.690457,Avenida Los Paraísos 108,Leon,Guanajuato,37000,,,,MX,2014-12-16,2020-11-22,,477 354 8966,,,,,,['4bf58dd8d48988d151941735'],['Dining and Drinking > Restaurant > Mexican Restaurant > Taco Restaurant'],b'\x00\x00\x00\x00\x01\xc0Yl0r\x8e\x92\xd5@5$!\x9e\xb69\r',"{'xmin': -101.690457, 'ymin': 21.141138, 'xmax': -101.690457, 'ymax': 21.141138}",dining and drinking > restaurant > mexican restaurant > taco restaurant,1
5269374e498e797e5197ea58,Tacos De Birria Elias,20.678872,-103.373,,,,,,,,MX,2013-10-24,2021-08-14,,,,,,,,['4bf58dd8d48988d151941735'],['Dining and Drinking > Restaurant > Mexican Restaurant > Taco Restaurant'],b'\x00\x00\x00\x00\x01\xc0Y\xd7\xdf;dZ\x1d@4\xad\xca\x8e.+\x8c',"{'xmin': -103.373, 'ymin': 20.678872, 'xmax': -103.373, 'ymax': 20.678872}",dining and drinking > restaurant > mexican restaurant > taco restaurant,1
57ae2d0f498e4a7427912625,Carnitas Tacos Naranja,20.63185,-103.4289,,Zapopan,Jalisco,,,,,MX,2016-08-12,2020-11-26,,,,,,,,['4bf58dd8d48988d151941735'],['Dining and Drinking > Restaurant > Mexican Restaurant > Taco Restaurant'],b'\x00\x00\x00\x00\x01\xc0Y\xdbs\x18\xfcPH@4\xa1\xc0\xeb\xed\xfaD',"{'xmin': -103.4289, 'ymin': 20.63185, 'xmax': -103.4289, 'ymax': 20.63185}",dining and drinking > restaurant > mexican restaurant > taco restaurant,1
4f9e00ede4b033ffd51ea870,Tacos de Asada Don Gus,20.625860065493725,-103.26394958508061,Circuito loma sur,Tonala,Jalisco,,,,,MX,2012-04-30,2020-11-25,,,,,,,,['4bf58dd8d48988d151941735'],['Dining and Drinking > Restaurant > Mexican Restaurant > Taco Restaurant'],b'\x00\x00\x00\x00\x01\xc0Y\xd0\xe4\x8c\xcc\xed\xb2@4\xa08]\x81+\x00',"{'xmin': -103.26394958508061, 'ymin': 20.625860065493725, 'xmax': -103.26394958508061, 'ymax': 20.625860065493725}",dining and drinking > restaurant > mexican restaurant > taco restaurant,1
5359981d498e1729831fa3fa,Tacos de Cabeza Jack,19.675695419311523,-101.22987365722656,,,,,,,,MX,2014-04-24,2021-08-10,,,,,,,,['4bf58dd8d48988d151941735'],['Dining and Drinking > Restaurant > Mexican Restaurant > Taco Restaurant'],b'\x00\x00\x00\x00\x01\xc0YN\xb6@\x00\x00\x00@3\xac\xfa`\x00\x00\x00',"{'xmin': -101.22987365722656, 'ymin': 19.675695419311523, 'xmax': -101.22987365722656, 'ymax': 19.675695419311523}",dining and drinking > restaurant > mexican restaurant > taco restaurant,1
5132ca65e4b0826884140a22,"Tacos ""los Cuñados""",14.895813,-92.275735,,,,,,,,MX,2013-03-03,2020-11-25,,,,,,,,['4bf58dd8d48988d151941735'],['Dining and Drinking > Restaurant > Mexican Restaurant > Taco Restaurant'],b'\x00\x00\x00\x00\x01\xc0W\x11\xa5\xa4i\xd74@-\xca\xa8\x00d\xa9\xce',"{'xmin': -92.275735, 'ymin': 14.895813, 'xmax': -92.275735, 'ymax': 14.895813}",dining and drinking > restaurant > mexican restaurant > taco restaurant,1
56ff2142498e7544d45c1443,Tacos Los Perrones,19.289681,-99.227363,,,,,,,,MX,2016-04-02,2021-08-13,,,,,,,,['4bf58dd8d48988d151941735'],['Dining and Drinking > Restaurant > Mexican Restaurant > Taco Restaurant'],b'\x00\x00\x00\x00\x01\xc0X\xce\x8d\x1d\x8aT\x82@3J(\x88\xb5E\xc8',"{'xmin': -99.227363, 'ymin': 19.289681, 'xmax': -99.227363, 'ymax': 19.289681}",dining and drinking > restaurant > mexican restaurant > taco restaurant,1
4e3f55eb18a83d5b285e8051,Romero Tacos,19.254440030378777,-99.11456778064364,,,,,,,,MX,2011-08-08,2023-12-20,,55 8502 2377,,,,,,['4bf58dd8d48988d151941735'],['Dining and Drinking > Restaurant > Mexican Restaurant > Taco Restaurant'],"b'\x00\x00\x00\x00\x01\xc0X\xc7U\x14\x19\xc2\x8b@3A""\xfbYE%'","{'xmin': -99.11456778064364, 'ymin': 19.254440030378777, 'xmax': -99.11456778064364, 'ymax': 19.254440030378777}",dining and drinking > restaurant > mexican restaurant > taco restaurant,1
587bbd6c15fb436da1330e64,Las Bañadas Plaza Modelo,19.689993,-101.168839,,,,,,,,MX,2017-01-15,2021-08-14,,,,,,,,['4bf58dd8d48988d151941735'],['Dining and Drinking > Restaurant > Mexican Restaurant > Taco Restaurant'],b'\x00\x00\x00\x00\x01\xc0YJ\xceB\x17\xd2\x85@3\xb0\xa3a\x99x\x0c',"{'xmin': -101.168839, 'ymin': 19.689993, 'xmax': -101.168839, 'ymax': 19.689993}",dining and drinking > restaurant > mexican restaurant > taco restaurant,1
52fa902611d2c05e8be54c3e,Ke-Tacos,19.976732,-102.287314,,,,,,,,MX,2014-02-11,2021-08-16,,,,,,,,['4bf58dd8d48988d151941735'],['Dining and Drinking > Restaurant > Mexican Restaurant > Taco Restaurant'],b'\x00\x00\x00\x00\x01\xc0Y\x92cZBk\xb5@3\xfa\x0b\x1b\xbc\xf4\xe8',"{'xmin': -102.287314, 'ymin': 19.976732, 'xmax': -102.287314, 'ymax': 19.976732}",dining and drinking > restaurant > mexican restaurant > taco restaurant,1
4efe79ed61af974bccc937b2,"Taqueria ""El Torito""",17.128679283171476,-96.80301431394487,Independencia,,,68263,,,,MX,2011-12-31,2021-08-16,,,,,,,,['4bf58dd8d48988d151941735'],['Dining and Drinking > Restaurant > Mexican Restaurant > Taco Restaurant'],"b""\x00\x00\x00\x00\x01\xc0X3d\x96&'=@1 \xf1  \xe4\xeb""","{'xmin': -96.80301431394487, 'ymin': 17.128679283171476, 'xmax': -96.80301431394487, 'ymax': 17.128679283171476}",dining and drinking > restaurant > mexican restaurant > taco restaurant,1
52dca49b498e3dd425c469fd,tacos del güero,18.922452926635742,-99.24822998046875,,,,,,,,MX,2014-01-20,2021-08-12,,,,,,,,['4bf58dd8d48988d151941735'],['Dining and Drinking > Restaurant > Mexican Restaurant > Taco Restaurant'],b'\x00\x00\x00\x00\x01\xc0X\xcf\xe3\x00\x00\x00\x00@2\xec%\xe0\x00\x00\x00',"{'xmin': -99.24822998046875, 'ymin': 18.922452926635742, 'xmax': -99.24822998046875, 'ymax': 18.922452926635742}",dining and drinking > restaurant > mexican restaurant > taco restaurant,1
55e4a17e498e69070ae996f0,Los acorazados Acapantzingo,18.917623214012867,-99.21960861772664,,,,,,,,MX,2015-08-31,2021-08-13,,,,,,,,['4bf58dd8d48988d151941735'],['Dining and Drinking > Restaurant > Mexican Restaurant > Taco Restaurant'],b'\x00\x00\x00\x00\x01\xc0X\xce\x0e\x11M\xc3\x90@2\xea\xe9Z\xde<U',"{'xmin': -99.21960861772664, 'ymin': 18.917623214012867, 'xmax': -99.21960861772664, 'ymax': 18.917623214012867}",dining and drinking > restaurant > mexican restaurant > taco restaurant,1
54ab32bb498ed6d6c8413d43,Tacos La chata,19.2523489706218,-99.6043173316866,5 de mayo,Metepec,Mexico,,,,,MX,2015-01-06,2020-11-24,,,,,,,,['4bf58dd8d48988d151941735'],['Dining and Drinking > Restaurant > Mexican Restaurant > Taco Restaurant'],"b'\x00\x00\x00\x00\x01\xc0X\xe6\xad""\x99\xff\xff@3@\x99\xf1/\xff\xf9'","{'xmin': -99.6043173316866, 'ymin': 19.2523489706218, 'xmax': -99.6043173316866, 'ymax': 19.2523489706218}",dining and drinking > restaurant > mexican restaurant > taco restaurant,1
575330da498e4cf3d750d9db,Las Cazuelas,19.258426,-99.104708,Cerrada de Morelos #14,,,,,,,MX,2016-06-04,2021-08-11,,,,,,,,['4bf58dd8d48988d151941735'],['Dining and Drinking > Restaurant > Mexican Restaurant > Taco Restaurant'],b'\x00\x00\x00\x00\x01\xc0X\xc6\xb3\x89.\xe8K@3B(4\xd2o\xa4',"{'xmin': -99.104708, 'ymin': 19.258426, 'xmax': -99.104708, 'ymax': 19.258426}",dining and drinking > restaurant > mexican restaurant > taco restaurant,1
4f775f22e4b0df5436ac872b,Carnitas Mi Linda Juquilita,19.335716901990825,-99.16916017582575,,,,,,,,MX,2012-03-31,2021-08-11,,,,,,,,['4bf58dd8d48988d151941735'],['Dining and Drinking > Restaurant > Mexican Restaurant > Taco Restaurant'],b'\x00\x00\x00\x00\x01\xc0X\xca\xd3\x853\xbdC@3U\xf1\x8a\xfa\xc3\xd9',"{'xmin': -99.16916017582575, 'ymin': 19.335716901990825, 'xmax': -99.16916017582575, 'ymax': 19.335716901990825}",dining and drinking > restaurant > mexican restaurant > taco restaurant,1
576f4bc6498e0917af443f43,"Taqueria ""El hijo del Paisa""",19.334759,-99.133745,,,,,,,,MX,2016-06-26,2021-08-17,,,,,,,,['4bf58dd8d48988d151941735'],['Dining and Drinking > Restaurant > Mexican Restaurant > Taco Restaurant'],b'\x00\x00\x00\x00\x01\xc0X\xc8\x8fG0@:@3U\xb2\xc4\r\n\xaa',"{'xmin': -99.133745, 'ymin': 19.334759, 'xmax': -99.133745, 'ymax': 19.334759}",dining and drinking > restaurant > mexican restaurant > taco restaurant,1
5775cb9d498e7209a519ff08,Tacos el paisa,19.328844,-99.116949,,,,,,,,MX,2016-07-01,2021-08-14,,,,,,,,['4bf58dd8d48988d151941735'],['Dining and Drinking > Restaurant > Mexican Restaurant > Taco Restaurant'],b'\x00\x00\x00\x00\x01\xc0X\xc7|\x17\xa8\x932@3T/\x1e\xd1|_',"{'xmin': -99.116949, 'ymin': 19.328844, 'xmax': -99.116949, 'ymax': 19.328844}",dining and drinking > restaurant > mexican restaurant > taco restaurant,1
546d6ec3498e2e249931cff8,"Super Taqueria ""El 2do. Esfuerzo""",19.3097597547145,-99.08287979414389,,,,,,,,MX,2014-11-20,2021-08-17,,,,,,,,['4bf58dd8d48988d151941735'],['Dining and Drinking > Restaurant > Mexican Restaurant > Taco Restaurant'],b'\x00\x00\x00\x00\x01\xc0X\xc5M\xe7\rV9@3OLjP\x1d\xa2',"{'xmin': -99.08287979414389, 'ymin': 19.3097597547145, 'xmax': -99.08287979414389, 'ymax': 19.3097597547145}",dining and drinking > restaurant > mexican restaurant > taco restaurant,1
57941aaf498e0802fa651856,La Escondida,19.245708,-99.746011,Calle Morelos,La Huerta,México,51370,,,,MX,2016-07-24,2020-11-22,,,,,,,,['4bf58dd8d48988d151941735'],['Dining and Drinking > Restaurant > Mexican Restaurant > Taco Restaurant'],b'\x00\x00\x00\x00\x01\xc0X\xef\xbe\xa4\xeb\xdd3@3>\xe6\xb80]\x96',"{'xmin': -99.746011, 'ymin': 19.245708, 'xmax': -99.746011, 'ymax': 19.245708}",dining and drinking > restaurant > mexican restaurant > taco restaurant,1
57f3c286498e9cc2d539ef7c,barbacoa karlita,19.287184,-99.059839,Mercado de la Del Mar,,,,,,,MX,2016-10-04,2021-08-13,,,,,,,,['4bf58dd8d48988d151941735'],['Dining and Drinking > Restaurant > Mexican Restaurant > Taco Restaurant'],b'\x00\x00\x00\x00\x01\xc0X\xc3\xd4f\xf5\x01\x9f@3I\x84\xe3\xff\xef9',"{'xmin': -99.059839, 'ymin': 19.287184, 'xmax': -99.059839, 'ymax': 19.287184}",dining and drinking > restaurant > mexican restaurant > taco restaurant,1
58349a07110d0369b2e0461e,Los Originales Rio Mayo,18.934025,-99.214247,,,,,,,,MX,2016-11-22,2021-08-15,,,,,,,,['4bf58dd8d48988d151941735'],['Dining and Drinking > Restaurant > Mexican Restaurant > Taco Restaurant'],"b'\x00\x00\x00\x00\x01\xc0X\xcd\xb69\x0c\x91\x08@2\xef\x1cC,\xa5z'","{'xmin': -99.214247, 'ymin': 18.934025, 'xmax': -99.214247, 'ymax': 18.934025}",dining and drinking > restaurant > mexican restaurant > taco restaurant,1
5d705b1ca27e1a0007f609b1,Taqueria Casa Lupe,19.329895,-99.131966,,Ciudad de México,CDMX,04460,,,,MX,2019-09-05,2020-11-26,,,,,,,,['4bf58dd8d48988d151941735'],['Dining and Drinking > Restaurant > Mexican Restaurant > Taco Restaurant'],b'\x00\x00\x00\x00\x01\xc0X\xc8r!\x85\x8b\xc6@3Ts\xff\xac\x1d*',"{'xmin': -99.131966, 'ymin': 19.329895, 'xmax': -99.131966, 'ymax': 19.329895}",dining and drinking > restaurant > mexican restaurant > taco restaurant,1
541e6ba5498e7ac7041f3200,Tacos El Jarocho,19.297901710304256,-99.10009384067551,,,,,,,,MX,2014-09-21,2021-08-11,,,,,,,,['4bf58dd8d48988d151941735'],['Dining and Drinking > Restaurant > Mexican Restaurant > Taco Restaurant'],b'\x00\x00\x00\x00\x01\xc0X\xc6g\xef\xff\x0e\xdf@3LCIW-\xe3',"{'xmin': -99.10009384067551, 'ymin': 19.297901710304256, 'xmax': -99.10009384067551, 'ymax': 19.297901710304256}",dining and drinking > restaurant > mexican restaurant > taco restaurant,1
50e9b1c3e4b05e3445bd6994,Tacos Maria,20.504533,-103.294298,,,,,,,,MX,2013-01-06,2020-11-25,,,,,,,,['4bf58dd8d48988d151941735'],['Dining and Drinking > Restaurant > Mexican Restaurant > Taco Restaurant'],b'\x00\x00\x00\x00\x01\xc0Y\xd2\xd5\xc7GQ\xce@4\x81)\x13\x1e\xc0\xb5',"{'xmin': -103.294298, 'ymin': 20.504533, 'xmax': -103.294298, 'ymax': 20.504533}",dining and drinking > restaurant > mexican restaurant > taco restaurant,1
5105abbce4b0e893fefd5e02,Taqueria y Birrieria los 3 potrillos de Arandas,19.273116,-99.589874,,,,,,,,MX,2013-01-27,2020-11-25,,,,,,,,['4bf58dd8d48988d151941735'],['Dining and Drinking > Restaurant > Mexican Restaurant > Taco Restaurant'],b'\x00\x00\x00\x00\x01\xc0X\xe5\xc0~\xe0\xb0\xaf@3E\xea\xee \x03\xac',"{'xmin': -99.589874, 'ymin': 19.273116, 'xmax': -99.589874, 'ymax': 19.273116}",dining and drinking > restaurant > mexican restaurant > taco restaurant,1
54c51d85498eea71db7e5c84,Taqueria Don Leno,17.008068737301198,-100.0894289349777,,,,,,,,MX,2015-01-25,2021-08-12,,,,,,,,['4bf58dd8d48988d151941735'],['Dining and Drinking > Restaurant > Mexican Restaurant > Taco Restaurant'],b'\x00\x00\x00\x00\x01\xc0Y\x05\xb94#\xc2\xe7@1\x02\x10\xca\xf2\xd4#',"{'xmin': -100.0894289349777, 'ymin': 17.008068737301198, 'xmax': -100.0894289349777, 'ymax': 17.008068737301198}",dining and drinking > restaurant > mexican restaurant > taco restaurant,1
4f43cdc8e4b0a2bdc7be26ab,Picadas De La Esquina,18.840171417166232,-97.1377754040393,Guadalupe Victoria,Rio Blanco,Veracruz,94730,,,,MX,2012-02-21,2020-11-25,,,,,,,,['4bf58dd8d48988d151941735'],['Dining and Drinking > Restaurant > Mexican Restaurant > Taco Restaurant'],b'\x00\x00\x00\x00\x01\xc0XH\xd1O\xed\xa2\xb0@2\xd7\x15yW\xc3P',"{'xmin': -97.1377754040393, 'ymin': 18.840171417166232, 'xmax': -97.1377754040393, 'ymax': 18.840171417166232}",dining and drinking > restaurant > mexican restaurant > taco restaurant,1
591a5cf282a7506d6255a992,Tacos Palmitas,19.344322,-99.02554,,Ciudad de México,Ciudad de México,09620,,,,MX,2017-05-16,2020-11-25,,,,,,,,['4bf58dd8d48988d151941735'],['Dining and Drinking > Restaurant > Mexican Restaurant > Taco Restaurant'],b'\x00\x00\x00\x00\x01\xc0X\xc1\xa2r\x86/Z@3X%|\x91K\x16',"{'xmin': -99.02554, 'ymin': 19.344322, 'xmax': -99.02554, 'ymax': 19.344322}",dining and drinking > restaurant > mexican restaurant > taco restaurant,1
561a7f5c498ec9037cb5b034,tacos de cochinita el cerdito del oxxo,19.130679,-96.108692,,,,,,,,MX,2015-10-11,2024-01-03,,,http://www.oxxo.com,,,,,['4bf58dd8d48988d151941735'],['Dining and Drinking > Restaurant > Mexican Restaurant > Taco Restaurant'],b'\x00\x00\x00\x00\x01\xc0X\x06\xf4\xcfJU\x8f@3!t-\xcfF$',"{'xmin': -96.108692, 'ymin': 19.130679, 'xmax': -96.108692, 'ymax': 19.130679}",dining and drinking > restaurant > mexican restaurant > taco restaurant,1
5ce167ecc5b11c002ce210d9,La Flor de Xochimilco,19.263691,-99.109362,Callejón del Río #5,Ciudad de México,CDMX,16050,,,,MX,2019-05-19,2022-10-18,,55 2185 8395,,,,,,"['4bf58dd8d48988d151941735' '52e81612bcbc57f1066b7a00'
 '4bf58dd8d48988d1c1941735']","['Dining and Drinking > Restaurant > Mexican Restaurant > Taco Restaurant'
 'Dining and Drinking > Restaurant > Comfort Food Restaurant'
 'Dining and Drinking > Restaurant > Mexican Restaurant']",b'\x00\x00\x00\x00\x01\xc0X\xc6\xff\xc9y[6@3C\x81@\xdd?\xe2',"{'xmin': -99.109362, 'ymin': 19.263691, 'xmax': -99.109362, 'ymax': 19.263691}","dining and drinking > restaurant > mexican restaurant > taco restaurant, dining and drinking > restaurant > comfort food restaurant, dining and drinking > restaurant > mexican restaurant",1
527f0db211d2db49c39d1130,El Sirlonés,18.464566,-97.409154,22 nte,Tehuacán,,75750,,,,MX,2013-11-10,2020-11-23,,,,,,,,['4bf58dd8d48988d151941735'],['Dining and Drinking > Restaurant > Mexican Restaurant > Taco Restaurant'],b'\x00\x00\x00\x00\x01\xc0XZ/\x94BA\xc4@2v\xed\xcc \xd5c',"{'xmin': -97.409154, 'ymin': 18.464566, 'xmax': -97.409154, 'ymax': 18.464566}",dining and drinking > restaurant > mexican restaurant > taco restaurant,1
4f9b6586e4b04f3d089831ee,Tacos Los Mensos,20.51562,-103.184672,,,,,,,,MX,2012-04-28,2021-08-12,,,,,,,,['4bf58dd8d48988d151941735'],['Dining and Drinking > Restaurant > Mexican Restaurant > Taco Restaurant'],b'\x00\x00\x00\x00\x01\xc0Y\xcb\xd1\xaa\x82\x1f*@4\x83\xff\xac\x1d)\xdc',"{'xmin': -103.184672, 'ymin': 20.51562, 'xmax': -103.184672, 'ymax': 20.51562}",dining and drinking > restaurant > mexican restaurant > taco restaurant,1
4e7caa2a29c2ef1f7a4373c9,Tacos De Guizado Mary,19.266274,-99.169768,,Ciudad de México,Distrito Federal,,,,,MX,2011-09-23,2020-11-23,,,,,,,,['4bf58dd8d48988d151941735'],['Dining and Drinking > Restaurant > Mexican Restaurant > Taco Restaurant'],b'\x00\x00\x00\x00\x01\xc0X\xca\xddz\x99\xfa\x12@3D*\x88i\xc6m',"{'xmin': -99.169768, 'ymin': 19.266274, 'xmax': -99.169768, 'ymax': 19.266274}",dining and drinking > restaurant > mexican restaurant > taco restaurant,1
513bb127e4b05d5c2c8ba05b,Bim Bam Bum,19.283993,-99.528579,,,,,,,,MX,2013-03-09,2021-08-15,,,,,,,,['4bf58dd8d48988d151941735'],['Dining and Drinking > Restaurant > Mexican Restaurant > Taco Restaurant'],b'\x00\x00\x00\x00\x01\xc0X\xe1\xd4=\x03\x96\x8d@3H\xb3\xc3\xe7J\xfd',"{'xmin': -99.528579, 'ymin': 19.283993, 'xmax': -99.528579, 'ymax': 19.283993}",dining and drinking > restaurant > mexican restaurant > taco restaurant,1
50e08c0fe4b019f64407439c,Barbacoa De Chivo Ascencio,16.863713191884248,-99.89719597734519,,,,,,,,MX,2012-12-30,2021-08-13,,,,,,,,['4bf58dd8d48988d151941735'],['Dining and Drinking > Restaurant > Mexican Restaurant > Taco Restaurant'],b'\x00\x00\x00\x00\x01\xc0X\xf9k\xa8\xad39@0\xdd\x1cN\xc8DA',"{'xmin': -99.89719597734519, 'ymin': 16.863713191884248, 'xmax': -99.89719597734519, 'ymax': 16.863713191884248}",dining and drinking > restaurant > mexican restaurant > taco restaurant,1
51376e34e4b081ac614cb426,Tortas Y Tacos Lerma,19.283433238548977,-99.51389642559741,Lerma,Lerma,Edo Mex,,,,,MX,2013-03-06,2020-11-30,,,,,,,,['4bf58dd8d48988d151941735'],['Dining and Drinking > Restaurant > Mexican Restaurant > Taco Restaurant'],b'\x00\x00\x00\x00\x01\xc0X\xe0\xe3\xad\xd5^8@3H\x8f\x14\xaa*\xcf',"{'xmin': -99.51389642559741, 'ymin': 19.283433238548977, 'xmax': -99.51389642559741, 'ymax': 19.283433238548977}",dining and drinking > restaurant > mexican restaurant > taco restaurant,1
4c0c18a5ffb8c9b6cb486e61,El Gran Fogón,19.29096599722541,-99.21937933018054,Acanceh,Tlalpan,Distrito Federal,14200,,,,MX,2010-06-06,2020-11-23,,,,,207722176071719.0,,,['4bf58dd8d48988d1c1941735' '4bf58dd8d48988d151941735'],"['Dining and Drinking > Restaurant > Mexican Restaurant'
 'Dining and Drinking > Restaurant > Mexican Restaurant > Taco Restaurant']","b'\x00\x00\x00\x00\x01\xc0X\xce\nO\x9a""\xce@3J|\xbfbT\xc7'","{'xmin': -99.21937933018054, 'ymin': 19.29096599722541, 'xmax': -99.21937933018054, 'ymax': 19.29096599722541}","dining and drinking > restaurant > mexican restaurant, dining and drinking > restaurant > mexican restaurant > taco restaurant",1
56fc7bc7498eb7fbd9656d0e,"Cenaduría ""Agustina""",15.432473,-92.901955,,,,,,,,MX,2016-03-31,2021-08-14,,,,,,,,['4bf58dd8d48988d151941735'],['Dining and Drinking > Restaurant > Mexican Restaurant > Taco Restaurant'],b'\x00\x00\x00\x00\x01\xc0W9\xb9\xa1v\xdd\xad@.\xddm\x19\xde\xceW',"{'xmin': -92.901955, 'ymin': 15.432473, 'xmax': -92.901955, 'ymax': 15.432473}",dining and drinking > restaurant > mexican restaurant > taco restaurant,1
5259aaec498e875d6832b961,Takos Yes,19.296673750388194,-99.03399645541319,,,,,,,,MX,2013-10-12,2021-08-15,,,,,,,,['4bf58dd8d48988d151941735'],['Dining and Drinking > Restaurant > Mexican Restaurant > Taco Restaurant'],"b'\x00\x00\x00\x00\x01\xc0X\xc2,\xffx\x0b~@3K\xf2\xcf\x97\x7f\xbc'","{'xmin': -99.03399645541319, 'ymin': 19.296673750388194, 'xmax': -99.03399645541319, 'ymax': 19.296673750388194}",dining and drinking > restaurant > mexican restaurant > taco restaurant,1
581faa68569e1b2ffb7f224d,Tacos Nada + Suadero,18.848738,-99.23,,Temixco,Morelos,62583,,,,MX,2016-11-06,2020-11-22,,,,,,,,['4bf58dd8d48988d151941735'],['Dining and Drinking > Restaurant > Mexican Restaurant > Taco Restaurant'],b'\x00\x00\x00\x00\x01\xc0X\xce\xb8Q\xeb\x85\x1f@2\xd9F\xe4\xc0\xdfY',"{'xmin': -99.23, 'ymin': 18.848738, 'xmax': -99.23, 'ymax': 18.848738}",dining and drinking > restaurant > mexican restaurant > taco restaurant,1
576ed680498e282814943e23,4a Feria Del Taco,19.29127626301325,-99.17335579422313,,,,,,,,MX,2016-06-25,2021-08-12,2016-07-10,,,,,,,"['56aa371be4b08b9a8d57350b' '5267e4d9e4b0ec79466e48c8'
 '4bf58dd8d48988d151941735']","['Dining and Drinking > Food Stand' 'Event > Other Event'
 'Dining and Drinking > Restaurant > Mexican Restaurant > Taco Restaurant']",b'\x00\x00\x00\x00\x01\xc0X\xcb\x18B\xe6\xb0\xab@3J\x91\x14\xc7\xbe5',"{'xmin': -99.17335579422313, 'ymin': 19.29127626301325, 'xmax': -99.17335579422313, 'ymax': 19.29127626301325}","dining and drinking > food stand, event > other event, dining and drinking > restaurant > mexican restaurant > taco restaurant",1
5263523011d2a10bf4812c7d,"Tacos ""Ahogados"" El vara",18.96339339096553,-99.59705799844633,,,,,,,,MX,2013-10-20,2021-08-17,,,,,,,,['4bf58dd8d48988d151941735'],['Dining and Drinking > Restaurant > Mexican Restaurant > Taco Restaurant'],b'\x00\x00\x00\x00\x01\xc0X\xe662\xc0I\x1a@2\xf6\xa0\xf3\x03a&',"{'xmin': -99.59705799844633, 'ymin': 18.96339339096553, 'xmax': -99.59705799844633, 'ymax': 18.96339339096553}",dining and drinking > restaurant > mexican restaurant > taco restaurant,1
57263afc498e7db36205678c,"Carnitas ""El Güero Jr""",19.292127,-99.041131,,,,,,,,MX,2016-05-01,2021-08-11,,,,,,,,['4bf58dd8d48988d151941735'],['Dining and Drinking > Restaurant > Mexican Restaurant > Taco Restaurant'],b'\x00\x00\x00\x00\x01\xc0X\xc2\xa1\xe3\xea\xf6\x83@3J\xc8\xd5\xc7GR',"{'xmin': -99.041131, 'ymin': 19.292127, 'xmax': -99.041131, 'ymax': 19.292127}",dining and drinking > restaurant > mexican restaurant > taco restaurant,1
4f9d89c2e4b065054d1a0c03,Barbacoa Enrique,19.326562903672865,-99.11981281944315,,Coyoacán,,,,,,MX,2012-04-29,2020-11-24,,,,,,,,['4bf58dd8d48988d151941735'],['Dining and Drinking > Restaurant > Mexican Restaurant > Taco Restaurant'],b'\x00\x00\x00\x00\x01\xc0X\xc7\xab\x03cI\x98@3S\x99\xa0_\\\x9c',"{'xmin': -99.11981281944315, 'ymin': 19.326562903672865, 'xmax': -99.11981281944315, 'ymax': 19.326562903672865}",dining and drinking > restaurant > mexican restaurant > taco restaurant,1
4e90776449013919dad81109,Barcacoa de los sabados,19.306145515134556,-99.11209780158359,,,,,,,,MX,2011-10-08,2021-08-13,,,,,,,,['4bf58dd8d48988d151941735'],['Dining and Drinking > Restaurant > Mexican Restaurant > Taco Restaurant'],"b'\x00\x00\x00\x00\x01\xc0X\xc7,\x9cA\xf0R@3N_\x8doQ\xeb'","{'xmin': -99.11209780158359, 'ymin': 19.306145515134556, 'xmax': -99.11209780158359, 'ymax': 19.306145515134556}",dining and drinking > restaurant > mexican restaurant > taco restaurant,1
52e9d5fb498e8a10c0801a7e,"taqueria ""chino y nacho""",19.252734,-99.061151,,,,,,,,MX,2014-01-30,2021-08-16,,,,,,,,['4bf58dd8d48988d151941735'],['Dining and Drinking > Restaurant > Mexican Restaurant > Taco Restaurant'],"b'\x00\x00\x00\x00\x01\xc0X\xc3\xe9\xe5\xe2G\x88@3@\xb3,\xe8\x96W'","{'xmin': -99.061151, 'ymin': 19.252734, 'xmax': -99.061151, 'ymax': 19.252734}",dining and drinking > restaurant > mexican restaurant > taco restaurant,1
54d910ab498e255682b3f5ce,Taco Inn,16.863884,-99.882404,CENTRO COMERCIAL PLAZA SENDERO ACAPULCO  CAYACO-PUERTO MARQUEZ,Acapulco,,,,,,MX,2015-02-09,2024-01-03,,744 481 3952,http://www.tacoinn.com.mx,,,,,['4bf58dd8d48988d151941735'],['Dining and Drinking > Restaurant > Mexican Restaurant > Taco Restaurant'],"b""\x00\x00\x00\x00\x01\xc0X\xf8yN\xa0w\x03@0\xdd'\x80w\x89\xa4""","{'xmin': -99.882404, 'ymin': 16.863884, 'xmax': -99.882404, 'ymax': 16.863884}",dining and drinking > restaurant > mexican restaurant > taco restaurant,1
52598bde11d249bbb4a5ef96,Taquería Taco Mostacho,16.90937329798162,-96.71832261265354,Oaxaca Norte 7,,Oaxaca,,,,,MX,2013-10-12,2023-12-19,,951 501 6680,,,,,,['4bf58dd8d48988d151941735'],['Dining and Drinking > Restaurant > Mexican Restaurant > Taco Restaurant'],b'\x00\x00\x00\x00\x01\xc0X-\xf8\xffhT\xc0@0\xe8\xcc\xb0>\xaf\xcd',"{'xmin': -96.71832261265354, 'ymin': 16.90937329798162, 'xmax': -96.71832261265354, 'ymax': 16.90937329798162}",dining and drinking > restaurant > mexican restaurant > taco restaurant,1
53e379ce498e53889257a76b,Tacos Chemis Farallon,16.863324730337137,-99.8698639773742,Fraccionamiento Farallón del Obispo,Acapulco,Guerrero,,,,,MX,2014-08-07,2020-11-23,,,,,,,,['4bf58dd8d48988d151941735'],['Dining and Drinking > Restaurant > Mexican Restaurant > Taco Restaurant'],b'\x00\x00\x00\x00\x01\xc0X\xf7\xab\xd9\xf5\xb2\x9a@0\xdd\x02\xd9z\xa0C',"{'xmin': -99.8698639773742, 'ymin': 16.863324730337137, 'xmax': -99.8698639773742, 'ymax': 16.863324730337137}",dining and drinking > restaurant > mexican restaurant > taco restaurant,1
5123f2dbe4b0dc6a0d866669,Tacos Los Memorables,19.303553943110572,-99.12520589852342,Calz Del Hueso,México,,,,,,MX,2013-02-19,2020-11-23,,,,,,,,['4bf58dd8d48988d151941735'],['Dining and Drinking > Restaurant > Mexican Restaurant > Taco Restaurant'],b'\x00\x00\x00\x00\x01\xc0X\xc8\x03_\x99\xdb)@3M\xb5\xb6\x12;T',"{'xmin': -99.12520589852342, 'ymin': 19.303553943110572, 'xmax': -99.12520589852342, 'ymax': 19.303553943110572}",dining and drinking > restaurant > mexican restaurant > taco restaurant,1
504bf4e7e4b062c863b410a3,Tacos Arturo,19.190738783184056,-96.15038050928834,Constituyentes,Veracruz,veracruz,,,,,MX,2012-09-09,2020-11-25,,,,,,,,['4bf58dd8d48988d151941735'],['Dining and Drinking > Restaurant > Mexican Restaurant > Taco Restaurant'],b'\x00\x00\x00\x00\x01\xc0X\t\x9f\xd5\x92VZ@30\xd4A\xc3\xda\xb7',"{'xmin': -96.15038050928834, 'ymin': 19.190738783184056, 'xmax': -96.15038050928834, 'ymax': 19.190738783184056}",dining and drinking > restaurant > mexican restaurant > taco restaurant,1
efc9978baf1d4e043161cafd,Cocina Economica Virrey,19.696101,-101.190442,Virrey Antonio de Mendoza 694A,Morelia,Michoacán,58000,,,,MX,2013-10-25,2023-12-06,,443 313 4620,,,,,,['4bf58dd8d48988d151941735'],['Dining and Drinking > Restaurant > Mexican Restaurant > Taco Restaurant'],b'\x00\x00\x00\x00\x01\xc0YL03\xa4r;@3\xb23\xac\xd5\xb6\x80',"{'xmin': -101.190442, 'ymin': 19.696101, 'xmax': -101.190442, 'ymax': 19.696101}",dining and drinking > restaurant > mexican restaurant > taco restaurant,1
50f2204be4b01e115a75807c,tacos de asada el amigo,20.519315719604492,-103.38746643066406,,,,,,,,MX,2013-01-13,2020-11-25,,,,,,,,['4bf58dd8d48988d151941735'],['Dining and Drinking > Restaurant > Mexican Restaurant > Taco Restaurant'],b'\x00\x00\x00\x00\x01\xc0Y\xd8\xcc@\x00\x00\x00@4\x84\xf1\xe0\x00\x00\x00',"{'xmin': -103.38746643066406, 'ymin': 20.519315719604492, 'xmax': -103.38746643066406, 'ymax': 20.519315719604492}",dining and drinking > restaurant > mexican restaurant > taco restaurant,1
60bad1b04da9a12bdb32afc1,Taquería Las Peñitas,19.286905,-99.12729,,Ciudad de México,CDMX,14387,,,,MX,2021-06-05,2021-06-05,,,,,,,,['4bf58dd8d48988d151941735'],['Dining and Drinking > Restaurant > Mexican Restaurant > Taco Restaurant'],b'\x00\x00\x00\x00\x01\xc0X\xc8%\x84\xf4\xc6\xe7@3Ir\x9b(\x0f\x13',"{'xmin': -99.12729, 'ymin': 19.286905, 'xmax': -99.12729, 'ymax': 19.286905}",dining and drinking > restaurant > mexican restaurant > taco restaurant,1
52a92c7511d2923e105986d4,Taqueria Nicole,16.798256,-99.807181,,,,,,,,MX,2013-12-12,2021-08-16,,,,,,,,['4bf58dd8d48988d151941735'],['Dining and Drinking > Restaurant > Mexican Restaurant > Taco Restaurant'],b'\x00\x00\x00\x00\x01\xc0X\xf3\xa8\xda\x7f<\xf7@0\xccZ\x81U\xd5\xf5',"{'xmin': -99.807181, 'ymin': 16.798256, 'xmax': -99.807181, 'ymax': 16.798256}",dining and drinking > restaurant > mexican restaurant > taco restaurant,1
5dab7c05a4f2c900072e1005,Las Brazaz,19.674646,-101.162955,,Morelia,MICH,,,,,MX,2019-10-19,2020-11-24,,,,,,,,['4bf58dd8d48988d151941735'],['Dining and Drinking > Restaurant > Mexican Restaurant > Taco Restaurant'],b'\x00\x00\x00\x00\x01\xc0YJm\xda\xce\xee\x0f@3\xac\xb5\x99\xaa`\x91',"{'xmin': -101.162955, 'ymin': 19.674646, 'xmax': -101.162955, 'ymax': 19.674646}",dining and drinking > restaurant > mexican restaurant > taco restaurant,1
57da26de498e18bee2c5e539,Taco Nacho's 2.0,17.268832,-97.677721,Independencia 7,Tlaxiaco,Oaxaca,69800,,,,MX,2016-09-15,2020-11-24,,,,,,,,['4bf58dd8d48988d151941735'],['Dining and Drinking > Restaurant > Mexican Restaurant > Taco Restaurant'],"b'\x00\x00\x00\x00\x01\xc0Xk_\xc7\xe6\xb3\xff@1D\xd2,\x88\x1eG'","{'xmin': -97.677721, 'ymin': 17.268832, 'xmax': -97.677721, 'ymax': 17.268832}",dining and drinking > restaurant > mexican restaurant > taco restaurant,1
4f6fd38ee4b03aaa68dfc455,Tacos Charly's,16.876931001639328,-99.86003923429377,Carretera Nacional México - Acapulco,Acapulco,Guerrero,,,,,MX,2012-03-26,2020-11-24,,,,,,,,['4bf58dd8d48988d151941735'],['Dining and Drinking > Restaurant > Mexican Restaurant > Taco Restaurant'],b'\x00\x00\x00\x00\x01\xc0X\xf7\n\xe2\x00$d@0\xe0~\x8c\xd4\xe3\xb2',"{'xmin': -99.86003923429377, 'ymin': 16.876931001639328, 'xmax': -99.86003923429377, 'ymax': 16.876931001639328}",dining and drinking > restaurant > mexican restaurant > taco restaurant,1
5574d457498e61b3fef4f74b,Tacos Doña Guille,18.96355628967285,-99.58968353271484,,,,,,,,MX,2015-06-07,2021-08-16,,,,,,,,['4bf58dd8d48988d151941735'],['Dining and Drinking > Restaurant > Mexican Restaurant > Taco Restaurant'],b'\x00\x00\x00\x00\x01\xc0X\xe5\xbd`\x00\x00\x00@2\xf6\xab\xa0\x00\x00\x00',"{'xmin': -99.58968353271484, 'ymin': 18.96355628967285, 'xmax': -99.58968353271484, 'ymax': 18.96355628967285}",dining and drinking > restaurant > mexican restaurant > taco restaurant,1
5dae548af353380008e7257f,Tacos El Chino,18.926971,-99.200335,Calle Zacatecas 70,Cuernavaca,MOR,62370,,,,MX,2019-10-22,2020-11-25,,777 500 7027,,,,,,['4bf58dd8d48988d151941735'],['Dining and Drinking > Restaurant > Mexican Restaurant > Taco Restaurant'],b'\x00\x00\x00\x00\x01\xc0X\xcc\xd2I\xe4O\xa0@2\xedM\xf8\xb1W&',"{'xmin': -99.200335, 'ymin': 18.926971, 'xmax': -99.200335, 'ymax': 18.926971}",dining and drinking > restaurant > mexican restaurant > taco restaurant,1
57eb1ec7498ec4f18b447a66,Cenaduria El Torito Norteño,16.205821,-95.205033,,,,,,,,MX,2016-09-28,2021-08-16,,,,,,,,['4bf58dd8d48988d151941735'],['Dining and Drinking > Restaurant > Mexican Restaurant > Taco Restaurant'],b'\x00\x00\x00\x00\x01\xc0W\xcd\x1fB\xbbfs@04\xb0\xaf_\xd4|',"{'xmin': -95.205033, 'ymin': 16.205821, 'xmax': -95.205033, 'ymax': 16.205821}",dining and drinking > restaurant > mexican restaurant > taco restaurant,1
501355ffe4b0649cc17c61b2,Tacos Noelia (Las Papas Rellenas),14.897353,-92.263593,5a. Sur,Tapachula,Chiapas,30710,,,,MX,2012-07-28,2020-11-30,,,,,,,,['4bf58dd8d48988d151941735'],['Dining and Drinking > Restaurant > Mexican Restaurant > Taco Restaurant'],"b'\x00\x00\x00\x00\x01\xc0W\x10\xde\xb5,\x9d\x17@-\xcbq\xda7\xef['","{'xmin': -92.263593, 'ymin': 14.897353, 'xmax': -92.263593, 'ymax': 14.897353}",dining and drinking > restaurant > mexican restaurant > taco restaurant,1
50b96f18e4b06d86d91a0b50,Tacos Fifi,19.190889358520508,-96.14442443847656,Pinosuarez,Veracruz,,,,,,MX,2012-12-01,2020-11-25,,,,,,,,['4bf58dd8d48988d151941735'],['Dining and Drinking > Restaurant > Mexican Restaurant > Taco Restaurant'],b'\x00\x00\x00\x00\x01\xc0X\t>@\x00\x00\x00@30\xde \x00\x00\x00',"{'xmin': -96.14442443847656, 'ymin': 19.190889358520508, 'xmax': -96.14442443847656, 'ymax': 19.190889358520508}",dining and drinking > restaurant > mexican restaurant > taco restaurant,1
502294a9e4b08a3fbb845082,Las Delicias de La Cruz,18.95477789613163,-99.59304145873695,Insurgentes,Tenancingo,México,52400,,,,MX,2012-08-08,2020-11-24,,,,,,,,['4bf58dd8d48988d151941735'],['Dining and Drinking > Restaurant > Mexican Restaurant > Taco Restaurant'],b'\x00\x00\x00\x00\x01\xc0X\xe5\xf4d)\x9c\xa1@2\xf4lR\xfe\xd4<',"{'xmin': -99.59304145873695, 'ymin': 18.95477789613163, 'xmax': -99.59304145873695, 'ymax': 18.95477789613163}",dining and drinking > restaurant > mexican restaurant > taco restaurant,1
4e62773fa80951b318853b1d,"Tortillería ""La única""",19.294078543096685,-99.11257864592505,Hda De Coapa Esquina Cebadales,Ciudad de México,Distrito Federal,,,,,MX,2011-09-03,2020-11-24,,,,,,,,['4bf58dd8d48988d151941735'],['Dining and Drinking > Restaurant > Mexican Restaurant > Taco Restaurant'],b'\x00\x00\x00\x00\x01\xc0X\xc74}\x10\x9ex@3KH\xbb=\x0e;',"{'xmin': -99.11257864592505, 'ymin': 19.294078543096685, 'xmax': -99.11257864592505, 'ymax': 19.294078543096685}",dining and drinking > restaurant > mexican restaurant > taco restaurant,1
5904dee90802d42c65b7ea82,Las Puerquitas,19.28986,-99.040787,,Ciudad de México,DF,13200,,,,MX,2017-04-29,2020-11-22,,,,,,,,['4bf58dd8d48988d151941735'],['Dining and Drinking > Restaurant > Mexican Restaurant > Taco Restaurant'],"b""\x00\x00\x00\x00\x01\xc0X\xc2\x9cA\x13\xc6\x86@3J4C\xd4k'""","{'xmin': -99.040787, 'ymin': 19.28986, 'xmax': -99.040787, 'ymax': 19.28986}",dining and drinking > restaurant > mexican restaurant > taco restaurant,1
50ce3570e4b054c0868bf855,Tacos de Guisado “El Bufe“,19.108660155646092,-96.10350683246533,Blvd. Miguel Aleman s/n,Boca del Río,,94290,,,,MX,2012-12-16,2023-04-24,,229 780 9336,http://www.elbufe.mx,,635108899932317.0,elbufetacosdeguisado,tacoselbufe,['4bf58dd8d48988d151941735' '4bf58dd8d48988d1c1941735'],"['Dining and Drinking > Restaurant > Mexican Restaurant > Taco Restaurant'
 'Dining and Drinking > Restaurant > Mexican Restaurant']",b'\x00\x00\x00\x00\x01\xc0X\x06\x9f\xdb\x1f\x16y@3\x1b\xd1&\xe6\xe0\xd4',"{'xmin': -96.10350683246533, 'ymin': 19.108660155646092, 'xmax': -96.10350683246533, 'ymax': 19.108660155646092}","dining and drinking > restaurant > mexican restaurant > taco restaurant, dining and drinking > restaurant > mexican restaurant",1
