fsq_place_id,name,latitude,longitude,address,locality,region,postcode,admin_region,post_town,po_box,country,date_created,date_refreshed,date_closed,tel,website,email,facebook_id,instagram,twitter,fsq_category_ids,fsq_category_labels,geom,bbox,labels_str,taco_restaurant
9af3a82102ff47e5ac2bed23,Tacos al Vapor Chiquitos Pero Sabrosos,,,Boulevard Mariano Escobedo 1605,León,Guanajuato,37020,,,,MX,2016-08-12,2023-12-06,,477 211 4331,,,,,,['4bf58dd8d48988d151941735'],['Dining and Drinking > Restaurant > Mexican Restaurant > Taco Restaurant'],,"{'xmin': None, 'ymin': None, 'xmax': None, 'ymax': None}",dining and drinking > restaurant > mexican restaurant > taco restaurant,1
62bd024dbc24b634b12f6831,Tacongo,32.515142,-117.013248,,Tijuana,BC,22020,,,,MX,2022-06-30,2023-12-21,,664 969 9946,,,,,,['4bf58dd8d48988d151941735'],['Dining and Drinking > Restaurant > Mexican Restaurant > Taco Restaurant'],"b'\x00\x00\x00\x00\x01\xc0]@\xd9\x0e#\xaf2@@A\xf0,Me\xe4'","{'xmin': -117.013248, 'ymin': 32.515142, 'xmax': -117.013248, 'ymax': 32.515142}",dining and drinking > restaurant > mexican restaurant > taco restaurant,1
54a092a3498e3a6606ee626c,Carnitas Santa Maria De La 7,32.52830140015521,-117.03741404859527,,,,,,,,MX,2014-12-28,2023-12-20,,664 685 3233,,,,,,['4bf58dd8d48988d151941735'],['Dining and Drinking > Restaurant > Mexican Restaurant > Taco Restaurant'],b'\x00\x00\x00\x00\x01\xc0]Bd\xfd\xe4\xc8+@@C\x9faZ\x0c\x7f',"{'xmin': -117.03741404859527, 'ymin': 32.52830140015521, 'xmax': -117.03741404859527, 'ymax': 32.52830140015521}",dining and drinking > restaurant > mexican restaurant > taco restaurant,1
166f4ab548184fb31bef90bd,Tacos y Tortas el Patito Numero 2,32.572525,-116.613797,Anahuac 8,Tecate,Baja California,21470,,,,MX,2013-03-24,2023-12-06,,665 521 8006,,mascara20047@hotmail.com,,,,['4bf58dd8d48988d151941735'],['Dining and Drinking > Restaurant > Mexican Restaurant > Taco Restaurant'],"b""\x00\x00\x00\x00\x01\xc0]'Hs6X\x82@@IH\x7f\xcb\x92:""","{'xmin': -116.613797, 'ymin': 32.572525, 'xmax': -116.613797, 'ymax': 32.572525}",dining and drinking > restaurant > mexican restaurant > taco restaurant,1
61e31eae2ee32a39abd55ef5,Birrieria Los Poblanos,32.620214,-115.418064,Clzd. Gómez Morín,Mexicali,BC,21379,,,,MX,2022-01-15,2022-01-15,,,,,,,,['4bf58dd8d48988d1c1941735' '4bf58dd8d48988d151941735'],"['Dining and Drinking > Restaurant > Mexican Restaurant'
 'Dining and Drinking > Restaurant > Mexican Restaurant > Taco Restaurant']","b'\x00\x00\x00\x00\x01\xc0\\\xda\xc1\x8f\x81\xe8\xa3@@Oc,\x1fB\xbb'","{'xmin': -115.418064, 'ymin': 32.620214, 'xmax': -115.418064, 'ymax': 32.620214}","dining and drinking > restaurant > mexican restaurant, dining and drinking > restaurant > mexican restaurant > taco restaurant",1
51f1d838498ea41e728955d0,Tacos Jalisco,32.48898839041772,-116.9509453892949,,,,,,,,MX,2013-07-26,2023-12-19,,664 689 3743,,,,,,['4bf58dd8d48988d151941735'],['Dining and Drinking > Restaurant > Mexican Restaurant > Taco Restaurant'],b'\x00\x00\x00\x00\x01\xc0]<\xdcJ\x0c\xd3n@@>\x97+\xec{\xe0',"{'xmin': -116.9509453892949, 'ymin': 32.48898839041772, 'xmax': -116.9509453892949, 'ymax': 32.48898839041772}",dining and drinking > restaurant > mexican restaurant > taco restaurant,1
5252edb9498ebbcb8498e812,Tacos El Negro,31.858947,-116.583555,,,,,,,,MX,2013-10-07,2021-08-17,,,,,,,,['4bf58dd8d48988d151941735'],['Dining and Drinking > Restaurant > Mexican Restaurant > Taco Restaurant'],b'\x00\x00\x00\x00\x01\xc0]%X\xf7\x12\x1a\xb5@?\xdb\xe3\xf3Y\xffP',"{'xmin': -116.583555, 'ymin': 31.858947, 'xmax': -116.583555, 'ymax': 31.858947}",dining and drinking > restaurant > mexican restaurant > taco restaurant,1
4f0e3a33e4b06654e3bc1022,Taquería Los Huarachines,32.51349,-117.071676,Bolivar,Mexico,,,,,,MX,2012-01-12,2021-08-16,,,,,,,,['4bf58dd8d48988d151941735'],['Dining and Drinking > Restaurant > Mexican Restaurant > Taco Restaurant'],b'\x00\x00\x00\x00\x01\xc0]D\x96V\xee\xfa\x1e@@A\xba\nRiY',"{'xmin': -117.071676, 'ymin': 32.51349, 'xmax': -117.071676, 'ymax': 32.51349}",dining and drinking > restaurant > mexican restaurant > taco restaurant,1
4cfb673bfeec6dcb60894636,Tacos El Flaco,32.46389106587999,-116.92908982414812,,,,,,,,MX,2010-12-05,2023-12-20,,868 158 6117,,,,,,['4bf58dd8d48988d151941735'],['Dining and Drinking > Restaurant > Mexican Restaurant > Taco Restaurant'],b'\x00\x00\x00\x00\x01\xc0];v5*p\xce@@;`\xc8Nn:',"{'xmin': -116.92908982414812, 'ymin': 32.46389106587999, 'xmax': -116.92908982414812, 'ymax': 32.46389106587999}",dining and drinking > restaurant > mexican restaurant > taco restaurant,1
50b9ad46498e6c9d5f46103e,Tacos El Negro,32.57215118408203,-115.37039947509766,Río San Angel,Mexicali,Baja California,21395,,,,MX,2012-12-01,2020-11-24,,,,,,,,['4bf58dd8d48988d151941735'],['Dining and Drinking > Restaurant > Mexican Restaurant > Taco Restaurant'],b'\x00\x00\x00\x00\x01\xc0\\\xd7\xb4\xa0\x00\x00\x00@@I<@\x00\x00\x00',"{'xmin': -115.37039947509766, 'ymin': 32.57215118408203, 'xmax': -115.37039947509766, 'ymax': 32.57215118408203}",dining and drinking > restaurant > mexican restaurant > taco restaurant,1
5fb9baed510818706bce5007,Asadero Tecolote,32.517844,-117.012505,,Tijuana,BC,22014,,,,MX,2020-11-22,2023-12-20,,664 976 7101,,,,,,['4bf58dd8d48988d151941735'],['Dining and Drinking > Restaurant > Mexican Restaurant > Taco Restaurant'],b'\x00\x00\x00\x00\x01\xc0]@\xcc\xe1\xc5\x82V@@BH\xb6R7\x04',"{'xmin': -117.012505, 'ymin': 32.517844, 'xmax': -117.012505, 'ymax': 32.517844}",dining and drinking > restaurant > mexican restaurant > taco restaurant,1
4cf66b6cdc40a35d88d44754,Tacos De Birria El Jimmy,32.526412,-117.045174,,,,,,,,MX,2010-12-01,2021-08-11,,,,,,,,['4bf58dd8d48988d151941735'],['Dining and Drinking > Restaurant > Mexican Restaurant > Taco Restaurant'],b'\x00\x00\x00\x00\x01\xc0]B\xe4!}(J@@Caw\xea\x1ci',"{'xmin': -117.045174, 'ymin': 32.526412, 'xmax': -117.045174, 'ymax': 32.526412}",dining and drinking > restaurant > mexican restaurant > taco restaurant,1
537956fc498ea441f2e9326c,"Taquerías ""El Güero"" No. 1",32.52366515821945,-117.0349886736321,,,,,,,,MX,2014-05-19,2021-08-13,,,,,,,,['4bf58dd8d48988d151941735'],['Dining and Drinking > Restaurant > Mexican Restaurant > Taco Restaurant'],"b'\x00\x00\x00\x00\x01\xc0]B=A"">\xbd@@C\x07u\xbcM\xb9'","{'xmin': -117.0349886736321, 'ymin': 32.52366515821945, 'xmax': -117.0349886736321, 'ymax': 32.52366515821945}",dining and drinking > restaurant > mexican restaurant > taco restaurant,1
60f1feb3905f5b21a7abc4a9,Taqueria Caliche,31.840473,-116.612117,,Ensenada,BC,,,,,MX,2021-07-16,2021-07-16,,,,,,,,"['4bf58dd8d48988d151941735' '4bf58dd8d48988d1c1941735'
 '4bf58dd8d48988d1ce941735']","['Dining and Drinking > Restaurant > Mexican Restaurant > Taco Restaurant'
 'Dining and Drinking > Restaurant > Mexican Restaurant'
 'Dining and Drinking > Restaurant > Seafood Restaurant']","b""\x00\x00\x00\x00\x01\xc0]',\xec\xc8\x14\xd7@?\xd7)=\x10+\xc7""","{'xmin': -116.612117, 'ymin': 31.840473, 'xmax': -116.612117, 'ymax': 31.840473}","dining and drinking > restaurant > mexican restaurant > taco restaurant, dining and drinking > restaurant > mexican restaurant, dining and drinking > restaurant > seafood restaurant",1
51cf6958498ea1f46c42017b,Pescadito 777,31.853417978699273,-116.59403030512235,,,,,,,,MX,2013-06-29,2021-08-16,,,,,,,,['4bf58dd8d48988d151941735'],['Dining and Drinking > Restaurant > Mexican Restaurant > Taco Restaurant'],b'\x00\x00\x00\x00\x01\xc0]&\x04\x97\xafUV@?\xday\x99\xc4T\xf1',"{'xmin': -116.59403030512235, 'ymin': 31.853417978699273, 'xmax': -116.59403030512235, 'ymax': 31.853417978699273}",dining and drinking > restaurant > mexican restaurant > taco restaurant,1
5082c35be4b0fedebde19fc9,Carreta de Tacos de Borrego,32.657369864488224,-115.45100154502586,Calz. Cuauhtémoc,Mexicali,Baja California,,,,,MX,2012-10-20,2020-11-23,,,,,,,,['4bf58dd8d48988d151941735'],['Dining and Drinking > Restaurant > Mexican Restaurant > Taco Restaurant'],b'\x00\x00\x00\x00\x01\xc0\\\xdc\xdd5\x95\x958@@T$\xb2\x1a\xad+',"{'xmin': -115.45100154502586, 'ymin': 32.657369864488224, 'xmax': -115.45100154502586, 'ymax': 32.657369864488224}",dining and drinking > restaurant > mexican restaurant > taco restaurant,1
514fc26ae4b0ab03117357b0,"Tacos ""El Poblanito""",31.782736,-116.588369,,,,,,,,MX,2013-03-25,2021-08-11,,,,,,,,['4bf58dd8d48988d151941735'],['Dining and Drinking > Restaurant > Mexican Restaurant > Taco Restaurant'],b'\x00\x00\x00\x00\x01\xc0]%\xa7\xd6s>\xbc@?\xc8ab\xf1f\xe0',"{'xmin': -116.588369, 'ymin': 31.782736, 'xmax': -116.588369, 'ymax': 31.782736}",dining and drinking > restaurant > mexican restaurant > taco restaurant,1
53548452498e877a1a6dbb3c,"Tacos  ""El Vale""",20.286706924438477,-100.75447845458984,,,,,,,,MX,2014-04-21,2021-08-15,,,,,,,,['4bf58dd8d48988d151941735'],['Dining and Drinking > Restaurant > Mexican Restaurant > Taco Restaurant'],b'\x00\x00\x00\x00\x01\xc0Y0I`\x00\x00\x00@4Ie\xa0\x00\x00\x00',"{'xmin': -100.75447845458984, 'ymin': 20.286706924438477, 'xmax': -100.75447845458984, 'ymax': 20.286706924438477}",dining and drinking > restaurant > mexican restaurant > taco restaurant,1
50672832e4b08e43cff5aa5c,mis tres reyes,21.880768048833982,-102.27244381017144,,,,,,,,MX,2012-09-29,2021-08-12,,,,,,,,['4bf58dd8d48988d151941735'],['Dining and Drinking > Restaurant > Mexican Restaurant > Taco Restaurant'],b'\x00\x00\x00\x00\x01\xc0Y\x91o\xb8)\xab\xc6@5\xe1z\x03\xcd\x1a\x8b',"{'xmin': -102.27244381017144, 'ymin': 21.880768048833982, 'xmax': -102.27244381017144, 'ymax': 21.880768048833982}",dining and drinking > restaurant > mexican restaurant > taco restaurant,1
5063540ae4b0790574bebcfa,Tacoste,20.681180953979492,-103.43562316894531,,,,,,,,MX,2012-09-26,2021-08-15,,,,,,,,['4bf58dd8d48988d151941735'],['Dining and Drinking > Restaurant > Mexican Restaurant > Taco Restaurant'],b'\x00\x00\x00\x00\x01\xc0Y\xdb\xe1@\x00\x00\x00@4\xaea\xe0\x00\x00\x00',"{'xmin': -103.43562316894531, 'ymin': 20.681180953979492, 'xmax': -103.43562316894531, 'ymax': 20.681180953979492}",dining and drinking > restaurant > mexican restaurant > taco restaurant,1
553bcaee498e32049e595aec,El Güerito,22.15188,-101.012393,Nereo Rodríguez Barragán S/N,San Luis Potosí,San Luis Potosí,,,,,MX,2015-04-25,2020-11-24,,,,,,,,['4bf58dd8d48988d151941735'],['Dining and Drinking > Restaurant > Mexican Restaurant > Taco Restaurant'],b'\x00\x00\x00\x00\x01\xc0Y@\xcb\x0c\x02l\xc2@6&\xe1\x9b\x90\xea\x9e',"{'xmin': -101.012393, 'ymin': 22.15188, 'xmax': -101.012393, 'ymax': 22.15188}",dining and drinking > restaurant > mexican restaurant > taco restaurant,1
533664ff498eabe74ffc672b,Tacos El Mane,20.63985356398828,-100.98907666409136,,,,,,,,MX,2014-03-29,2021-08-13,,,,,,,,['4bf58dd8d48988d151941735'],['Dining and Drinking > Restaurant > Mexican Restaurant > Taco Restaurant'],b'\x00\x00\x00\x00\x01\xc0Y?M\x085`\x96@4\xa3\xcdqs\x8f\x07',"{'xmin': -100.98907666409136, 'ymin': 20.63985356398828, 'xmax': -100.98907666409136, 'ymax': 20.63985356398828}",dining and drinking > restaurant > mexican restaurant > taco restaurant,1
569d3eef498eb005ff69a248,Gorditas y sopes Luci,20.670372,-100.747814,,,,,,,,MX,2016-01-18,2021-08-17,,,,,,,,['4bf58dd8d48988d151941735'],['Dining and Drinking > Restaurant > Mexican Restaurant > Taco Restaurant'],"b""\x00\x00\x00\x00\x01\xc0Y/\xdc/@_l@4\xab\x9d\x7f\xd8't""","{'xmin': -100.747814, 'ymin': 20.670372, 'xmax': -100.747814, 'ymax': 20.670372}",dining and drinking > restaurant > mexican restaurant > taco restaurant,1
526d4e5711d2c25258bd783f,Quekas Benny,20.717492882620473,-101.36954359872647,,,,,,,,MX,2013-10-27,2021-08-10,,,,,,,,['4bf58dd8d48988d151941735'],['Dining and Drinking > Restaurant > Mexican Restaurant > Taco Restaurant'],b'\x00\x00\x00\x00\x01\xc0YW\xa6\x9a1\xbe|@4\xb7\xad\x9d\x11\xf7\xbb',"{'xmin': -101.36954359872647, 'ymin': 20.717492882620473, 'xmax': -101.36954359872647, 'ymax': 20.717492882620473}",dining and drinking > restaurant > mexican restaurant > taco restaurant,1
55a130f3498e873de73969d9,Tacos Del Güero Bautista,19.242359836396396,-103.69840574319802,,,,,,,,MX,2015-07-11,2021-08-14,,,,,,,,['4bf58dd8d48988d151941735'],['Dining and Drinking > Restaurant > Mexican Restaurant > Taco Restaurant'],b'\x00\x00\x00\x00\x01\xc0Y\xec\xb2\xae\x00\x97\xf1@3>\x0bKS/\xba',"{'xmin': -103.69840574319802, 'ymin': 19.242359836396396, 'xmax': -103.69840574319802, 'ymax': 19.242359836396396}",dining and drinking > restaurant > mexican restaurant > taco restaurant,1
5b079cf0c9a517002cce7c22,Tacos Que Vasooo?,20.650599,-103.432364,Av. Copernico,Zapopan,JAL,45057,,,,MX,2018-05-25,2020-11-21,,,,,,,,['4bf58dd8d48988d151941735'],['Dining and Drinking > Restaurant > Mexican Restaurant > Taco Restaurant'],b'\x00\x00\x00\x00\x01\xc0Y\xdb\xab\xda\r\xfd\xf0@4\xa6\x8d\xa7\xf3\xcfp',"{'xmin': -103.432364, 'ymin': 20.650599, 'xmax': -103.432364, 'ymax': 20.650599}",dining and drinking > restaurant > mexican restaurant > taco restaurant,1
52f5b6f911d2a159a5d3e208,Tacos Maestro,20.593938158604672,-103.4131462282247,,,,,,,,MX,2014-02-08,2021-08-11,,,,,,,,['4bf58dd8d48988d151941735'],['Dining and Drinking > Restaurant > Mexican Restaurant > Taco Restaurant'],b'\x00\x00\x00\x00\x01\xc0Y\xdap\xfc\xe0\xac7@4\x98\x0cT\xc7\r\xb4',"{'xmin': -103.4131462282247, 'ymin': 20.593938158604672, 'xmax': -103.4131462282247, 'ymax': 20.593938158604672}",dining and drinking > restaurant > mexican restaurant > taco restaurant,1
53587eb7498ee0732e57f018,los cuñados,21.85498952957955,-102.28268359229774,,,,,,,,MX,2014-04-24,2023-12-21,,449 917 0464,,,,,,['4bf58dd8d48988d151941735'],['Dining and Drinking > Restaurant > Mexican Restaurant > Taco Restaurant'],b'\x00\x00\x00\x00\x01\xc0Y\x92\x17|\xec\x027@5\xda\xe0\x98\x03\xf7s',"{'xmin': -102.28268359229774, 'ymin': 21.85498952957955, 'xmax': -102.28268359229774, 'ymax': 21.85498952957955}",dining and drinking > restaurant > mexican restaurant > taco restaurant,1
5bc3f7cde96d0c002c2d2aa5,Don Chava,20.603586,-105.23524,,Puerto Vallarta,Jalisco,48380,,,,MX,2018-10-15,2023-09-12,,,,,,,,['4bf58dd8d48988d151941735'],['Dining and Drinking > Restaurant > Mexican Restaurant > Taco Restaurant'],"b'\x00\x00\x00\x00\x01\xc0ZO\x0e,\x12\xad\x82@4\x9a\x84\x9c\xb2R\xce'","{'xmin': -105.23524, 'ymin': 20.603586, 'xmax': -105.23524, 'ymax': 20.603586}",dining and drinking > restaurant > mexican restaurant > taco restaurant,1
4ce0bd6ff8cdb1f7cf199912,Tacos Los Braceros,20.51992,-100.82072,Boulevard Adolfo Lopez Mateos #712 pte,Celaya,Guanajuato,,,,,MX,2010-11-15,2020-11-23,,,,,,,,['4bf58dd8d48988d151941735'],['Dining and Drinking > Restaurant > Mexican Restaurant > Taco Restaurant'],b'\x00\x00\x00\x00\x01\xc0Y4\x86\xad-\xcb\x14@4\x85\x19z$\x89L',"{'xmin': -100.82072, 'ymin': 20.51992, 'xmax': -100.82072, 'ymax': 20.51992}",dining and drinking > restaurant > mexican restaurant > taco restaurant,1
4ccf786c7b68548190fbbbf8,Taqueria La Michoacana,20.639715191726605,-103.29975654082916,,Tlaquepaque,Jalisco,,,,,MX,2010-11-02,2020-11-24,,,,,,,,['4bf58dd8d48988d151941735'],['Dining and Drinking > Restaurant > Mexican Restaurant > Taco Restaurant'],b'\x00\x00\x00\x00\x01\xc0Y\xd3/6\x0e\xe7\xe5@4\xa3\xc4_\xf38[',"{'xmin': -103.29975654082916, 'ymin': 20.639715191726605, 'xmax': -103.29975654082916, 'ymax': 20.639715191726605}",dining and drinking > restaurant > mexican restaurant > taco restaurant,1
57f2f66ccd100a385171bb7a,Tacos El Güero,20.944609,-101.420691,,,,,,,,MX,2016-10-04,2021-08-13,,,,,,,,['4bf58dd8d48988d151941735'],['Dining and Drinking > Restaurant > Mexican Restaurant > Taco Restaurant'],b'\x00\x00\x00\x00\x01\xc0YZ\xec\x99\xf1\xae.@4\xf1\xd1\xe5:\x81\xdc',"{'xmin': -101.420691, 'ymin': 20.944609, 'xmax': -101.420691, 'ymax': 20.944609}",dining and drinking > restaurant > mexican restaurant > taco restaurant,1
52908276498eba71db57b7b2,la combi asesina,20.63307431845569,-103.32075952366056,,,,,,,,MX,2013-11-23,2021-08-11,,,,,,,,['4bf58dd8d48988d151941735'],['Dining and Drinking > Restaurant > Mexican Restaurant > Taco Restaurant'],b'\x00\x00\x00\x00\x01\xc0Y\xd4\x87R\xf4\x00+@4\xa2\x11(\x95\xb4f',"{'xmin': -103.32075952366056, 'ymin': 20.63307431845569, 'xmax': -103.32075952366056, 'ymax': 20.63307431845569}",dining and drinking > restaurant > mexican restaurant > taco restaurant,1
4fc98c2ee4b0f61240bf862b,Tacos La Zorra,19.38663,-103.572014,,,,,,,,MX,2012-06-02,2021-08-11,,,,,,,,['4bf58dd8d48988d151941735'],['Dining and Drinking > Restaurant > Mexican Restaurant > Taco Restaurant'],b'\x00\x00\x00\x00\x01\xc0Y\xe4\x9b\xe0\x9b\xb6\xaa@3b\xfa/\x05\xa7\t',"{'xmin': -103.572014, 'ymin': 19.38663, 'xmax': -103.572014, 'ymax': 19.38663}",dining and drinking > restaurant > mexican restaurant > taco restaurant,1
584cc61d58c4d16a466311d4,Tacos de Cabeza Vigil,20.035252,-100.725855,,,,,,,,MX,2016-12-11,2021-08-14,,,,,,,,['4bf58dd8d48988d151941735'],['Dining and Drinking > Restaurant > Mexican Restaurant > Taco Restaurant'],b'\x00\x00\x00\x00\x01\xc0Y.th\x87\xa8\xd6@4\t\x06Fk\x1e\\',"{'xmin': -100.725855, 'ymin': 20.035252, 'xmax': -100.725855, 'ymax': 20.035252}",dining and drinking > restaurant > mexican restaurant > taco restaurant,1
5814ef14d67ca50385b045a0,"Carnitas Contreras ""Del WAICHO""",21.513152,-104.892672,Mercado Juan Escutia Local 25,Tepic,Nayarit,63000,,,,MX,2016-10-29,2020-11-22,,,,,,,,['4bf58dd8d48988d151941735'],['Dining and Drinking > Restaurant > Mexican Restaurant > Taco Restaurant'],b'\x00\x00\x00\x00\x01\xc0Z9!\x89\xbd\x83\x84@5\x83]\xed\xf1\xe0\x83',"{'xmin': -104.892672, 'ymin': 21.513152, 'xmax': -104.892672, 'ymax': 21.513152}",dining and drinking > restaurant > mexican restaurant > taco restaurant,1
57859620498ecea841383d19,Taconice,20.585264,-101.201361,Av. Veracruz 328,Salamanca,Guanajuato,36730,,,,MX,2016-07-13,2020-11-24,,464 121 9421,,,358179377894872.0,,,['52e81612bcbc57f1066b79f4' '4bf58dd8d48988d151941735'],"['Dining and Drinking > Restaurant > Buffet'
 'Dining and Drinking > Restaurant > Mexican Restaurant > Taco Restaurant']","b""\x00\x00\x00\x00\x01\xc0YL\xe3\x19?l'@4\x95\xd3\xdc\x8b\x86\xb1""","{'xmin': -101.201361, 'ymin': 20.585264, 'xmax': -101.201361, 'ymax': 20.585264}","dining and drinking > restaurant > buffet, dining and drinking > restaurant > mexican restaurant > taco restaurant",1
59966a6c18d43b6d09b375af,Taquería El Chubasco,19.249472,-103.718735,,Colima,Colima,28010,,,,MX,2017-08-18,2020-11-25,,,,,,,,['4bf58dd8d48988d151941735'],['Dining and Drinking > Restaurant > Mexican Restaurant > Taco Restaurant'],b'\x00\x00\x00\x00\x01\xc0Y\xed\xff\xc1\x15\xdfe@3?\xdde\xa1D\x89',"{'xmin': -103.718735, 'ymin': 19.249472, 'xmax': -103.718735, 'ymax': 19.249472}",dining and drinking > restaurant > mexican restaurant > taco restaurant,1
56d9092f498e9bfed2ec7d16,"""El Sazón De Mi Viejo"" Y Leo",19.685268,-101.2189,,,,,,,,MX,2016-03-04,2021-08-13,,,,,,,,['4bf58dd8d48988d151941735'],['Dining and Drinking > Restaurant > Mexican Restaurant > Taco Restaurant'],b'\x00\x00\x00\x00\x01\xc0YN\x02u%F\x0b@3\xafm\xb9@\xfe\xce',"{'xmin': -101.2189, 'ymin': 19.685268, 'xmax': -101.2189, 'ymax': 19.685268}",dining and drinking > restaurant > mexican restaurant > taco restaurant,1
51b92e8d498ed8bf04f28670,Taquería El Güero,20.637303318027268,-103.3249379826086,Río Juárez #1522,,,,,,,MX,2013-06-13,2021-08-17,,,,,,,,['4bf58dd8d48988d151941735'],['Dining and Drinking > Restaurant > Mexican Restaurant > Taco Restaurant'],"b'\x00\x00\x00\x00\x01\xc0Y\xd4\xcb\xc8\xae""\x0f@4\xa3&Ol\x8f5'","{'xmin': -103.3249379826086, 'ymin': 20.637303318027268, 'xmax': -103.3249379826086, 'ymax': 20.637303318027268}",dining and drinking > restaurant > mexican restaurant > taco restaurant,1
52b878e111d2ab7e2aa9d12d,"Tacos De Cecina, Tianguis De Los Lunes",20.517505291869202,-100.81205711263443,,,,,,,,MX,2013-12-23,2021-08-13,,,,,,,,['4bf58dd8d48988d151941735'],['Dining and Drinking > Restaurant > Mexican Restaurant > Taco Restaurant'],b'\x00\x00\x00\x00\x01\xc0Y3\xf8\xbeeO\xf1@4\x84{:\x10\x15\xcd',"{'xmin': -100.81205711263443, 'ymin': 20.517505291869202, 'xmax': -100.81205711263443, 'ymax': 20.517505291869202}",dining and drinking > restaurant > mexican restaurant > taco restaurant,1
50ec7913e4b0beb130d57cd4,Carnitas Periferico,20.704223827100563,-103.44750507849454,,,,,,,,MX,2013-01-08,2021-08-15,,,,,,,,['4bf58dd8d48988d151941735'],['Dining and Drinking > Restaurant > Mexican Restaurant > Taco Restaurant'],b'\x00\x00\x00\x00\x01\xc0Y\xdc\xa3\xecW;d@4\xb4H\x03Bu\xfc',"{'xmin': -103.44750507849454, 'ymin': 20.704223827100563, 'xmax': -103.44750507849454, 'ymax': 20.704223827100563}",dining and drinking > restaurant > mexican restaurant > taco restaurant,1
4f10f96ce4b0958ec0bd7d50,Tacos Mc Taco,20.690040084329265,-103.36885113788502,,,,,,,,MX,2012-01-14,2021-08-17,,,,,,,,['4bf58dd8d48988d151941735'],['Dining and Drinking > Restaurant > Mexican Restaurant > Taco Restaurant'],b'\x00\x00\x00\x00\x01\xc0Y\xd7\x9bA\xcd\x93\xbf@4\xb0\xa6w\x8b\x1f\x8f',"{'xmin': -103.36885113788502, 'ymin': 20.690040084329265, 'xmax': -103.36885113788502, 'ymax': 20.690040084329265}",dining and drinking > restaurant > mexican restaurant > taco restaurant,1
5120494ce4b0e64a39ed8247,Tacos Mazamitla,20.61929026734768,-103.41850149514838,,,,,,,,MX,2013-02-17,2021-08-13,,,,,,,,['4bf58dd8d48988d151941735'],['Dining and Drinking > Restaurant > Mexican Restaurant > Taco Restaurant'],b'\x00\x00\x00\x00\x01\xc0Y\xda\xc8\xba~\xbfR@4\x9e\x89\xce\x94\xfdH',"{'xmin': -103.41850149514838, 'ymin': 20.61929026734768, 'xmax': -103.41850149514838, 'ymax': 20.61929026734768}",dining and drinking > restaurant > mexican restaurant > taco restaurant,1
5b4aa5fcb8fd9d002c26ab4b,Tacos Alxs,21.156176,-100.93221,,Dolores Hidalgo Cuna de la Independencia Nacional,GTO,37800,,,,MX,2018-07-15,2020-11-24,,,,,,,,['4bf58dd8d48988d151941735'],['Dining and Drinking > Restaurant > Mexican Restaurant > Taco Restaurant'],"b""\x00\x00\x00\x00\x01\xc0Y;\xa9T!\xc0D@5'\xfb&|k\x8b""","{'xmin': -100.93221, 'ymin': 21.156176, 'xmax': -100.93221, 'ymax': 21.156176}",dining and drinking > restaurant > mexican restaurant > taco restaurant,1
505e81f7e4b0fd143ca3bfe0,Tacos Güero,21.100408088873156,-101.70146156563686,Colibri S/N,,,,,,,MX,2012-09-23,2021-08-17,,,,,,,,['4bf58dd8d48988d151941735'],['Dining and Drinking > Restaurant > Mexican Restaurant > Taco Restaurant'],b'\x00\x00\x00\x00\x01\xc0Yl\xe4\xbf\x0c\xf3\xec@5\x19\xb4X1\xf6\xcd',"{'xmin': -101.70146156563686, 'ymin': 21.100408088873156, 'xmax': -101.70146156563686, 'ymax': 21.100408088873156}",dining and drinking > restaurant > mexican restaurant > taco restaurant,1
5019d95be4b06b15b323469d,Tacos El Cuñado,20.66202799535568,-103.22830496801912,,,,,,,,MX,2012-08-02,2021-08-14,,,,,,,,['4bf58dd8d48988d151941735'],['Dining and Drinking > Restaurant > Mexican Restaurant > Taco Restaurant'],b'\x00\x00\x00\x00\x01\xc0Y\xce\x9c\x8cp\xca\x03@4\xa9z\xaa\xad\x16\xce',"{'xmin': -103.22830496801912, 'ymin': 20.66202799535568, 'xmax': -103.22830496801912, 'ymax': 20.66202799535568}",dining and drinking > restaurant > mexican restaurant > taco restaurant,1
4fa3d874e4b0ac15ce7eeaee,Tacos Luis,20.670005,-103.222443,Camino A Matatlan,,,,,,,MX,2012-05-04,2021-08-17,,,,,,,,['4bf58dd8d48988d151941735'],['Dining and Drinking > Restaurant > Mexican Restaurant > Taco Restaurant'],b'\x00\x00\x00\x00\x01\xc0Y\xce<\x81\x90\x8eX@4\xab\x85r\x9b(\x0f',"{'xmin': -103.222443, 'ymin': 20.670005, 'xmax': -103.222443, 'ymax': 20.670005}",dining and drinking > restaurant > mexican restaurant > taco restaurant,1
51886bc4498e26e792fbe786,Tacos Angus,21.15954121668357,-101.68345579738542,,,,,,,,MX,2013-05-07,2021-08-11,,,,,,,,['4bf58dd8d48988d151941735'],['Dining and Drinking > Restaurant > Mexican Restaurant > Taco Restaurant'],b'\x00\x00\x00\x00\x01\xc0Yk\xbd\xbdb\x82\x0c@5(\xd7\xb1t\x05\x1e',"{'xmin': -101.68345579738542, 'ymin': 21.15954121668357, 'xmax': -101.68345579738542, 'ymax': 21.15954121668357}",dining and drinking > restaurant > mexican restaurant > taco restaurant,1
522e25df11d25d87b71e99b9,Thortaz Lu,20.820017050916864,-102.76460667667779,,,,,,,,MX,2013-09-09,2021-08-16,,,,,,,,['4bf58dd8d48988d151941735'],['Dining and Drinking > Restaurant > Mexican Restaurant > Taco Restaurant'],b'\x00\x00\x00\x00\x01\xc0Y\xb0\xefP\xd7\xa8\x99@4\xd1\xec\xa3/\xd9\xad',"{'xmin': -102.76460667667779, 'ymin': 20.820017050916864, 'xmax': -102.76460667667779, 'ymax': 20.820017050916864}",dining and drinking > restaurant > mexican restaurant > taco restaurant,1
4ff49a0fe4b003534af27c20,Naty's Cocina,20.869403894287764,-105.44112118292523,Calle Marlin,Sayulita,Nayarit,,,,,MX,2012-07-04,2020-11-30,,,,,,,,['4bf58dd8d48988d151941735'],['Dining and Drinking > Restaurant > Mexican Restaurant > Taco Restaurant'],"b'\x00\x00\x00\x00\x01\xc0Z\\;TW\x8f&@4\xde\x91@\xec\xfb""'","{'xmin': -105.44112118292523, 'ymin': 20.869403894287764, 'xmax': -105.44112118292523, 'ymax': 20.869403894287764}",dining and drinking > restaurant > mexican restaurant > taco restaurant,1
4e514fb718383eb2af3bc1d2,Tacos Beto,20.515228896785683,-100.80350622826371,,,,,,,,MX,2011-08-21,2021-08-12,,,,,,,,['4bf58dd8d48988d151941735'],['Dining and Drinking > Restaurant > Mexican Restaurant > Taco Restaurant'],b'\x00\x00\x00\x00\x01\xc0Y3l\xa5c!\x99@4\x83\xe6\n}\xa6\x0f',"{'xmin': -100.80350622826371, 'ymin': 20.515228896785683, 'xmax': -100.80350622826371, 'ymax': 20.515228896785683}",dining and drinking > restaurant > mexican restaurant > taco restaurant,1
4e1099d962e1d997a698219c,Quesadillas Juliana,20.658653407347398,-103.33082527611421,,Guadalajara,Jalisco,,,,,MX,2011-07-03,2021-08-17,,,,,,,,['4bf58dd8d48988d151941735'],['Dining and Drinking > Restaurant > Mexican Restaurant > Taco Restaurant'],"b'\x00\x00\x00\x00\x01\xc0Y\xd5,=\xc7fr@4\xa8\x9d\x82{\xf4\xbf'","{'xmin': -103.33082527611421, 'ymin': 20.658653407347398, 'xmax': -103.33082527611421, 'ymax': 20.658653407347398}",dining and drinking > restaurant > mexican restaurant > taco restaurant,1
575de8bb498e32bffc542005,Taqueria La Gran Patrona,20.647533,-103.37799,Calle Reyes Catolicos 1867,,Jalisco,,,,,MX,2016-06-12,2020-11-30,,,,,,,,['4bf58dd8d48988d151941735'],['Dining and Drinking > Restaurant > Mexican Restaurant > Taco Restaurant'],b'\x00\x00\x00\x00\x01\xc0Y\xd80\xfc\xf8\r\xc3@4\xa5\xc4\xb9\x02\x14\xad',"{'xmin': -103.37799, 'ymin': 20.647533, 'xmax': -103.37799, 'ymax': 20.647533}",dining and drinking > restaurant > mexican restaurant > taco restaurant,1
6351c2b02e1b836681e591d9,Tacos El Primo,22.052149,-100.862854,Eje 140 S/N,San Luis Potosí,San Luis Potosí,,,,,MX,2022-10-20,2022-10-20,,,,,,,,['4bf58dd8d48988d151941735'],['Dining and Drinking > Restaurant > Mexican Restaurant > Taco Restaurant'],b'\x00\x00\x00\x00\x01\xc0Y78\xff\xfb\xceB@6\rY\xa3\t\x84\xe4',"{'xmin': -100.862854, 'ymin': 22.052149, 'xmax': -100.862854, 'ymax': 22.052149}",dining and drinking > restaurant > mexican restaurant > taco restaurant,1
542097ea498e5208edf33f23,Mis Cuates Taqueria,20.675932917397965,-103.37274312973022,Morelos 1854-B,Guadalajara,Jalisco,44160,,,,MX,2014-09-22,2021-08-16,,33 1507 7777,,,,,,['4bf58dd8d48988d151941735'],['Dining and Drinking > Restaurant > Mexican Restaurant > Taco Restaurant'],b'\x00\x00\x00\x00\x01\xc0Y\xd7\xdb\x06\x00\x00\x00@4\xad\t\xf0\x8e\x83\x9e',"{'xmin': -103.37274312973022, 'ymin': 20.675932917397965, 'xmax': -103.37274312973022, 'ymax': 20.675932917397965}",dining and drinking > restaurant > mexican restaurant > taco restaurant,1
5dcb4e09e050cd0008b6fb13,El Asadero De Don Chuy,20.788036,-103.443726,,Nuevo México,Jalisco,,,,,MX,2019-11-13,2020-11-23,,,,,,,,['4bf58dd8d48988d151941735'],['Dining and Drinking > Restaurant > Mexican Restaurant > Taco Restaurant'],b'\x00\x00\x00\x00\x01\xc0Y\xdcf\x01\xbc\x98\xa2@4\xc9\xbc\xba0\x12\x17',"{'xmin': -103.443726, 'ymin': 20.788036, 'xmax': -103.443726, 'ymax': 20.788036}",dining and drinking > restaurant > mexican restaurant > taco restaurant,1
51fb1bc2498ef150caddaa00,"Tacos ""Aristeo""",21.14003720672451,-101.67519609085507,,,,,,,,MX,2013-08-02,2021-08-16,,,,,,,,['4bf58dd8d48988d151941735'],['Dining and Drinking > Restaurant > Mexican Restaurant > Taco Restaurant'],"b""\x00\x00\x00\x00\x01\xc0Yk6i\xaa'\x03@5#\xd9zw\x1a\xdf""","{'xmin': -101.67519609085507, 'ymin': 21.14003720672451, 'xmax': -101.67519609085507, 'ymax': 21.14003720672451}",dining and drinking > restaurant > mexican restaurant > taco restaurant,1
6369bbbb8f83e77ab9fd7f4b,La Picaña,20.640331,-103.31261,,San Pedro Tlaquepaque,JAL,45500,,,,MX,2022-11-08,2022-11-08,,,,,,,,['4bf58dd8d48988d107941735' '4bf58dd8d48988d151941735'],"['Dining and Drinking > Restaurant > Latin American Restaurant > South American Restaurant > Argentinian Restaurant'
 'Dining and Drinking > Restaurant > Mexican Restaurant > Taco Restaurant']",b'\x00\x00\x00\x00\x01\xc0Y\xd4\x01\xcd_\x99\xc4@4\xa3\xec\xbb\x7f\x9do',"{'xmin': -103.31261, 'ymin': 20.640331, 'xmax': -103.31261, 'ymax': 20.640331}","dining and drinking > restaurant > latin american restaurant > south american restaurant > argentinian restaurant, dining and drinking > restaurant > mexican restaurant > taco restaurant",1
4ce410210eec8cfadcf6a12a,Tacos de Canasta Doña Chelo,22.145564,-101.016522,Doctor Manuel Nava 125,San Luis Potosí,San Luis Potosí,,,,,MX,2010-11-17,2020-11-24,,,,,,,,['4bf58dd8d48988d151941735'],['Dining and Drinking > Restaurant > Mexican Restaurant > Taco Restaurant'],b'\x00\x00\x00\x00\x01\xc0YA\x0e\xb2Jj\x87@6%C\xae\xaby\x96',"{'xmin': -101.016522, 'ymin': 22.145564, 'xmax': -101.016522, 'ymax': 22.145564}",dining and drinking > restaurant > mexican restaurant > taco restaurant,1
4ca6401e44a8224b097e0140,Porky's,20.636525222964124,-103.42796689788399,Tomás Balcázar 5466,Zapopan,Jalisco,,,,,MX,2010-10-01,2020-11-30,,,,,,,,['4bf58dd8d48988d151941735'],['Dining and Drinking > Restaurant > Mexican Restaurant > Taco Restaurant'],"b""\x00\x00\x00\x00\x01\xc0Y\xdbc\xcfE\x8b\xab@4\xa2\xf3Q'\xb5\xc4""","{'xmin': -103.42796689788399, 'ymin': 20.636525222964124, 'xmax': -103.42796689788399, 'ymax': 20.636525222964124}",dining and drinking > restaurant > mexican restaurant > taco restaurant,1
5b63c4dce97dfb002ca3dc47,Tacos El 39,21.874165,-102.31866,,Aguascalientes,Aguascalientes,20089,,,,MX,2018-08-03,2020-11-22,,,,,,,,['4bf58dd8d48988d151941735'],['Dining and Drinking > Restaurant > Mexican Restaurant > Taco Restaurant'],b'\x00\x00\x00\x00\x01\xc0Y\x94d\xec\xe9\xa2\xc6@5\xdf\xc9G\x06N\xcf',"{'xmin': -102.31866, 'ymin': 21.874165, 'xmax': -102.31866, 'ymax': 21.874165}",dining and drinking > restaurant > mexican restaurant > taco restaurant,1
5104947ce4b0078461d39e26,Asadero Angus,20.727179060592913,-103.56161083164363,Carretera a Nogales 190,Jalisco,,,,,,MX,2013-01-27,2020-11-25,,,,,,,,['4bf58dd8d48988d151941735' '4bf58dd8d48988d1cc941735'],"['Dining and Drinking > Restaurant > Mexican Restaurant > Taco Restaurant'
 'Dining and Drinking > Restaurant > Steakhouse']",b'\x00\x00\x00\x00\x01\xc0Y\xe3\xf1n\x8e\xbfH@4\xba(h+\x95#',"{'xmin': -103.56161083164363, 'ymin': 20.727179060592913, 'xmax': -103.56161083164363, 'ymax': 20.727179060592913}","dining and drinking > restaurant > mexican restaurant > taco restaurant, dining and drinking > restaurant > steakhouse",1
5bdf7075c0af57002cbc4af3,Ta'costeño,20.87016,-105.44128,,Sayulita,Nayarit,63734,,,,MX,2018-11-04,2023-12-19,,329 688 1402,,,,,,['4bf58dd8d48988d151941735'],['Dining and Drinking > Restaurant > Mexican Restaurant > Taco Restaurant'],b'\x00\x00\x00\x00\x01\xc0Z\\=\xeex\x18@@4\xde\xc2\xceFI\x90',"{'xmin': -105.44128, 'ymin': 20.87016, 'xmax': -105.44128, 'ymax': 20.87016}",dining and drinking > restaurant > mexican restaurant > taco restaurant,1
5384bc28498ec385969bf3b2,tacos de barbacoa el tío,20.684038162231445,-103.34746551513672,Juan Alvarez,Guadalajara,jalisco,,,,,MX,2014-05-27,2021-08-14,,,,,,,,['4bf58dd8d48988d151941735'],['Dining and Drinking > Restaurant > Mexican Restaurant > Taco Restaurant'],b'\x00\x00\x00\x00\x01\xc0Y\xd6<\xe0\x00\x00\x00@4\xaf\x1d \x00\x00\x00',"{'xmin': -103.34746551513672, 'ymin': 20.684038162231445, 'xmax': -103.34746551513672, 'ymax': 20.684038162231445}",dining and drinking > restaurant > mexican restaurant > taco restaurant,1
59c5becc6661165811f95982,Tacos De Tripitas,22.128702,-100.9414,,San Luis Potosí,San Luis Potosí,,,,,MX,2017-09-23,2020-11-22,,,,,,,,['4bf58dd8d48988d151941735'],['Dining and Drinking > Restaurant > Mexican Restaurant > Taco Restaurant'],b'\x00\x00\x00\x00\x01\xc0Y<?\xe5\xc9\x1d\x15@6 \xf2\x9d@\xee\x07',"{'xmin': -100.9414, 'ymin': 22.128702, 'xmax': -100.9414, 'ymax': 22.128702}",dining and drinking > restaurant > mexican restaurant > taco restaurant,1
4f524785e4b092980da9066e,tacos el carnal,20.660825809366507,-103.29006533534273,,,,,,,,MX,2012-03-03,2021-08-12,,,,,,,,['4bf58dd8d48988d151941735'],['Dining and Drinking > Restaurant > Mexican Restaurant > Taco Restaurant'],b'\x00\x00\x00\x00\x01\xc0Y\xd2\x90n2@\x05@4\xa9+\xe1W\x94\xf6',"{'xmin': -103.29006533534273, 'ymin': 20.660825809366507, 'xmax': -103.29006533534273, 'ymax': 20.660825809366507}",dining and drinking > restaurant > mexican restaurant > taco restaurant,1
4d818b562fb7370462b37a11,El Rey Del Taco 1,19.247517,-103.714551,,,,,,,,MX,2011-03-17,2021-08-15,,,,,,,,['4bf58dd8d48988d151941735'],['Dining and Drinking > Restaurant > Mexican Restaurant > Taco Restaurant'],"b'\x00\x00\x00\x00\x01\xc0Y\xed\xbb4\x1e\x14\xbe@3?]F,4;'","{'xmin': -103.714551, 'ymin': 19.247517, 'xmax': -103.714551, 'ymax': 19.247517}",dining and drinking > restaurant > mexican restaurant > taco restaurant,1
4d743da094985481e1b7277e,Tacos de Tripas Héctor,21.879085571189663,-102.30428150498251,Manuel M Ponce,Aguascalientes,AGS,,,,,MX,2011-03-07,2020-11-23,,,,,,,,['4bf58dd8d48988d151941735'],['Dining and Drinking > Restaurant > Mexican Restaurant > Taco Restaurant'],"b'\x00\x00\x00\x00\x01\xc0Y\x93yY""+]@5\xe1\x0b\xc0\x82\xa5$'","{'xmin': -102.30428150498251, 'ymin': 21.879085571189663, 'xmax': -102.30428150498251, 'ymax': 21.879085571189663}",dining and drinking > restaurant > mexican restaurant > taco restaurant,1
51964110498efab69495e021,Tacos Koala,19.0742,-104.2825,,Manzanillo,Colima,,,,,MX,2013-05-17,2020-11-24,,,,,,,,['4bf58dd8d48988d151941735'],['Dining and Drinking > Restaurant > Mexican Restaurant > Taco Restaurant'],b'\x00\x00\x00\x00\x01\xc0Z\x12\x14z\xe1G\xae@3\x12\xfe\xc5m\\\xfb',"{'xmin': -104.2825, 'ymin': 19.0742, 'xmax': -104.2825, 'ymax': 19.0742}",dining and drinking > restaurant > mexican restaurant > taco restaurant,1
6396bd6ffa717512f2b52fc4,Tacos El Pepino,21.984644,-103.59446,,Villa Guerrero,Jalisco,46100,,,,MX,2022-12-12,2022-12-12,,,,,,,,['4bf58dd8d48988d151941735'],['Dining and Drinking > Restaurant > Mexican Restaurant > Taco Restaurant'],b'\x00\x00\x00\x00\x01\xc0Y\xe6\x0b\xa1\xf4\xb1\xee@5\xfc\x11\xa1\x123\xdf',"{'xmin': -103.59446, 'ymin': 21.984644, 'xmax': -103.59446, 'ymax': 21.984644}",dining and drinking > restaurant > mexican restaurant > taco restaurant,1
555fe677498e52484480f714,tacuñados encarbonados,20.640508,-103.416686,,,,,,,,MX,2015-05-23,2021-08-16,,,,,,,,['4bf58dd8d48988d151941735'],['Dining and Drinking > Restaurant > Mexican Restaurant > Taco Restaurant'],b'\x00\x00\x00\x00\x01\xc0Y\xda\xaa\xfb\xc1\xac\xde@4\xa3\xf8U\x10\xd3\x8d',"{'xmin': -103.416686, 'ymin': 20.640508, 'xmax': -103.416686, 'ymax': 20.640508}",dining and drinking > restaurant > mexican restaurant > taco restaurant,1
4dd147c8d164679b8d42d611,Tacos de canasta el hidrocalido,22.14659669022733,-101.00191721992391,18 de marzo,San Luis Potosí,San Luis Potosí,,,,,MX,2011-05-16,2020-11-23,,,,,,,,['4bf58dd8d48988d151941735'],['Dining and Drinking > Restaurant > Mexican Restaurant > Taco Restaurant'],b'\x00\x00\x00\x00\x01\xc0Y@\x1fig7\xd6@6%\x87\\V:m',"{'xmin': -101.00191721992391, 'ymin': 22.14659669022733, 'xmax': -101.00191721992391, 'ymax': 22.14659669022733}",dining and drinking > restaurant > mexican restaurant > taco restaurant,1
5158fd63e4b09dec184b85da,Taqueria El Patron,20.64717704731857,-105.24100816296998,,,,,,,,MX,2013-04-01,2021-08-15,,,,,,,,['4bf58dd8d48988d151941735'],['Dining and Drinking > Restaurant > Mexican Restaurant > Taco Restaurant'],b'\x00\x00\x00\x00\x01\xc0ZOl\xad\x80\x81\x9b@4\xa5\xade\x1c\xf4\x82',"{'xmin': -105.24100816296998, 'ymin': 20.64717704731857, 'xmax': -105.24100816296998, 'ymax': 20.64717704731857}",dining and drinking > restaurant > mexican restaurant > taco restaurant,1
57240df7498ef3de5abd77d5,Tacos Los Viejones,20.759869,-103.3896,,,,,,,,MX,2016-04-30,2021-08-14,,,,,,,,['4bf58dd8d48988d151941735'],['Dining and Drinking > Restaurant > Mexican Restaurant > Taco Restaurant'],b'\x00\x00\x00\x00\x01\xc0Y\xd8\xef4\xd6\xa1b@4\xc2\x86\xc6X>\x85',"{'xmin': -103.3896, 'ymin': 20.759869, 'xmax': -103.3896, 'ymax': 20.759869}",dining and drinking > restaurant > mexican restaurant > taco restaurant,1
59c5b1acb3c9613aaed7feb0,Asaduria Carbón Y Leña,21.070122,-101.5615,Blvd Heroes De La Independencia,León,GTO,36240,,,,MX,2017-09-23,2020-11-20,,,,,,,,['4bf58dd8d48988d151941735'],['Dining and Drinking > Restaurant > Mexican Restaurant > Taco Restaurant'],b'\x00\x00\x00\x00\x01\xc0Yc\xef\x9d\xb2-\x0e@5\x11\xf3\x83\xf0\xba\xe9',"{'xmin': -101.5615, 'ymin': 21.070122, 'xmax': -101.5615, 'ymax': 21.070122}",dining and drinking > restaurant > mexican restaurant > taco restaurant,1
5ba6ffba3af988003914044f,Tacos El Andariego,20.684696,-103.392248,Manuel Acuña #3056,Guadalajara,JAL,44680,,,,MX,2018-09-23,2021-08-12,,,,,,,,['4bf58dd8d48988d151941735'],['Dining and Drinking > Restaurant > Mexican Restaurant > Taco Restaurant'],b'\x00\x00\x00\x00\x01\xc0Y\xd9\x1a\x97Z\xfa\xf8@4\xafH<\xaf\xb3\xb7',"{'xmin': -103.392248, 'ymin': 20.684696, 'xmax': -103.392248, 'ymax': 20.684696}",dining and drinking > restaurant > mexican restaurant > taco restaurant,1
4ca6ae2db7106dcbd4dd60a5,Taqueria Los Güeros,21.931277366072653,-102.28304005336871,Av Constitución 1117,Aguascalientes,AGS,20126,,,,MX,2010-10-02,2020-11-25,,,,,,,,['4bf58dd8d48988d151941735'],['Dining and Drinking > Restaurant > Mexican Restaurant > Taco Restaurant'],b'\x00\x00\x00\x00\x01\xc0Y\x92\x1dT\x07+O@5\xeeh1\x86\xc9}',"{'xmin': -102.28304005336871, 'ymin': 21.931277366072653, 'xmax': -102.28304005336871, 'ymax': 21.931277366072653}",dining and drinking > restaurant > mexican restaurant > taco restaurant,1
5311118311d2fdcdf80079a5,D'angellos,20.677804324146173,-103.43414053632858,Tchaikovski,,,,,,,MX,2014-02-28,2021-08-15,,,,,,,,['4bf58dd8d48988d151941735'],['Dining and Drinking > Restaurant > Mexican Restaurant > Taco Restaurant'],b'\x00\x00\x00\x00\x01\xc0Y\xdb\xc8\xf5cY\x8c@4\xad\x84\x95\x8dK\x92',"{'xmin': -103.43414053632858, 'ymin': 20.677804324146173, 'xmax': -103.43414053632858, 'ymax': 20.677804324146173}",dining and drinking > restaurant > mexican restaurant > taco restaurant,1
541e4b07498e7ac7041c604f,Tacos Jaripeo,31.33404892693223,-113.52060758330103,,,,,,,,MX,2014-09-21,2021-08-15,,,,,,,,['4bf58dd8d48988d151941735'],['Dining and Drinking > Restaurant > Mexican Restaurant > Taco Restaurant'],b'\x00\x00\x00\x00\x01\xc0\\aQ\xa2x\x14\xf6@?U\x84;\x00p\x15',"{'xmin': -113.52060758330103, 'ymin': 31.33404892693223, 'xmax': -113.52060758330103, 'ymax': 31.33404892693223}",dining and drinking > restaurant > mexican restaurant > taco restaurant,1
62d49f252e81ab1674fd9fe9,Tacos Tepeyac,20.66277,-103.40281,Calle Tepeyac,Zapopan,Jalisco,45046,,,,MX,2022-07-17,2022-07-17,,,,,,,,['4bf58dd8d48988d151941735'],['Dining and Drinking > Restaurant > Mexican Restaurant > Taco Restaurant'],b'\x00\x00\x00\x00\x01\xc0Y\xd9\xc7\xa3\x98 \x1d@4\xa9\xabKr\xc5\x19',"{'xmin': -103.40281, 'ymin': 20.66277, 'xmax': -103.40281, 'ymax': 20.66277}",dining and drinking > restaurant > mexican restaurant > taco restaurant,1
5676e8df498e13b4d0107810,Tacos de Barbacoa Doña Paty,20.715135,-105.268838,Av México,Jarretaderas,Nayarit,,,,,MX,2015-12-20,2021-08-12,,,,,,,,['4bf58dd8d48988d151941735'],['Dining and Drinking > Restaurant > Mexican Restaurant > Taco Restaurant'],b'\x00\x00\x00\x00\x01\xc0ZQ4\xa4L{\x03@4\xb7\x13\x16]9\x97',"{'xmin': -105.268838, 'ymin': 20.715135, 'xmax': -105.268838, 'ymax': 20.715135}",dining and drinking > restaurant > mexican restaurant > taco restaurant,1
4eb1c815722ead5ebef75590,Tacos El Grillo,20.518251875844435,-100.81668643597527,,,,,,,,MX,2011-11-02,2021-08-11,,,,,,,,['4bf58dd8d48988d151941735'],['Dining and Drinking > Restaurant > Mexican Restaurant > Taco Restaurant'],"b""\x00\x00\x00\x00\x01\xc0Y4D\x97/fp@4\x84\xac'\xa9\xd7\xae""","{'xmin': -100.81668643597527, 'ymin': 20.518251875844435, 'xmax': -100.81668643597527, 'ymax': 20.518251875844435}",dining and drinking > restaurant > mexican restaurant > taco restaurant,1
5625a95d498e96deef0ea5af,Tacos CarCor,20.943284858070303,-101.42919888716233,,,,,,,,MX,2015-10-20,2021-08-13,,,,,,,,['4bf58dd8d48988d151941735'],['Dining and Drinking > Restaurant > Mexican Restaurant > Taco Restaurant'],b'\x00\x00\x00\x00\x01\xc0Y[w\xfe\x9b\xf5\xe0@4\xf1{\x1d\xd09U',"{'xmin': -101.42919888716233, 'ymin': 20.943284858070303, 'xmax': -101.42919888716233, 'ymax': 20.943284858070303}",dining and drinking > restaurant > mexican restaurant > taco restaurant,1
56509b6e498eea88ffa98442,Tacos Sanzio,20.672889,-103.430315,Avenida Rafael Sanzio,Zapopan,Jalisco,45030,,,,MX,2015-11-21,2020-11-23,,,,,,,,['4bf58dd8d48988d151941735'],['Dining and Drinking > Restaurant > Mexican Restaurant > Taco Restaurant'],b'\x00\x00\x00\x00\x01\xc0Y\xdb\x8aG\xec\xfe\x9b@4\xacBt\x18\xd6\x91',"{'xmin': -103.430315, 'ymin': 20.672889, 'xmax': -103.430315, 'ymax': 20.672889}",dining and drinking > restaurant > mexican restaurant > taco restaurant,1
530f5f33498e1386815baa30,Tacos la reta,20.640205230974047,-103.40728334230009,,,,,,,,MX,2014-02-27,2021-08-17,,,,,,,,['4bf58dd8d48988d151941735'],['Dining and Drinking > Restaurant > Mexican Restaurant > Taco Restaurant'],b'\x00\x00\x00\x00\x01\xc0Y\xda\x10\xee&\xd8\x9b@4\xa3\xe4}q\xc2\xfc',"{'xmin': -103.40728334230009, 'ymin': 20.640205230974047, 'xmax': -103.40728334230009, 'ymax': 20.640205230974047}",dining and drinking > restaurant > mexican restaurant > taco restaurant,1
570911ee498e2c6e78d8b827,"Tacos y Carnitas ""El Farolito""",20.657006082400116,-103.36925164873199,Fresno 2012,Guadalajara,Jalisco,44900,,,,MX,2016-04-09,2021-08-15,,,,,,,,['4bf58dd8d48988d151941735'],['Dining and Drinking > Restaurant > Mexican Restaurant > Taco Restaurant'],b'\x00\x00\x00\x00\x01\xc0Y\xd7\xa1\xd1\xaa\xd3\x12@4\xa81\x8c\xf5.|',"{'xmin': -103.36925164873199, 'ymin': 20.657006082400116, 'xmax': -103.36925164873199, 'ymax': 20.657006082400116}",dining and drinking > restaurant > mexican restaurant > taco restaurant,1
5184588a498efc16b86f7e04,Rwedr,21.897428,-102.31287,,,,,,,,MX,2013-05-04,2021-08-13,2013-05-18,,,,,,,['4bf58dd8d48988d151941735'],['Dining and Drinking > Restaurant > Mexican Restaurant > Taco Restaurant'],b'\x00\x00\x00\x00\x01\xc0Y\x94\x06\x0f\xe4y\x92@5\xe5\xbd\xd7f\x83\xc3',"{'xmin': -102.31287, 'ymin': 21.897428, 'xmax': -102.31287, 'ymax': 21.897428}",dining and drinking > restaurant > mexican restaurant > taco restaurant,1
53ec0cc9498e8fb29d6e00f9,Tacos don taco,21.024800422820583,-101.25910722006537,,,,,,,,MX,2014-08-14,2021-08-17,,,,,,,,['4bf58dd8d48988d151941735'],['Dining and Drinking > Restaurant > Mexican Restaurant > Taco Restaurant'],b'\x00\x00\x00\x00\x01\xc0YP\x956s\x15\xa6@5\x06YR\x0c\xf0\xfe',"{'xmin': -101.25910722006537, 'ymin': 21.024800422820583, 'xmax': -101.25910722006537, 'ymax': 21.024800422820583}",dining and drinking > restaurant > mexican restaurant > taco restaurant,1
57f43e30498e1a0be2ca61d9,Tacos El migue,20.526596,-100.7935,Av. paseo del campestre,Celaya,Guanajuato,38088,,,,MX,2016-10-04,2020-11-30,,,,,,,,['4bf58dd8d48988d151941735'],['Dining and Drinking > Restaurant > Mexican Restaurant > Taco Restaurant'],b'\x00\x00\x00\x00\x01\xc0Y2\xc8\xb49X\x10@4\x86\xce\xfe\xd64U',"{'xmin': -100.7935, 'ymin': 20.526596, 'xmax': -100.7935, 'ymax': 20.526596}",dining and drinking > restaurant > mexican restaurant > taco restaurant,1
539baecf498ef219413b5fae,Tacos El Tripaloca,20.622165,-103.06323,Constitución 10,Zapotlanejo,JAL,45430,,,,MX,2014-06-14,2020-11-23,,,,,,,,['4bf58dd8d48988d151941735' '4bf58dd8d48988d1cb941735'],"['Dining and Drinking > Restaurant > Mexican Restaurant > Taco Restaurant'
 'Dining and Drinking > Food Truck']",b'\x00\x00\x00\x00\x01\xc0Y\xc4\x0b\xf5\xd7\x88\x12@4\x9fF4\x97\xb7A',"{'xmin': -103.06323, 'ymin': 20.622165, 'xmax': -103.06323, 'ymax': 20.622165}","dining and drinking > restaurant > mexican restaurant > taco restaurant, dining and drinking > food truck",1
57806a1c498e65d28f30be8c,Taquería JUNIORS,20.126268,-101.187385,,,,,,,,MX,2016-07-09,2021-08-17,,,,,,,,['4bf58dd8d48988d151941735'],['Dining and Drinking > Restaurant > Mexican Restaurant > Taco Restaurant'],b'\x00\x00\x00\x00\x01\xc0YK\xfe\x1d\xa7\xb0\xb4@4 S\x19\x82\x88\x05',"{'xmin': -101.187385, 'ymin': 20.126268, 'xmax': -101.187385, 'ymax': 20.126268}",dining and drinking > restaurant > mexican restaurant > taco restaurant,1
51eaf8bd498e748660d1ac6d,Tacos Tehuana,21.1318,-101.6447,Fco. Villa esq. Saturno,Leon,Guanajuato,,,,,MX,2013-07-20,2020-11-22,,,,,,,,['4bf58dd8d48988d151941735'],['Dining and Drinking > Restaurant > Mexican Restaurant > Taco Restaurant'],b'\x00\x00\x00\x00\x01\xc0YiB\xc3\xc9\xee\xcc@5!\xbd\xa5\x11\x9c\xe0',"{'xmin': -101.6447, 'ymin': 21.1318, 'xmax': -101.6447, 'ymax': 21.1318}",dining and drinking > restaurant > mexican restaurant > taco restaurant,1
52598d0b498e6380f2f2d857,Chivoy,19.79534916150118,-101.16246836178529,,,,,,,,MX,2013-10-12,2023-12-21,,444 387 6227,,,,,,['4bf58dd8d48988d151941735'],['Dining and Drinking > Restaurant > Mexican Restaurant > Taco Restaurant'],b'\x00\x00\x00\x00\x01\xc0YJe\xe1\xb3 )@3\xcb\x9c\x00\xad\x8cp',"{'xmin': -101.16246836178529, 'ymin': 19.79534916150118, 'xmax': -101.16246836178529, 'ymax': 19.79534916150118}",dining and drinking > restaurant > mexican restaurant > taco restaurant,1
4c91de9b57e5b60cd618641c,Taquería Jonathan,20.88527,-103.839599,,,,,,,,MX,2010-09-16,2021-08-12,,,,,,,,['4bf58dd8d48988d151941735'],['Dining and Drinking > Restaurant > Mexican Restaurant > Taco Restaurant'],b'\x00\x00\x00\x00\x01\xc0Y\xf5\xbb\xfdq\xb0G@4\xe2\xa1\x0e\x02!B',"{'xmin': -103.839599, 'ymin': 20.88527, 'xmax': -103.839599, 'ymax': 20.88527}",dining and drinking > restaurant > mexican restaurant > taco restaurant,1
4d6543946d943704551075bf,Doraditas de Silver,21.141033184894855,-101.69052197288367,,,,,,,,MX,2011-02-23,2021-08-14,,,,,,,,['4bf58dd8d48988d151941735'],['Dining and Drinking > Restaurant > Mexican Restaurant > Taco Restaurant'],b'\x00\x00\x00\x00\x01\xc0Yl1\x83\x12\xad\x1b@5$\x1a\xc04\xc6-',"{'xmin': -101.69052197288367, 'ymin': 21.141033184894855, 'xmax': -101.69052197288367, 'ymax': 21.141033184894855}",dining and drinking > restaurant > mexican restaurant > taco restaurant,1
50dd1a7de4b01e5fee927a92,Tacos Don Juan,20.64458,-105.21356,,,,,,,,MX,2012-12-28,2021-08-17,,,,,,,,['4bf58dd8d48988d151941735'],['Dining and Drinking > Restaurant > Mexican Restaurant > Taco Restaurant'],b'\x00\x00\x00\x00\x01\xc0ZM\xaa\xf7\x8f\xee\xf6@4\xa5\x031\xe3\xa7\xdb',"{'xmin': -105.21356, 'ymin': 20.64458, 'xmax': -105.21356, 'ymax': 20.64458}",dining and drinking > restaurant > mexican restaurant > taco restaurant,1
4dc0a751fa764d03e9ed1df4,Tortas Richard,22.15591607949732,-101.00410928843846,Centro comercial El Dorado,San Luis Potosi,SLP,,,,,MX,2011-05-04,2020-11-25,,,http://www.tortasrichard.com,,,,tortasrichard,['4bf58dd8d48988d1c5941735' '4bf58dd8d48988d151941735'],"['Dining and Drinking > Restaurant > Sandwich Spot'
 'Dining and Drinking > Restaurant > Mexican Restaurant > Taco Restaurant']","b""\x00\x00\x00\x00\x01\xc0Y@CS\x9a\xdc\xfe@6'\xea\x1d\xbe\\\x8d""","{'xmin': -101.00410928843846, 'ymin': 22.15591607949732, 'xmax': -101.00410928843846, 'ymax': 22.15591607949732}","dining and drinking > restaurant > sandwich spot, dining and drinking > restaurant > mexican restaurant > taco restaurant",1
517de413e4b08822efcabb5f,Tacos Don Chuy desde 1965,20.692048499204432,-103.32801164968751,,Guadalajara,,,,,,MX,2013-04-29,2021-08-16,,33 3465 4975,,,,,,['4bf58dd8d48988d151941735'],['Dining and Drinking > Restaurant > Mexican Restaurant > Taco Restaurant'],"b""\x00\x00\x00\x00\x01\xc0Y\xd4\xfe$\x93\x07Z@4\xb1*\x17'T4""","{'xmin': -103.32801164968751, 'ymin': 20.692048499204432, 'xmax': -103.32801164968751, 'ymax': 20.692048499204432}",dining and drinking > restaurant > mexican restaurant > taco restaurant,1
52c925d6498eefa377ec1d82,Tacos El Asadero,21.013842766278756,-101.25105359637158,Manuel Doblado,Guanajuato,Guanajuato,,,,,MX,2014-01-05,2020-11-26,,,,,,,,['4bf58dd8d48988d151941735'],['Dining and Drinking > Restaurant > Mexican Restaurant > Taco Restaurant'],b'\x00\x00\x00\x00\x01\xc0YP\x11C\x1a}b@5\x03\x8b3\x14t\x14',"{'xmin': -101.25105359637158, 'ymin': 21.013842766278756, 'xmax': -101.25105359637158, 'ymax': 21.013842766278756}",dining and drinking > restaurant > mexican restaurant > taco restaurant,1
4eadbddb2c5bb67b23c1a4e1,CarnitaSam,21.017473757996168,-101.25809098190173,Mercado Hidalgo,Guanajuato,Guanajuato,36000,,,,MX,2011-10-30,2020-11-25,,,,,,,,['4bf58dd8d48988d151941735' '4bf58dd8d48988d1c5941735'],"['Dining and Drinking > Restaurant > Mexican Restaurant > Taco Restaurant'
 'Dining and Drinking > Restaurant > Sandwich Spot']",b'\x00\x00\x00\x00\x01\xc0YP\x84\x90\t\xaaE@5\x04y)\x03!\xbb',"{'xmin': -101.25809098190173, 'ymin': 21.017473757996168, 'xmax': -101.25809098190173, 'ymax': 21.017473757996168}","dining and drinking > restaurant > mexican restaurant > taco restaurant, dining and drinking > restaurant > sandwich spot",1
537e25d7498e635a12b61c22,tacos y carnitas Hermanos Vargas,20.621177025080364,-103.2477687723594,,,,,,,,MX,2014-05-22,2021-08-11,,,,,,,,['4bf58dd8d48988d151941735'],['Dining and Drinking > Restaurant > Mexican Restaurant > Taco Restaurant'],b'\x00\x00\x00\x00\x01\xc0Y\xcf\xdbq\x8d\x90<@4\x9f\x05u\x1f\xbf*',"{'xmin': -103.2477687723594, 'ymin': 20.621177025080364, 'xmax': -103.2477687723594, 'ymax': 20.621177025080364}",dining and drinking > restaurant > mexican restaurant > taco restaurant,1
51e2033f498e5d9503035c92,Tacos Martha,20.734936150944833,-103.41556707460043,,,,,,,,MX,2013-07-14,2021-08-12,,,,,,,,['4bf58dd8d48988d151941735'],['Dining and Drinking > Restaurant > Mexican Restaurant > Taco Restaurant'],b'\x00\x00\x00\x00\x01\xc0Y\xda\x98\xa6\xa4\xad\x02@4\xbc$\xc6\x8c\xf4\xc8',"{'xmin': -103.41556707460043, 'ymin': 20.734936150944833, 'xmax': -103.41556707460043, 'ymax': 20.734936150944833}",dining and drinking > restaurant > mexican restaurant > taco restaurant,1
5334e50d498e64b74b73c66a,Tacos El Seco,21.180166244506836,-105.14212036132812,Amado Nervo,San Jose,Nayarit,,,,,MX,2014-03-28,2020-11-22,,,,,,,,['4bf58dd8d48988d151941735'],['Dining and Drinking > Restaurant > Mexican Restaurant > Taco Restaurant'],b'\x00\x00\x00\x00\x01\xc0ZI\x18\x80\x00\x00\x00@5.\x1f`\x00\x00\x00',"{'xmin': -105.14212036132812, 'ymin': 21.180166244506836, 'xmax': -105.14212036132812, 'ymax': 21.180166244506836}",dining and drinking > restaurant > mexican restaurant > taco restaurant,1
50cffa1be4b0136689877bfc,tacos el campeon,21.02231216430664,-101.25608825683594,,,,,,,,MX,2012-12-18,2021-08-16,,,,,,,,['4bf58dd8d48988d151941735'],['Dining and Drinking > Restaurant > Mexican Restaurant > Taco Restaurant'],b'\x00\x00\x00\x00\x01\xc0YPc\xc0\x00\x00\x00@5\x05\xb6@\x00\x00\x00',"{'xmin': -101.25608825683594, 'ymin': 21.02231216430664, 'xmax': -101.25608825683594, 'ymax': 21.02231216430664}",dining and drinking > restaurant > mexican restaurant > taco restaurant,1
4df03473c65b0270f3a2bb0e,"Tacos ""Los Potrillos""",22.128561855313855,-100.90419885895565,,San Luis Potosi,SLP,,,,,MX,2011-06-09,2020-11-25,,,,,,,,['4bf58dd8d48988d151941735'],['Dining and Drinking > Restaurant > Mexican Restaurant > Taco Restaurant'],b'\x00\x00\x00\x00\x01\xc0Y9\xded\xe4\x12\xe2@6 \xe9n\x04\x16\n',"{'xmin': -100.90419885895565, 'ymin': 22.128561855313855, 'xmax': -100.90419885895565, 'ymax': 22.128561855313855}",dining and drinking > restaurant > mexican restaurant > taco restaurant,1
5313fe93498e11e8585fb793,Taqueria la 34,20.680229,-103.322128,,Guadalajara,,,,,,MX,2014-03-03,2021-08-11,,,,,,,,['4bf58dd8d48988d151941735'],['Dining and Drinking > Restaurant > Mexican Restaurant > Taco Restaurant'],b'\x00\x00\x00\x00\x01\xc0Y\xd4\x9d\xbe\xc2H\x0f@4\xae#|\xdc\xcaq',"{'xmin': -103.322128, 'ymin': 20.680229, 'xmax': -103.322128, 'ymax': 20.680229}",dining and drinking > restaurant > mexican restaurant > taco restaurant,1
5116710ce4b007745aa8224a,"Tacos de barbacoa ""Rafa el grasas""",20.669823750141106,-103.32126138256291,Calle 40 Y Obregon,Guadalajara,,,,,,MX,2013-02-09,2021-08-14,,,,,,,,['4bf58dd8d48988d151941735'],['Dining and Drinking > Restaurant > Mexican Restaurant > Taco Restaurant'],b'\x00\x00\x00\x00\x01\xc0Y\xd4\x8f\x8b\xe6\xe4\xd4@4\xaby\x91\xbc\xf0\xac',"{'xmin': -103.32126138256291, 'ymin': 20.669823750141106, 'xmax': -103.32126138256291, 'ymax': 20.669823750141106}",dining and drinking > restaurant > mexican restaurant > taco restaurant,1
5daf6f593aecc100085d5ecd,La Guerrerense,20.568558,-103.451953,,Tlajomulco de Zúñiga,JAL,,,,,MX,2019-10-22,2020-11-24,,,,,,,,['4bf58dd8d48988d1c1941735' '4bf58dd8d48988d151941735'],"['Dining and Drinking > Restaurant > Mexican Restaurant'
 'Dining and Drinking > Restaurant > Mexican Restaurant > Taco Restaurant']",b'\x00\x00\x00\x00\x01\xc0Y\xdc\xec\xccF\x95\x10@4\x91\x8d\x04_\xe1\x11',"{'xmin': -103.451953, 'ymin': 20.568558, 'xmax': -103.451953, 'ymax': 20.568558}","dining and drinking > restaurant > mexican restaurant, dining and drinking > restaurant > mexican restaurant > taco restaurant",1
4e77aa781f6e072f14a5a56a,El Buen Gusto,19.243600672242355,-103.71143451552261,Insurgentes,Colima,Colima,,,,,MX,2011-09-19,2023-12-19,,312 312 6601,,,,,,['4bf58dd8d48988d151941735'],['Dining and Drinking > Restaurant > Mexican Restaurant > Taco Restaurant'],b'\x00\x00\x00\x00\x01\xc0Y\xed\x88$\xa2Z\x93@3>\\\x9d\x18\x90\x85',"{'xmin': -103.71143451552261, 'ymin': 19.243600672242355, 'xmax': -103.71143451552261, 'ymax': 19.243600672242355}",dining and drinking > restaurant > mexican restaurant > taco restaurant,1
54872723498e904ff198d8f7,"Turok, Tacos y Tortas Ahogadas",19.259989809164576,-103.70676451909343,,,,,,,,MX,2014-12-09,2021-08-14,,,,,,,,['4bf58dd8d48988d151941735'],['Dining and Drinking > Restaurant > Mexican Restaurant > Taco Restaurant'],b'\x00\x00\x00\x00\x01\xc0Y\xed;\xa1?\xde\xaf@3B\x8e\xb1/\xa7\xb7',"{'xmin': -103.70676451909343, 'ymin': 19.259989809164576, 'xmax': -103.70676451909343, 'ymax': 19.259989809164576}",dining and drinking > restaurant > mexican restaurant > taco restaurant,1
50076654e4b0d5e2f528f625,Tacos Abasolo,19.67928407924592,-101.19611360997146,Rey Tanganxoan II #545,Morelia,Michoacán de Ocampo,58090,,,,MX,2012-07-19,2020-11-23,,443 382 1614,,,,,,['4bf58dd8d48988d151941735'],['Dining and Drinking > Restaurant > Mexican Restaurant > Taco Restaurant'],b'\x00\x00\x00\x00\x01\xc0YL\x8d \x19H0@3\xad\xe5\x8f\xb9\x0e\x01',"{'xmin': -101.19611360997146, 'ymin': 19.67928407924592, 'xmax': -101.19611360997146, 'ymax': 19.67928407924592}",dining and drinking > restaurant > mexican restaurant > taco restaurant,1
51dd72dd498e1f83fa2fe9bc,Las Quesadillas,20.679634,-103.382077,,,,,,,,MX,2013-07-10,2021-08-12,,,,,,,,['4bf58dd8d48988d151941735'],['Dining and Drinking > Restaurant > Mexican Restaurant > Taco Restaurant'],b'\x00\x00\x00\x00\x01\xc0Y\xd8s\xf3\x16\xe3q@4\xad\xfc~k?\xea',"{'xmin': -103.382077, 'ymin': 20.679634, 'xmax': -103.382077, 'ymax': 20.679634}",dining and drinking > restaurant > mexican restaurant > taco restaurant,1
51c5e625498e74fec7fffc0c,Tacos Suaves Don Beto,20.35043506548959,-102.04258439794854,,,,,,,,MX,2013-06-22,2021-08-11,,,,,,,,['4bf58dd8d48988d151941735'],['Dining and Drinking > Restaurant > Mexican Restaurant > Taco Restaurant'],b'\x00\x00\x00\x00\x01\xc0Y\x82\xb9\xb3\xe9 \x91@4Y\xb6\x1c\xc9\xa6@',"{'xmin': -102.04258439794854, 'ymin': 20.35043506548959, 'xmax': -102.04258439794854, 'ymax': 20.35043506548959}",dining and drinking > restaurant > mexican restaurant > taco restaurant,1
64155206a9630b2692b5b89d,Taqueria La Sinaloense,20.650468,-103.359919,,Guadalajara,JAL,44919,,,,MX,2023-03-18,2023-03-18,,,,,,,,['4bf58dd8d48988d151941735'],['Dining and Drinking > Restaurant > Mexican Restaurant > Taco Restaurant'],b'\x00\x00\x00\x00\x01\xc0Y\xd7\x08\xe9\xb3\x8da@4\xa6\x85\x12#\x183',"{'xmin': -103.359919, 'ymin': 20.650468, 'xmax': -103.359919, 'ymax': 20.650468}",dining and drinking > restaurant > mexican restaurant > taco restaurant,1
524731c211d286876f1145fa,Carnitas La Güera,21.017446517944336,-101.2582015991211,Mercado Hidalgo,Guanajuato,Guanajuato,,,,,MX,2013-09-28,2020-11-25,,,,,,,,['4bf58dd8d48988d151941735'],['Dining and Drinking > Restaurant > Mexican Restaurant > Taco Restaurant'],b'\x00\x00\x00\x00\x01\xc0YP\x86`\x00\x00\x00@5\x04w`\x00\x00\x00',"{'xmin': -101.2582015991211, 'ymin': 21.017446517944336, 'xmax': -101.2582015991211, 'ymax': 21.017446517944336}",dining and drinking > restaurant > mexican restaurant > taco restaurant,1
550a5226498e7baec3d6f19b,"tacos de cabeza ""padre""",19.115627,-104.32852,,,,,,,,MX,2015-03-19,2021-08-16,,,,,,,,['4bf58dd8d48988d151941735'],['Dining and Drinking > Restaurant > Mexican Restaurant > Taco Restaurant'],"b""\x00\x00\x00\x00\x01\xc0Z\x15\x06x\xc0\x05>@3\x1d\x99\xbb'\x88\xdb""","{'xmin': -104.32852, 'ymin': 19.115627, 'xmax': -104.32852, 'ymax': 19.115627}",dining and drinking > restaurant > mexican restaurant > taco restaurant,1
55eb3e20498e0dbf64a48e02,taqueria  el portal,20.816605,-102.758412,,,,,,,,MX,2010-08-13,2023-12-21,,378 781 5397,,,,,,['4bf58dd8d48988d151941735'],['Dining and Drinking > Restaurant > Mexican Restaurant > Taco Restaurant'],b'\x00\x00\x00\x00\x01\xc0Y\xb0\x89\xd2|97@4\xd1\r\x06x\xc0\x05',"{'xmin': -102.758412, 'ymin': 20.816605, 'xmax': -102.758412, 'ymax': 20.816605}",dining and drinking > restaurant > mexican restaurant > taco restaurant,1
51a41d24498ea3d3f923cdc2,tacos don chava,20.029395140444496,-100.72174456534667,,,,,,,,MX,2013-05-28,2021-08-15,,,,,,,,['4bf58dd8d48988d151941735'],['Dining and Drinking > Restaurant > Mexican Restaurant > Taco Restaurant'],b'\x00\x00\x00\x00\x01\xc0Y.1\x10\x1e\x0e\xb3@4\x07\x86p\x9e\xde\xd5',"{'xmin': -100.72174456534667, 'ymin': 20.029395140444496, 'xmax': -100.72174456534667, 'ymax': 20.029395140444496}",dining and drinking > restaurant > mexican restaurant > taco restaurant,1
58152d5738fa89c81d6dd6ff,"Taquería ""El Veneno""",20.687141,-103.42313,,,,,,,,MX,2016-10-29,2021-08-12,,,,,,,,['4bf58dd8d48988d151941735'],['Dining and Drinking > Restaurant > Mexican Restaurant > Taco Restaurant'],b'\x00\x00\x00\x00\x01\xc0Y\xdb\x14\x8f\xd9\xfd7@4\xaf\xe8x\xfa\xbd\xa1',"{'xmin': -103.42313, 'ymin': 20.687141, 'xmax': -103.42313, 'ymax': 20.687141}",dining and drinking > restaurant > mexican restaurant > taco restaurant,1
516906a1e4b0433809891e2d,Tacos “La uno“,21.153398732613514,-100.93599922395808,Rubidio,,Guanajuato,37800,,,,MX,2013-04-13,2021-08-16,,,,,,,,['4bf58dd8d48988d151941735' '4bf58dd8d48988d1cb941735'],"['Dining and Drinking > Restaurant > Mexican Restaurant > Taco Restaurant'
 'Dining and Drinking > Food Truck']","b""\x00\x00\x00\x00\x01\xc0Y;\xe7iI\xfe\xce@5'E#\xab\xd2\xa9""","{'xmin': -100.93599922395808, 'ymin': 21.153398732613514, 'xmax': -100.93599922395808, 'ymax': 21.153398732613514}","dining and drinking > restaurant > mexican restaurant > taco restaurant, dining and drinking > food truck",1
4f88d4b1e4b0bae89687d0aa,Tacos Vikys,21.52163474442761,-102.2404908218043,,,,,,,,MX,2012-04-14,2021-08-16,,,,,,,,['4bf58dd8d48988d151941735'],['Dining and Drinking > Restaurant > Mexican Restaurant > Taco Restaurant'],b'\x00\x00\x00\x00\x01\xc0Y\x8fd3\x9d\xa8\xcf@5\x85\x89\xda\xc7\xc6\x1f',"{'xmin': -102.2404908218043, 'ymin': 21.52163474442761, 'xmax': -102.2404908218043, 'ymax': 21.52163474442761}",dining and drinking > restaurant > mexican restaurant > taco restaurant,1
5208523111d28f6b95b778df,Taqueria Arandas,20.701133,-103.291293,,,,,,,,MX,2013-08-12,2021-08-11,,,,,,,,['4bf58dd8d48988d151941735'],['Dining and Drinking > Restaurant > Mexican Restaurant > Taco Restaurant'],b'\x00\x00\x00\x00\x01\xc0Y\xd2\xa4\x8be#p@4\xb3}s\xc9%x',"{'xmin': -103.291293, 'ymin': 20.701133, 'xmax': -103.291293, 'ymax': 20.701133}",dining and drinking > restaurant > mexican restaurant > taco restaurant,1
4dc9b2452271db4ebfb3ecaa,Los Compadres Taquería,19.679143536857243,-101.22583786488278,,Morelia,MICH,,,,,MX,2011-05-10,2020-11-30,,,,,,,,['4bf58dd8d48988d151941735'],['Dining and Drinking > Restaurant > Mexican Restaurant > Taco Restaurant'],b'\x00\x00\x00\x00\x01\xc0YNt \xa8\xf7\xae@3\xad\xdcY\xd0\x17u',"{'xmin': -101.22583786488278, 'ymin': 19.679143536857243, 'xmax': -101.22583786488278, 'ymax': 19.679143536857243}",dining and drinking > restaurant > mexican restaurant > taco restaurant,1
506ba7ede4b092ceaebbca84,Cenaduria Kika,21.893038331690057,-102.2902969669054,,,,,,,,MX,2012-10-03,2021-08-14,,,,,,,,['4bf58dd8d48988d151941735'],['Dining and Drinking > Restaurant > Mexican Restaurant > Taco Restaurant'],b'\x00\x00\x00\x00\x01\xc0Y\x92\x949\xba\xbf&@5\xe4\x9e(\xfc\xae\xe6',"{'xmin': -102.2902969669054, 'ymin': 21.893038331690057, 'xmax': -102.2902969669054, 'ymax': 21.893038331690057}",dining and drinking > restaurant > mexican restaurant > taco restaurant,1
4c091077340720a195128493,Tacos Ramón,19.083551165373372,-104.30765975687552,Av. División del Norte,Manzanillo,COL,,,,,MX,2010-06-04,2020-11-23,,,,,,,,['4bf58dd8d48988d151941735'],['Dining and Drinking > Restaurant > Mexican Restaurant > Taco Restaurant'],b'\x00\x00\x00\x00\x01\xc0Z\x13\xb0\xb2\x8c\x84\xd8@3\x15c\x9b\xf2\xd2B',"{'xmin': -104.30765975687552, 'ymin': 19.083551165373372, 'xmax': -104.30765975687552, 'ymax': 19.083551165373372}",dining and drinking > restaurant > mexican restaurant > taco restaurant,1
4cebebb4b997548104190f45,Tacostumbras,20.489246225984637,-100.96677925536221,Paseo de la juventud,Cortazar,Guanajuato,,,,,MX,2010-11-23,2020-11-24,,,,,,,,['4bf58dd8d48988d151941735'],['Dining and Drinking > Restaurant > Mexican Restaurant > Taco Restaurant'],b'\x00\x00\x00\x00\x01\xc0Y=\xdf\xb6\x19\x0e\xd8@4}?=\x9cK\xa2',"{'xmin': -100.96677925536221, 'ymin': 20.489246225984637, 'xmax': -100.96677925536221, 'ymax': 20.489246225984637}",dining and drinking > restaurant > mexican restaurant > taco restaurant,1
5103414ae4b04ee8a0638b3e,Tacos De Perro,20.62248455771657,-103.0634357636105,,,,,,,,MX,2013-01-26,2021-08-11,,,,,,,,['4bf58dd8d48988d151941735'],['Dining and Drinking > Restaurant > Mexican Restaurant > Taco Restaurant'],b'\x00\x00\x00\x00\x01\xc0Y\xc4\x0fT\xe0\x86\xa6@4\x9f[%\xe1\xa8_',"{'xmin': -103.0634357636105, 'ymin': 20.62248455771657, 'xmax': -103.0634357636105, 'ymax': 20.62248455771657}",dining and drinking > restaurant > mexican restaurant > taco restaurant,1
565e52e8498ecbc733d8ecff,tacos y bionicos tabachines,20.74105976508931,-103.36856344777212,,,,,,,,MX,2015-12-02,2021-08-16,,,,,,,,['4bf58dd8d48988d151941735'],['Dining and Drinking > Restaurant > Mexican Restaurant > Taco Restaurant'],b'\x00\x00\x00\x00\x01\xc0Y\xd7\x96\x8b$\xab\xaa@4\xbd\xb6\x17\xbfp\xa6',"{'xmin': -103.36856344777212, 'ymin': 20.74105976508931, 'xmax': -103.36856344777212, 'ymax': 20.74105976508931}",dining and drinking > restaurant > mexican restaurant > taco restaurant,1
53373518498e0f39234c3eea,carnitas el choncho,22.163905,-100.985916,Ignacio Comonfort #1400,San Luis Potosi,,,,,,MX,2013-09-29,2021-12-19,,,,,,,,['4bf58dd8d48988d151941735'],['Dining and Drinking > Restaurant > Mexican Restaurant > Taco Restaurant'],b'\x00\x00\x00\x00\x01\xc0Y?\x19?l&\x9a@6)\xf5\xad\x96\xa6\xa0',"{'xmin': -100.985916, 'ymin': 22.163905, 'xmax': -100.985916, 'ymax': 22.163905}",dining and drinking > restaurant > mexican restaurant > taco restaurant,1
5dccd76c894ee20008bdd4ca,Taquería El Pueblito,20.019318,-100.73129,Jose María Morelos,Acámbaro,Guanajuato,38642,,,,MX,2019-11-14,2020-11-30,,,,,,,,['4bf58dd8d48988d151941735'],['Dining and Drinking > Restaurant > Mexican Restaurant > Taco Restaurant'],b'\x00\x00\x00\x00\x01\xc0Y.\xcdt\x92y\x14@4\x04\xf2\x06B9`',"{'xmin': -100.73129, 'ymin': 20.019318, 'xmax': -100.73129, 'ymax': 20.019318}",dining and drinking > restaurant > mexican restaurant > taco restaurant,1
59bc96fd0c9f31433b3f7f92,La Pasadita,19.26949,-103.748204,Pablo Silva,Villa de Álvarez,COL,28987,,,,MX,2017-09-16,2020-11-21,,,,,,,,['4bf58dd8d48988d151941735' '4bf58dd8d48988d1c1941735'],"['Dining and Drinking > Restaurant > Mexican Restaurant > Taco Restaurant'
 'Dining and Drinking > Restaurant > Mexican Restaurant']",b'\x00\x00\x00\x00\x01\xc0Y\xef\xe2\x93\x07\xaf!@3D\xfdK\xf0\x99[',"{'xmin': -103.748204, 'ymin': 19.26949, 'xmax': -103.748204, 'ymax': 19.26949}","dining and drinking > restaurant > mexican restaurant > taco restaurant, dining and drinking > restaurant > mexican restaurant",1
5031be82e4b05f26b0b2535c,Tacos El Chivo,22.146433683389052,-102.2935112864709,,,,,,,,MX,2012-08-20,2020-11-30,,,,,,,,['4bf58dd8d48988d151941735'],['Dining and Drinking > Restaurant > Mexican Restaurant > Taco Restaurant'],b'\x00\x00\x00\x00\x01\xc0Y\x92\xc8\xe3\x90\x19\x90@6%|\xad\x890U',"{'xmin': -102.2935112864709, 'ymin': 22.146433683389052, 'xmax': -102.2935112864709, 'ymax': 22.146433683389052}",dining and drinking > restaurant > mexican restaurant > taco restaurant,1
57539979498ed2ddeb51b0cb,Tacos Lidia,21.539928,-105.288124,,,,,,,,MX,2016-06-05,2021-08-13,,,,,,,,['4bf58dd8d48988d151941735'],['Dining and Drinking > Restaurant > Mexican Restaurant > Taco Restaurant'],b'\x00\x00\x00\x00\x01\xc0ZRp\x9f\xa5LU@5\x8a8\xb8\xae1\xd7',"{'xmin': -105.288124, 'ymin': 21.539928, 'xmax': -105.288124, 'ymax': 21.539928}",dining and drinking > restaurant > mexican restaurant > taco restaurant,1
50cfdca5e4b0f6526ef4b7c6,Tacos Kary,20.828033447265625,-101.48641967773438,,,,,,,,MX,2012-12-18,2020-11-23,,,,,,,,['4bf58dd8d48988d151941735'],['Dining and Drinking > Restaurant > Mexican Restaurant > Taco Restaurant'],b'\x00\x00\x00\x00\x01\xc0Y_!\x80\x00\x00\x00@4\xd3\xfa\x00\x00\x00\x00',"{'xmin': -101.48641967773438, 'ymin': 20.828033447265625, 'xmax': -101.48641967773438, 'ymax': 20.828033447265625}",dining and drinking > restaurant > mexican restaurant > taco restaurant,1
56383545cd10e1e36e66e5aa,Taquería Gamma,20.591882705688477,-103.2327880859375,Hacienda De Los Eucaliptos #85,Tonalá,Jalisco,,,,,MX,2015-11-03,2020-11-24,,,,,,,,['4bf58dd8d48988d151941735'],['Dining and Drinking > Restaurant > Mexican Restaurant > Taco Restaurant'],b'\x00\x00\x00\x00\x01\xc0Y\xce\xe6\x00\x00\x00\x00@4\x97\x85\xa0\x00\x00\x00',"{'xmin': -103.2327880859375, 'ymin': 20.591882705688477, 'xmax': -103.2327880859375, 'ymax': 20.591882705688477}",dining and drinking > restaurant > mexican restaurant > taco restaurant,1
5343773b498e92467affd8df,Tacos Fer,20.981612352609414,-101.28033760393953,Yerbabuena,Guanajuato,Guanajuato,,,,,MX,2014-04-08,2020-11-23,,,,,,,,['4bf58dd8d48988d151941735'],['Dining and Drinking > Restaurant > Mexican Restaurant > Taco Restaurant'],"b'\x00\x00\x00\x00\x01\xc0YQ\xf1\r""0\x98@4\xfbJ\xf2w\xce\x9b'","{'xmin': -101.28033760393953, 'ymin': 20.981612352609414, 'xmax': -101.28033760393953, 'ymax': 20.981612352609414}",dining and drinking > restaurant > mexican restaurant > taco restaurant,1
55dfe70c498e40d5c4828a92,Los Primos,19.32316282588552,-99.10409135876651,Camellon Calzada De La Virgen,,,,,,,MX,2015-08-28,2021-08-17,,,,,,,,['4bf58dd8d48988d151941735'],['Dining and Drinking > Restaurant > Mexican Restaurant > Taco Restaurant'],b'\x00\x00\x00\x00\x01\xc0X\xc6\xa9n\xcdl\xb2@3R\xba\xcc\x88v\x15',"{'xmin': -99.10409135876651, 'ymin': 19.32316282588552, 'xmax': -99.10409135876651, 'ymax': 19.32316282588552}",dining and drinking > restaurant > mexican restaurant > taco restaurant,1
55da786a498e2dbb396bd784,Taqueria Los Comales,18.90257453918457,-96.93541717529297,,,,,,,,MX,2015-08-24,2021-08-12,,,,,,,,['4bf58dd8d48988d151941735'],['Dining and Drinking > Restaurant > Mexican Restaurant > Taco Restaurant'],b'\x00\x00\x00\x00\x01\xc0X;\xdd\xe0\x00\x00\x00@2\xe7\x0f \x00\x00\x00',"{'xmin': -96.93541717529297, 'ymin': 18.90257453918457, 'xmax': -96.93541717529297, 'ymax': 18.90257453918457}",dining and drinking > restaurant > mexican restaurant > taco restaurant,1
4b8328d7f964a520fefa30e3,La Tortuga Cucufata,18.95495529059984,-99.23648351996957,Av. Domingo Diez 1460,Cuernavaca,Morelos,62230,,,,MX,2010-02-23,2023-12-20,,777 311 4810,http://latortugacucufata.com,la_tortuga_cucufata@hotmail.com,,,,['4bf58dd8d48988d151941735'],['Dining and Drinking > Restaurant > Mexican Restaurant > Taco Restaurant'],"b'\x00\x00\x00\x00\x01\xc0X\xcf""\x8b\xc6\x13\xfc@2\xf4w\xf3.D\xbc'","{'xmin': -99.23648351996957, 'ymin': 18.95495529059984, 'xmax': -99.23648351996957, 'ymax': 18.95495529059984}",dining and drinking > restaurant > mexican restaurant > taco restaurant,1
4fe49b8fe4b0b823970be2e2,Tacos De Puerco Sensoal,19.264684384810238,-99.1090615255794,,,,,,,,MX,2012-06-22,2021-08-15,,,,,,,,['4bf58dd8d48988d151941735'],['Dining and Drinking > Restaurant > Mexican Restaurant > Taco Restaurant'],b'\x00\x00\x00\x00\x01\xc0X\xc6\xfa\xdd1gc@3C\xc2[\x18\x85\x98',"{'xmin': -99.1090615255794, 'ymin': 19.264684384810238, 'xmax': -99.1090615255794, 'ymax': 19.264684384810238}",dining and drinking > restaurant > mexican restaurant > taco restaurant,1
50ce819ce4b0373ccd567dea,La Casona Tacos & Grill,19.33467634594766,-99.13046919393668,Av. Castellanos Quinto,,,,,,,MX,2012-12-17,2021-08-16,,,,,,,,['4bf58dd8d48988d151941735'],['Dining and Drinking > Restaurant > Mexican Restaurant > Taco Restaurant'],b'\x00\x00\x00\x00\x01\xc0X\xc8Y\x9bvE\xfc@3U\xadYX\x97\t',"{'xmin': -99.13046919393668, 'ymin': 19.33467634594766, 'xmax': -99.13046919393668, 'ymax': 19.33467634594766}",dining and drinking > restaurant > mexican restaurant > taco restaurant,1
e7f553f5e0464b6471ccc3c2,Cocina Economica Jess,19.689003,-101.17285,Santos Degollado 628 4,Morelia,Michoacán,58280,,,,MX,2013-10-25,2023-12-06,,443 340 0410,,,,,,['4bf58dd8d48988d151941735'],['Dining and Drinking > Restaurant > Mexican Restaurant > Taco Restaurant'],"b""\x00\x00\x00\x00\x01\xc0YK\x0f\xf9rGE@3\xb0b\x80'\xd8\x8c""","{'xmin': -101.17285, 'ymin': 19.689003, 'xmax': -101.17285, 'ymax': 19.689003}",dining and drinking > restaurant > mexican restaurant > taco restaurant,1
5353559b498e6f870581ba73,Taqueria Guzmán-Mixe,18.962678,-99.592181,,,,,,,,MX,2014-04-20,2021-08-17,,,,,,,,['4bf58dd8d48988d151941735'],['Dining and Drinking > Restaurant > Mexican Restaurant > Taco Restaurant'],b'\x00\x00\x00\x00\x01\xc0X\xe5\xe6K#\x14\x01@2\xf6r\x10\xbe\x94%',"{'xmin': -99.592181, 'ymin': 18.962678, 'xmax': -99.592181, 'ymax': 18.962678}",dining and drinking > restaurant > mexican restaurant > taco restaurant,1
541ddd06498e7ac70411833f,Zona T,19.242306,-99.096587,Camino Viejo De San Lorenzo,,,,,,,MX,2014-09-20,2021-08-16,,,,,,,,['4bf58dd8d48988d151941735'],['Dining and Drinking > Restaurant > Mexican Restaurant > Taco Restaurant'],b'\x00\x00\x00\x00\x01\xc0X\xc6.{=\x8e\x00@3>\x07\xc4\x19\x9f\xe4',"{'xmin': -99.096587, 'ymin': 19.242306, 'xmax': -99.096587, 'ymax': 19.242306}",dining and drinking > restaurant > mexican restaurant > taco restaurant,1
5b4ace831953f3002c698383,"Tacos ""Leo""",19.956808,-102.29716,Ruben C. Navarro,Jacona de Plancarte,Michoacán,59820,,,,MX,2018-07-15,2020-11-21,,,,,,,,['4bf58dd8d48988d151941735'],['Dining and Drinking > Restaurant > Mexican Restaurant > Taco Restaurant'],b'\x00\x00\x00\x00\x01\xc0Y\x93\x04\xab`k{@3\xf4\xf1^|\x8d\x19',"{'xmin': -102.29716, 'ymin': 19.956808, 'xmax': -102.29716, 'ymax': 19.956808}",dining and drinking > restaurant > mexican restaurant > taco restaurant,1
51869fe4498e26edfd3ee8cf,"Taqueria ""Samaria""",17.082405488414725,-96.74401798577144,Carretera a Santa Rosa Panzacola,Oaxaca De Juarez,Oaxaca,,,,,MX,2013-05-05,2020-11-23,,,,,,,,['4bf58dd8d48988d151941735'],['Dining and Drinking > Restaurant > Mexican Restaurant > Taco Restaurant'],b'\x00\x00\x00\x00\x01\xc0X/\x9d\xfd\x9d!\x8b@1\x15\x18\x86\xad\xc0\x8d',"{'xmin': -96.74401798577144, 'ymin': 17.082405488414725, 'xmax': -96.74401798577144, 'ymax': 17.082405488414725}",dining and drinking > restaurant > mexican restaurant > taco restaurant,1
53a0ef4a498e527f3c70c3e6,Antojitos Mary,17.657355,-101.553545,,,,,,,,MX,2014-06-18,2020-11-26,,,,,,,,['4bf58dd8d48988d151941735'],['Dining and Drinking > Restaurant > Mexican Restaurant > Taco Restaurant'],b'\x00\x00\x00\x00\x01\xc0YcmH\x01\xf7Q@1\xa8Hj\xd2\xdc\xb1',"{'xmin': -101.553545, 'ymin': 17.657355, 'xmax': -101.553545, 'ymax': 17.657355}",dining and drinking > restaurant > mexican restaurant > taco restaurant,1
4f159db9e4b0253d50df1fee,Birria De Chivo Los Comales,19.418004,-102.061139,,Uruapan,Michoacán,,,,,MX,2012-01-17,2020-11-30,,,,,,,,['4bf58dd8d48988d151941735'],['Dining and Drinking > Restaurant > Mexican Restaurant > Taco Restaurant'],b'\x00\x00\x00\x00\x01\xc0Y\x83\xe9\xb3\x8d`\xa6@3k\x02Oe\x98\xe1',"{'xmin': -102.061139, 'ymin': 19.418004, 'xmax': -102.061139, 'ymax': 19.418004}",dining and drinking > restaurant > mexican restaurant > taco restaurant,1
582142b25d0a1a34d537feba,Tacos Tony&Ory,19.153042,-96.161865,,Veracruz,Veracruz,91777,,,,MX,2016-11-08,2020-11-24,,,,,,,,['4bf58dd8d48988d151941735'],['Dining and Drinking > Restaurant > Mexican Restaurant > Taco Restaurant'],"b""\x00\x00\x00\x00\x01\xc0X\n[\xff\x04W~@3'-\xc2\xb0\xea\x18""","{'xmin': -96.161865, 'ymin': 19.153042, 'xmax': -96.161865, 'ymax': 19.153042}",dining and drinking > restaurant > mexican restaurant > taco restaurant,1
51ef80c8498e943481a2d866,Tacos Hotel,19.301994,-99.1197,,,,,,,,MX,2013-07-24,2021-08-13,,,,,,,,['4bf58dd8d48988d151941735'],['Dining and Drinking > Restaurant > Mexican Restaurant > Taco Restaurant'],b'\x00\x00\x00\x00\x01\xc0X\xc7\xa9*0U2@3MOz\x91\x96\x96',"{'xmin': -99.1197, 'ymin': 19.301994, 'xmax': -99.1197, 'ymax': 19.301994}",dining and drinking > restaurant > mexican restaurant > taco restaurant,1
567df8ba498e8f5ed4bcf7e8,El Gallito In,16.094911365869006,-93.76352544692577,,,,,,,,MX,2015-12-26,2021-08-12,,,,,,,,['4bf58dd8d48988d151941735'],['Dining and Drinking > Restaurant > Mexican Restaurant > Taco Restaurant'],b'\x00\x00\x00\x00\x01\xc0Wp\xdd\x99\xd6\rp@0\x18L\x1c|m\x13',"{'xmin': -93.76352544692577, 'ymin': 16.094911365869006, 'xmax': -93.76352544692577, 'ymax': 16.094911365869006}",dining and drinking > restaurant > mexican restaurant > taco restaurant,1
653e90a53c8c876f87eea12e,Tacos De La Esquina,15.764258,-96.132776,Blvd   Santa Cruz,La Crucecita,Oax.,70987,,,,MX,2023-10-29,2023-10-29,,,,,,,,['4bf58dd8d48988d151941735'],['Dining and Drinking > Restaurant > Mexican Restaurant > Taco Restaurant'],b'\x00\x00\x00\x00\x01\xc0X\x08\x7ff\xe8lf@/\x87L\xd3\x17i\xa9',"{'xmin': -96.132776, 'ymin': 15.764258, 'xmax': -96.132776, 'ymax': 15.764258}",dining and drinking > restaurant > mexican restaurant > taco restaurant,1
58fc0a3ca4236227222672da,Tacos Y Más Los De Arriba,17.047026,-96.69267,Calle 3 119,El Rosario,Oaxaca,68150,,,,MX,2017-04-23,2020-11-22,,,,,,,,['4bf58dd8d48988d151941735' '4bf58dd8d48988d16c941735'],"['Dining and Drinking > Restaurant > Mexican Restaurant > Taco Restaurant'
 'Dining and Drinking > Restaurant > Burger Joint']","b'\x00\x00\x00\x00\x01\xc0X,T\xb4\x8d:\xe7@1\x0c\t\xe5\\\x0f\xcb'","{'xmin': -96.69267, 'ymin': 17.047026, 'xmax': -96.69267, 'ymax': 17.047026}","dining and drinking > restaurant > mexican restaurant > taco restaurant, dining and drinking > restaurant > burger joint",1
583c549a1174201f0605ecfc,Los Originales,18.952207519675312,-99.24962885338408,Plaza Norte,Cuernavaca,Morelos,62130,,,,MX,2016-11-28,2020-11-24,,,,,,,,['4bf58dd8d48988d151941735'],['Dining and Drinking > Restaurant > Mexican Restaurant > Taco Restaurant'],b'\x00\x00\x00\x00\x01\xc0X\xcf\xf9\xebL[\x0c@2\xf3\xc3\xdf<\x02\xc0',"{'xmin': -99.24962885338408, 'ymin': 18.952207519675312, 'xmax': -99.24962885338408, 'ymax': 18.952207519675312}",dining and drinking > restaurant > mexican restaurant > taco restaurant,1
577dc7b1498e412d113e26c9,El Nuevo Carboncito,18.885569,-96.936511,,,,,,,,MX,2016-07-07,2021-08-14,,,,,,,,['4bf58dd8d48988d151941735'],['Dining and Drinking > Restaurant > Mexican Restaurant > Taco Restaurant'],b'\x00\x00\x00\x00\x01\xc0X;\xef\xcb\xd5V\x08@2\xe2\xb4\xa6eY\xf7',"{'xmin': -96.936511, 'ymin': 18.885569, 'xmax': -96.936511, 'ymax': 18.885569}",dining and drinking > restaurant > mexican restaurant > taco restaurant,1
51fd1ab0498e0bec6c157758,"Tacos De Carnitas"" El Zorrillito Del Potrero""",19.32909049926559,-99.25556591643726,,,,,,,,MX,2013-08-03,2020-11-24,,,,,,,,['4bf58dd8d48988d151941735'],['Dining and Drinking > Restaurant > Mexican Restaurant > Taco Restaurant'],b'\x00\x00\x00\x00\x01\xc0X\xd0[1%D\x80@3T?Fc\xc5 ',"{'xmin': -99.25556591643726, 'ymin': 19.32909049926559, 'xmax': -99.25556591643726, 'ymax': 19.32909049926559}",dining and drinking > restaurant > mexican restaurant > taco restaurant,1
532535e0498ebf593320e24b,CARNITAS MORA,19.336646733360176,-99.15299534797667,CALLE CIENEGA,COYOACAN,MEXICO DF,,,,,MX,2014-03-16,2020-11-30,,55 5617 1124,,,,,,['4bf58dd8d48988d151941735'],['Dining and Drinking > Restaurant > Mexican Restaurant > Taco Restaurant'],b'\x00\x00\x00\x00\x01\xc0X\xc9\xca\xac\xff\xff\xff@3V.z\xf6\x16R',"{'xmin': -99.15299534797667, 'ymin': 19.336646733360176, 'xmax': -99.15299534797667, 'ymax': 19.336646733360176}",dining and drinking > restaurant > mexican restaurant > taco restaurant,1
4c2ea47366e40f472ab0c08b,Tacos' Tumbras,16.847150635328003,-99.84968576204858,Costera Miguel Alemán 3124,Acapulco,Gr,39850,,,,MX,2010-07-03,2024-01-03,,744 484 5343,http://www.tacostumbras.mx,,444064508964254.0,,,['4bf58dd8d48988d151941735'],['Dining and Drinking > Restaurant > Mexican Restaurant > Taco Restaurant'],b'\x00\x00\x00\x00\x01\xc0X\xf6a@c\xf8\x08@0\xd8\xde\xdd1\x84\xf7',"{'xmin': -99.84968576204858, 'ymin': 16.847150635328003, 'xmax': -99.84968576204858, 'ymax': 16.847150635328003}",dining and drinking > restaurant > mexican restaurant > taco restaurant,1
546d03ac498e6c78df6ff158,El Asadero,19.163939,-96.12742,,,,,,,,MX,2014-11-19,2020-11-25,,,,,,,,['4bf58dd8d48988d151941735'],['Dining and Drinking > Restaurant > Mexican Restaurant > Taco Restaurant'],"b""\x00\x00\x00\x00\x01\xc0X\x08'\xa676\xce@3)\xf7\xe8\x03\x89\xf8""","{'xmin': -96.12742, 'ymin': 19.163939, 'xmax': -96.12742, 'ymax': 19.163939}",dining and drinking > restaurant > mexican restaurant > taco restaurant,1
571ae546498e7a0a191ecbe9,Taquería El Tule,18.8046,-99.20208,,,,,,,,MX,2016-04-23,2021-08-12,,,,,,,,['4bf58dd8d48988d151941735'],['Dining and Drinking > Restaurant > Mexican Restaurant > Taco Restaurant'],b'\x00\x00\x00\x00\x01\xc0X\xcc\xee\xe0\xf3\xcb>@2\xcd\xfaC\xfe\\\x92',"{'xmin': -99.20208, 'ymin': 18.8046, 'xmax': -99.20208, 'ymax': 18.8046}",dining and drinking > restaurant > mexican restaurant > taco restaurant,1
5c2035df464d65002c86f56c,Taqueria “El amigo”,18.540236,-96.384121,,El Amate,VER,95205,,,,MX,2018-12-24,2020-11-22,,,,,,,,['4bf58dd8d48988d151941735'],['Dining and Drinking > Restaurant > Mexican Restaurant > Taco Restaurant'],b'\x00\x00\x00\x00\x01\xc0X\x18\x95p?-<@2\x8aL\xe8\x10\x1f2',"{'xmin': -96.384121, 'ymin': 18.540236, 'xmax': -96.384121, 'ymax': 18.540236}",dining and drinking > restaurant > mexican restaurant > taco restaurant,1
4f0d0cbce4b057516809c579,"Taqueria ""El Trebol""",19.299559,-99.627282,Alfredo Del Mazo,Mexico,Puebla,,,,,MX,2012-01-11,2020-11-25,,,,,,,,['4bf58dd8d48988d151941735'],['Dining and Drinking > Restaurant > Mexican Restaurant > Taco Restaurant'],b'\x00\x00\x00\x00\x01\xc0X\xe8%cf\xd7\xa5@3L\xaf\xe6\x0c8\xf3',"{'xmin': -99.627282, 'ymin': 19.299559, 'xmax': -99.627282, 'ymax': 19.299559}",dining and drinking > restaurant > mexican restaurant > taco restaurant,1
552ad737498ed32092d645d0,Taco Inn Galerias Cuernavaca,18.9362159840319,-99.19326093468537,,,,,,,,MX,2015-04-12,2023-12-20,,777 222 0170,,,,,,['4bf58dd8d48988d151941735'],['Dining and Drinking > Restaurant > Mexican Restaurant > Taco Restaurant'],b'\x00\x00\x00\x00\x01\xc0X\xcc^c\x1c\x84[@2\xef\xab\xd9\xc9h\xd3',"{'xmin': -99.19326093468537, 'ymin': 18.9362159840319, 'xmax': -99.19326093468537, 'ymax': 18.9362159840319}",dining and drinking > restaurant > mexican restaurant > taco restaurant,1
51e746f7498ea2b8ec7bc986,Taqueria Concha,16.911925,-99.834111,,,,,,,,MX,2013-07-18,2021-08-14,,,,,,,,['4bf58dd8d48988d151941735'],['Dining and Drinking > Restaurant > Mexican Restaurant > Taco Restaurant'],b'\x00\x00\x00\x00\x01\xc0X\xf5b\x13\x1a\x8e\xf7@0\xe9s\xea\xb3g\xa1',"{'xmin': -99.834111, 'ymin': 16.911925, 'xmax': -99.834111, 'ymax': 16.911925}",dining and drinking > restaurant > mexican restaurant > taco restaurant,1
57392b32cd10aa51394504b5,Taquitos Uriel,19.959206,-102.303346,"Constitucion #182 ,",Jacona,Michoacan,59800,,,,MX,2016-05-16,2020-11-24,,351 184 2250,,,,,,['4bf58dd8d48988d151941735'],['Dining and Drinking > Restaurant > Mexican Restaurant > Taco Restaurant'],b'\x00\x00\x00\x00\x01\xc0Y\x93j\x05WW\xd6@3\xf5\x8e\x86@ \x81',"{'xmin': -102.303346, 'ymin': 19.959206, 'xmax': -102.303346, 'ymax': 19.959206}",dining and drinking > restaurant > mexican restaurant > taco restaurant,1
5b4be9bb46e1b6002cecd5b8,Don Came,19.290258,-99.119503,Acoxpa 879,Ciudad de México,CDMX,14390,,,,MX,2018-07-16,2020-11-30,,,,,,,,['4bf58dd8d48988d151941735'],['Dining and Drinking > Restaurant > Mexican Restaurant > Taco Restaurant'],b'\x00\x00\x00\x00\x01\xc0X\xc7\xa5\xef\xe91\x87@3JNY)g\x02',"{'xmin': -99.119503, 'ymin': 19.290258, 'xmax': -99.119503, 'ymax': 19.290258}",dining and drinking > restaurant > mexican restaurant > taco restaurant,1
52c9a26c498e0297607c6b56,La Barbacoa de los domingos,19.279011906701413,-99.14118598846922,Esmeralda,México D.F.,,,,,,MX,2014-01-05,2020-11-30,,,,,,,,['4bf58dd8d48988d151941735'],['Dining and Drinking > Restaurant > Mexican Restaurant > Taco Restaurant'],b'\x00\x00\x00\x00\x01\xc0X\xc9\t0\xf4\xc8=@3GmS\x06z(',"{'xmin': -99.14118598846922, 'ymin': 19.279011906701413, 'xmax': -99.14118598846922, 'ymax': 19.279011906701413}",dining and drinking > restaurant > mexican restaurant > taco restaurant,1
5211419111d263587e034378,El Corderito,19.34222416758477,-99.02936020336668,,,,,,,,MX,2013-08-18,2021-08-12,,,,,,,,['4bf58dd8d48988d151941735'],['Dining and Drinking > Restaurant > Mexican Restaurant > Taco Restaurant'],b'\x00\x00\x00\x00\x01\xc0X\xc1\xe1\t\x9eP\xe2@3W\x9c\x00\xc7\xadk',"{'xmin': -99.02936020336668, 'ymin': 19.34222416758477, 'xmax': -99.02936020336668, 'ymax': 19.34222416758477}",dining and drinking > restaurant > mexican restaurant > taco restaurant,1
4f7e6deae4b0a254a1016851,Tacos Rikis,18.46749242726241,-97.39717014473734,,,,,,,,MX,2012-04-06,2021-08-15,,,,,,,,['4bf58dd8d48988d151941735'],['Dining and Drinking > Restaurant > Mexican Restaurant > Taco Restaurant'],b'\x00\x00\x00\x00\x01\xc0XYk<S\xa6\x0c@2w\xad\x95n8?',"{'xmin': -97.39717014473734, 'ymin': 18.46749242726241, 'xmax': -97.39717014473734, 'ymax': 18.46749242726241}",dining and drinking > restaurant > mexican restaurant > taco restaurant,1
4f9d8178e4b0d8e623895177,Los Michoacanos,19.19345907433337,-96.13681252350413,,,,,,,,MX,2012-04-29,2021-08-14,,,,,,,,['4bf58dd8d48988d151941735'],['Dining and Drinking > Restaurant > Mexican Restaurant > Taco Restaurant'],b'\x00\x00\x00\x00\x01\xc0X\x08\xc1\x89P\x88\x8b@31\x86\x88\xad`R',"{'xmin': -96.13681252350413, 'ymin': 19.19345907433337, 'xmax': -96.13681252350413, 'ymax': 19.19345907433337}",dining and drinking > restaurant > mexican restaurant > taco restaurant,1
5132dd8ce4b0dc20118ae5d0,el rincon de la rana 2,19.305204391479492,-99.25153350830078,,,,,,,,MX,2013-03-03,2021-08-15,,,,,,,,['4bf58dd8d48988d151941735'],['Dining and Drinking > Restaurant > Mexican Restaurant > Taco Restaurant'],b'\x00\x00\x00\x00\x01\xc0X\xd0\x19 \x00\x00\x00@3N!\xe0\x00\x00\x00',"{'xmin': -99.25153350830078, 'ymin': 19.305204391479492, 'xmax': -99.25153350830078, 'ymax': 19.305204391479492}",dining and drinking > restaurant > mexican restaurant > taco restaurant,1
5833c7cf14fb4101dcee140d,Tacos de bistek,19.415976,-102.05879,,Uruapan,Michoacán,60050,,,,MX,2016-11-22,2020-11-30,,,,,,,,['4bf58dd8d48988d151941735'],['Dining and Drinking > Restaurant > Mexican Restaurant > Taco Restaurant'],b'\x00\x00\x00\x00\x01\xc0Y\x83\xc37!\xd5=@3j}g3\xeb\xc0',"{'xmin': -102.05879, 'ymin': 19.415976, 'xmax': -102.05879, 'ymax': 19.415976}",dining and drinking > restaurant > mexican restaurant > taco restaurant,1
4e602a3e52b1260c1222cbc6,Tacos Don Beto,19.30473575964523,-99.05232822909737,Manlio Fabio Altamirano,Ciudad de México,Distrito Federal,,,,,MX,2011-09-02,2020-11-26,,,,,,,,['4bf58dd8d48988d151941735'],['Dining and Drinking > Restaurant > Mexican Restaurant > Taco Restaurant'],b'\x00\x00\x00\x00\x01\xc0X\xc3YX\x80(_@3N\x03)\xa9\x99\x15',"{'xmin': -99.05232822909737, 'ymin': 19.30473575964523, 'xmax': -99.05232822909737, 'ymax': 19.30473575964523}",dining and drinking > restaurant > mexican restaurant > taco restaurant,1
57eb2345498e66f84eeb3cb2,Tacos Doña Manuelita,16.237206,-92.156054,,,,,,,,MX,2016-09-28,2021-08-16,,,,,,,,['4bf58dd8d48988d151941735'],['Dining and Drinking > Restaurant > Mexican Restaurant > Taco Restaurant'],b'\x00\x00\x00\x00\x01\xc0W\t\xfc\xc9\xea\x9a=@0<\xb9\x88Lj<',"{'xmin': -92.156054, 'ymin': 16.237206, 'xmax': -92.156054, 'ymax': 16.237206}",dining and drinking > restaurant > mexican restaurant > taco restaurant,1
4e91d6fb7ee60278a65d8127,"Carnitas ""Don Pepe""",19.28217616914821,-99.64302279642145,Pino Suarez,Toluca de Lerdo,México,,,,,MX,2011-10-09,2020-11-24,,,,,,,,['4bf58dd8d48988d151941735'],['Dining and Drinking > Restaurant > Mexican Restaurant > Taco Restaurant'],"b""\x00\x00\x00\x00\x01\xc0X\xe9'I\x16M\x9b@3H<\xb2\x8a3\xbf""","{'xmin': -99.64302279642145, 'ymin': 19.28217616914821, 'xmax': -99.64302279642145, 'ymax': 19.28217616914821}",dining and drinking > restaurant > mexican restaurant > taco restaurant,1
562fa5e6498e7f6ec4d086ee,Tacos Los Originales Av Universidad,18.97719845995097,-99.24550912707755,Av universidad #720,Cuernavaca,Morelos,62215,,,,MX,2015-10-27,2020-11-24,,,,,,,,['4bf58dd8d48988d151941735'],['Dining and Drinking > Restaurant > Mexican Restaurant > Taco Restaurant'],b'\x00\x00\x00\x00\x01\xc0X\xcf\xb6k\xe9\xea\xba@2\xfa)\xad\xa30\xe4',"{'xmin': -99.24550912707755, 'ymin': 18.97719845995097, 'xmax': -99.24550912707755, 'ymax': 18.97719845995097}",dining and drinking > restaurant > mexican restaurant > taco restaurant,1
4eff33e7775bec6b436e345e,Las Gorditas,14.89080021790223,-92.25361596129103,,,,30780,,,,MX,2011-12-31,2021-08-13,,,,,,,,['4bf58dd8d48988d151941735'],['Dining and Drinking > Restaurant > Mexican Restaurant > Taco Restaurant'],b'\x00\x00\x00\x00\x01\xc0W\x10;>p\xdfE@-\xc8\x16\xf7VQ\xcb',"{'xmin': -92.25361596129103, 'ymin': 14.89080021790223, 'xmax': -92.25361596129103, 'ymax': 14.89080021790223}",dining and drinking > restaurant > mexican restaurant > taco restaurant,1
528c2ab411d2b6324b6db98a,Tacos Los Innombrables,19.153109,-96.140679,Paseo De Los Juncos,Veracruz,Ver,91940,,,,MX,2013-11-20,2020-11-30,,,,,,,,['4bf58dd8d48988d151941735'],['Dining and Drinking > Restaurant > Mexican Restaurant > Taco Restaurant'],"b""\x00\x00\x00\x00\x01\xc0X\t\x00\xe2~\x0e\xfa@3'2&\xc3\xb9(""","{'xmin': -96.140679, 'ymin': 19.153109, 'xmax': -96.140679, 'ymax': 19.153109}",dining and drinking > restaurant > mexican restaurant > taco restaurant,1
5308d92f498eb257b8e9d898,Tortas y tacos lulú,19.590747833251953,-102.47198486328125,,,,,,,,MX,2014-02-22,2021-08-10,,,,,,,,['4bf58dd8d48988d151941735'],['Dining and Drinking > Restaurant > Mexican Restaurant > Taco Restaurant'],b'\x00\x00\x00\x00\x01\xc0Y\x9e5\x00\x00\x00\x00@3\x97;@\x00\x00\x00',"{'xmin': -102.47198486328125, 'ymin': 19.590747833251953, 'xmax': -102.47198486328125, 'ymax': 19.590747833251953}",dining and drinking > restaurant > mexican restaurant > taco restaurant,1
56032cae498e1a37d18a0e3e,Tacos Mi Chacha linda,19.331025,-99.115321,CTM V culhuacan,México,Distrito federal,04440,,,,MX,2015-09-23,2020-11-23,,55 4060 0595,,,,,,['4bf58dd8d48988d151941735'],['Dining and Drinking > Restaurant > Mexican Restaurant > Taco Restaurant'],b'\x00\x00\x00\x00\x01\xc0X\xc7akT\xe2\xb0@3T\xbe\r\xed(\x8d',"{'xmin': -99.115321, 'ymin': 19.331025, 'xmax': -99.115321, 'ymax': 19.331025}",dining and drinking > restaurant > mexican restaurant > taco restaurant,1
4b9fa583f964a520663137e3,tacos Don Beto,18.96064,-99.24573,tabachin 120,cuernavaca,morelos,,,,,MX,2010-03-16,2020-11-25,2014-01-25,,,,,,,['4bf58dd8d48988d151941735'],['Dining and Drinking > Restaurant > Mexican Restaurant > Taco Restaurant'],b'\x00\x00\x00\x00\x01\xc0X\xcf\xba\nRiY@2\xf5\xec\x80\xc7:\xbd',"{'xmin': -99.24573, 'ymin': 18.96064, 'xmax': -99.24573, 'ymax': 18.96064}",dining and drinking > restaurant > mexican restaurant > taco restaurant,1
5a20c787b3d8e2618591407d,Tacos Arabes 5 De Mayo,19.267331,-99.576721,,Metepec,Edomex,50200,,,,MX,2017-12-01,2020-11-24,,,,,,,,"['4bf58dd8d48988d151941735' '4bf58dd8d48988d1c1941735'
 '4bf58dd8d48988d120951735']","['Dining and Drinking > Restaurant > Mexican Restaurant > Taco Restaurant'
 'Dining and Drinking > Restaurant > Mexican Restaurant'
 'Dining and Drinking > Food Court']",b'\x00\x00\x00\x00\x01\xc0X\xe4\xe8\xff2z\xa7@3Do\xcd\xee4\xfc',"{'xmin': -99.576721, 'ymin': 19.267331, 'xmax': -99.576721, 'ymax': 19.267331}","dining and drinking > restaurant > mexican restaurant > taco restaurant, dining and drinking > restaurant > mexican restaurant, dining and drinking > food court",1
5207eff011d2da6a857f452b,Taquería Lety,16.44349588619637,-95.02248460796203,,,,,,,,MX,2013-08-11,2021-08-13,,,,,,,,['4bf58dd8d48988d151941735'],['Dining and Drinking > Restaurant > Mexican Restaurant > Taco Restaurant'],b'\x00\x00\x00\x00\x01\xc0W\xc1pcG\xf7\x0f@0q\x88\xf2G\x1f\xbb',"{'xmin': -95.02248460796203, 'ymin': 16.44349588619637, 'xmax': -95.02248460796203, 'ymax': 16.44349588619637}",dining and drinking > restaurant > mexican restaurant > taco restaurant,1
529a4c3e11d2801058cc460e,Cecina Veronica,18.804168,-99.196567,,,,,,,,MX,2013-11-30,2020-11-24,,,,,,,,['4bf58dd8d48988d151941735'],['Dining and Drinking > Restaurant > Mexican Restaurant > Taco Restaurant'],b'\x00\x00\x00\x00\x01\xc0X\xcc\x94\x8d\xc1\x1eC@2\xcd\xdd\xf4<}_',"{'xmin': -99.196567, 'ymin': 18.804168, 'xmax': -99.196567, 'ymax': 18.804168}",dining and drinking > restaurant > mexican restaurant > taco restaurant,1
56b11c84498eef7fddab71fd,"""La candelaria"" taquitos y pozol.",16.249574,-92.144849,,,,,,,,MX,2016-02-02,2021-08-15,,,,,,,,['4bf58dd8d48988d151941735'],['Dining and Drinking > Restaurant > Mexican Restaurant > Taco Restaurant'],b'\x00\x00\x00\x00\x01\xc0W\tE4\xbdv\xee@0?\xe4\x14\xe7\xee\x91',"{'xmin': -92.144849, 'ymin': 16.249574, 'xmax': -92.144849, 'ymax': 16.249574}",dining and drinking > restaurant > mexican restaurant > taco restaurant,1
4d84213e5ad3a0933d1acafd,"Quesadillas ""Doña Rosa""",19.271065677410377,-99.1151378980185,Ahuejotes,Xochimilco,DF,,,,,MX,2011-03-19,2020-11-24,,,,,,,,['4bf58dd8d48988d151941735'],['Dining and Drinking > Restaurant > Mexican Restaurant > Taco Restaurant'],b'\x00\x00\x00\x00\x01\xc0X\xc7^kX\xa1B@3Ed\x8fk\x8b\xb0',"{'xmin': -99.1151378980185, 'ymin': 19.271065677410377, 'xmax': -99.1151378980185, 'ymax': 19.271065677410377}",dining and drinking > restaurant > mexican restaurant > taco restaurant,1
56a12703498e4df205095c29,mega quesadillas doña agus,19.704737,-101.184311,,,,,,,,MX,2016-01-21,2021-08-13,,,,,,,,['4bf58dd8d48988d151941735'],['Dining and Drinking > Restaurant > Mexican Restaurant > Taco Restaurant'],b'\x00\x00\x00\x00\x01\xc0YK\xcb\xc0]R\xc1@3\xb4i\xa4\xdfG\xfa',"{'xmin': -101.184311, 'ymin': 19.704737, 'xmax': -101.184311, 'ymax': 19.704737}",dining and drinking > restaurant > mexican restaurant > taco restaurant,1
517d257e498e5b406ed80717,tacos de cazuela la guera,17.066498715182245,-96.70229496891572,,,,,,,,MX,2013-04-28,2021-08-12,,,,,,,,['4bf58dd8d48988d151941735'],['Dining and Drinking > Restaurant > Mexican Restaurant > Taco Restaurant'],"b'\x00\x00\x00\x00\x01\xc0X,\xf2f\x98\xe8\xdb@1\x11\x06\x0fN\xef\x0b'","{'xmin': -96.70229496891572, 'ymin': 17.066498715182245, 'xmax': -96.70229496891572, 'ymax': 17.066498715182245}",dining and drinking > restaurant > mexican restaurant > taco restaurant,1
58081ca738fa09199ad0089e,Tacos Doña Rosy,16.246877,-92.140353,,,,,,,,MX,2016-10-20,2021-08-15,,,,,,,,['4bf58dd8d48988d151941735'],['Dining and Drinking > Restaurant > Mexican Restaurant > Taco Restaurant'],"b'\x00\x00\x00\x00\x01\xc0W\x08\xfb\x8b&9P@0?3T\xc1""u'","{'xmin': -92.140353, 'ymin': 16.246877, 'xmax': -92.140353, 'ymax': 16.246877}",dining and drinking > restaurant > mexican restaurant > taco restaurant,1
4f7c8819e4b0de4ca20cce2e,Birrieria La Barca,20.286551219210068,-102.55012553311323,,,,,,,,MX,2012-04-04,2021-08-16,,,,,,,,['4bf58dd8d48988d151941735'],['Dining and Drinking > Restaurant > Mexican Restaurant > Taco Restaurant'],"b'\x00\x00\x00\x00\x01\xc0Y\xa35A\xb9Z\x9e@4I[k\xb3""\xdc'","{'xmin': -102.55012553311323, 'ymin': 20.286551219210068, 'xmax': -102.55012553311323, 'ymax': 20.286551219210068}",dining and drinking > restaurant > mexican restaurant > taco restaurant,1
51302225e4b0feed1b725261,Lupita Tacos Estilo Apatzingán,19.72058289802732,-101.19214649321914,,Morelia,,,,,,MX,2013-03-01,2020-11-23,,,,,,,,['4bf58dd8d48988d151941735'],['Dining and Drinking > Restaurant > Mexican Restaurant > Taco Restaurant'],b'\x00\x00\x00\x00\x01\xc0YLL \xce\x1a\xb5@3\xb8x\x1e\xed\x15\x91',"{'xmin': -101.19214649321914, 'ymin': 19.72058289802732, 'xmax': -101.19214649321914, 'ymax': 19.72058289802732}",dining and drinking > restaurant > mexican restaurant > taco restaurant,1
505d14aee4b08dae9ad8c840,Villa Melon,19.308504079222292,-99.13613816152112,,,,,,,,MX,2012-09-22,2021-08-12,,,,,,,,['4bf58dd8d48988d151941735'],['Dining and Drinking > Restaurant > Mexican Restaurant > Taco Restaurant'],b'\x00\x00\x00\x00\x01\xc0X\xc8\xb6|\xd5\xde!@3N\xfa\x1f\x92\xf1=',"{'xmin': -99.13613816152112, 'ymin': 19.308504079222292, 'xmax': -99.13613816152112, 'ymax': 19.308504079222292}",dining and drinking > restaurant > mexican restaurant > taco restaurant,1
be00de0288d345082b59b77f,La Casa del Antojo,19.695885,-101.173331,General Nicolas Bravo 55,Morelia,Michoacán,58260,,,,MX,2013-04-12,2023-12-06,,443 314 0170,,,,,,['4bf58dd8d48988d151941735'],['Dining and Drinking > Restaurant > Mexican Restaurant > Taco Restaurant'],b'\x00\x00\x00\x00\x01\xc0YK\x17\xda\xe8\x18\x83@3\xb2%\x84\xf4\xc6\xe7',"{'xmin': -101.173331, 'ymin': 19.695885, 'xmax': -101.173331, 'ymax': 19.695885}",dining and drinking > restaurant > mexican restaurant > taco restaurant,1
59299443037be109d66a34ac,Taquería Chuy,19.524409,-102.415434,,Peribán de Ramos,MICH,60440,,,,MX,2017-05-27,2020-11-23,,,,,,,,['4bf58dd8d48988d151941735'],['Dining and Drinking > Restaurant > Mexican Restaurant > Taco Restaurant'],b'\x00\x00\x00\x00\x01\xc0Y\x9a\x96x|\xe9`@3\x86?\xab\x10\xbab',"{'xmin': -102.415434, 'ymin': 19.524409, 'xmax': -102.415434, 'ymax': 19.524409}",dining and drinking > restaurant > mexican restaurant > taco restaurant,1
53d99906498e616f1d75c896,Taco Loco,20.550812,-102.50646,,,,,,,,MX,2014-07-31,2021-08-11,,,,,,,,['4bf58dd8d48988d151941735'],['Dining and Drinking > Restaurant > Mexican Restaurant > Taco Restaurant'],b'\x00\x00\x00\x00\x01\xc0Y\xa0i\xd74.\xdc@4\x8d\x02\x03\xe6>\x8e',"{'xmin': -102.50646, 'ymin': 20.550812, 'xmax': -102.50646, 'ymax': 20.550812}",dining and drinking > restaurant > mexican restaurant > taco restaurant,1
4d30906810e9b1f76963bcf1,Hipocampo,19.302847,-99.122794,,,,,,,,MX,2011-01-14,2021-08-15,,,,,,,,['4bf58dd8d48988d151941735'],['Dining and Drinking > Restaurant > Mexican Restaurant > Taco Restaurant'],b'\x00\x00\x00\x00\x01\xc0X\xc7\xdb\xdb]\x89H@3M\x87a\x88\xb1\x14',"{'xmin': -99.122794, 'ymin': 19.302847, 'xmax': -99.122794, 'ymax': 19.302847}",dining and drinking > restaurant > mexican restaurant > taco restaurant,1
56834ea6498e44dec75a9cb3,Tacos Ruben,20.289674,-103.432837,,,,,,,,MX,2015-12-30,2021-08-14,,,,,,,,['4bf58dd8d48988d151941735'],['Dining and Drinking > Restaurant > Mexican Restaurant > Taco Restaurant'],b'\x00\x00\x00\x00\x01\xc0Y\xdb\xb3\x99\xf5\xdf\xec@4J(\x13D\x80c',"{'xmin': -103.432837, 'ymin': 20.289674, 'xmax': -103.432837, 'ymax': 20.289674}",dining and drinking > restaurant > mexican restaurant > taco restaurant,1
593b48008e886a4603cab0da,"Tacos De Asada ""La Imperial""",19.099443,-96.107034,Av. Via Muerta 13B,Boca del Río,VER,,,,,MX,2017-06-10,2020-11-25,,229 124 9985,,,,,,['4bf58dd8d48988d151941735'],['Dining and Drinking > Restaurant > Mexican Restaurant > Taco Restaurant'],"b'\x00\x00\x00\x00\x01\xc0X\x06\xd9\xa5""c\xd8@3\x19u\x18\xb0\xd0\xee'","{'xmin': -96.107034, 'ymin': 19.099443, 'xmax': -96.107034, 'ymax': 19.099443}",dining and drinking > restaurant > mexican restaurant > taco restaurant,1
55058a59498e87155272ca6a,la Tortuguita,17.077345,-96.742125,,,,,,,,MX,2015-03-15,2021-08-17,,,,,,,,['4bf58dd8d48988d151941735'],['Dining and Drinking > Restaurant > Mexican Restaurant > Taco Restaurant'],"b'\x00\x00\x00\x00\x01\xc0X/~\xf9\xdb""\xd1@1\x13\xcc\xe1\xc5\x82V'","{'xmin': -96.742125, 'ymin': 17.077345, 'xmax': -96.742125, 'ymax': 17.077345}",dining and drinking > restaurant > mexican restaurant > taco restaurant,1
5470d83a498e9bd69f039830,Taqueria el abuelo pig,17.534065297330212,-99.5019795615013,,,,,,,,MX,2014-11-22,2021-08-13,,,,,,,,['4bf58dd8d48988d151941735'],['Dining and Drinking > Restaurant > Mexican Restaurant > Taco Restaurant'],b'\x00\x00\x00\x00\x01\xc0X\xe0 n\xe1\xfa%@1\x88\xb8\x80\xd9\xf67',"{'xmin': -99.5019795615013, 'ymin': 17.534065297330212, 'xmax': -99.5019795615013, 'ymax': 17.534065297330212}",dining and drinking > restaurant > mexican restaurant > taco restaurant,1
60f9dd3212f44a3f30bcacea,Los Martinez Tacos,18.968905,-99.586636,"Paseo de los insurgentes 609, Centro, Tenancingo, Estado de Mexico",Tenancingo de Degollado,Edomex,52410,,,,MX,2021-07-22,2021-08-11,,714 140 8200,,,,,,['4bf58dd8d48988d151941735'],['Dining and Drinking > Restaurant > Mexican Restaurant > Taco Restaurant'],b'\x00\x00\x00\x00\x01\xc0X\xe5\x8bq\xb8\xaa\x00@2\xf8\n(w\xeeN',"{'xmin': -99.586636, 'ymin': 18.968905, 'xmax': -99.586636, 'ymax': 18.968905}",dining and drinking > restaurant > mexican restaurant > taco restaurant,1
4e2ceb69ae605c533a4798a6,Carnes asadas don chuy,19.702999529462474,-103.47749755911671,,Ciudad Guzmán,Jalisco,,,,,MX,2011-07-25,2020-11-25,,,,,,,,['4bf58dd8d48988d151941735'],['Dining and Drinking > Restaurant > Mexican Restaurant > Taco Restaurant'],b'\x00\x00\x00\x00\x01\xc0Y\xde\x8fQ\xec\x14\xdf@3\xb3\xf7\xc6\xf4%\x0c',"{'xmin': -103.47749755911671, 'ymin': 19.702999529462474, 'xmax': -103.47749755911671, 'ymax': 19.702999529462474}",dining and drinking > restaurant > mexican restaurant > taco restaurant,1
4fa5f238e4b0c1088ebb7868,La plazita,17.222494354522876,-100.63181604479797,Cancha municipal de usos multiples,Tecpan de Galeana,,,,,,MX,2012-05-06,2020-11-23,,,,,,,,['4bf58dd8d48988d151941735'],['Dining and Drinking > Restaurant > Mexican Restaurant > Taco Restaurant'],b'\x00\x00\x00\x00\x01\xc0Y(o\xac\x90_\xb4@18\xf5c\xd88k',"{'xmin': -100.63181604479797, 'ymin': 17.222494354522876, 'xmax': -100.63181604479797, 'ymax': 17.222494354522876}",dining and drinking > restaurant > mexican restaurant > taco restaurant,1
504d0df2e4b03e711fef0ea5,Plaza San Jose,19.270615417697886,-99.62957052275374,,,,,,,,MX,2012-09-09,2020-11-25,,,,,,,,['4bf58dd8d48988d151941735'],['Dining and Drinking > Restaurant > Mexican Restaurant > Taco Restaurant'],b'\x00\x00\x00\x00\x01\xc0X\xe8J\xe2)p0@3EG\rP\xceI',"{'xmin': -99.62957052275374, 'ymin': 19.270615417697886, 'xmax': -99.62957052275374, 'ymax': 19.270615417697886}",dining and drinking > restaurant > mexican restaurant > taco restaurant,1
