fsq_place_id,name,latitude,longitude,address,locality,region,postcode,admin_region,post_town,po_box,country,date_created,date_refreshed,date_closed,tel,website,email,facebook_id,instagram,twitter,fsq_category_ids,fsq_category_labels,geom,bbox,labels_str,taco_restaurant
4dba725f0437ffd207a4401b,Tacos Chely,32.497797716150544,-116.96426267623902,Blvd. Diaz Ordaz,Tijuana,BC,,,,,MX,2011-04-29,2020-11-23,,,,,,,,['4bf58dd8d48988d151941735'],['Dining and Drinking > Restaurant > Mexican Restaurant > Taco Restaurant'],b'\x00\x00\x00\x00\x01\xc0]=\xb6z\xcc\xcc\xcd@@?\xb7\xd5\xe7q\xee',"{'xmin': -116.96426267623902, 'ymin': 32.497797716150544, 'xmax': -116.96426267623902, 'ymax': 32.497797716150544}",dining and drinking > restaurant > mexican restaurant > taco restaurant,1
52428fa311d2e95707075667,Taquería El Torito Sinaloense.,31.851529184720814,-116.62197121246416,,,,,,,,MX,2013-09-25,2020-11-23,,,,,,,,['4bf58dd8d48988d151941735'],['Dining and Drinking > Restaurant > Mexican Restaurant > Taco Restaurant'],"b""\x00\x00\x00\x00\x01\xc0]'\xce`X%\x92@?\xd9\xfd\xd1\x0f\xf7'""","{'xmin': -116.62197121246416, 'ymin': 31.851529184720814, 'xmax': -116.62197121246416, 'ymax': 31.851529184720814}",dining and drinking > restaurant > mexican restaurant > taco restaurant,1
4dc8ca681f6e936efe4c04f2,La Chispa,31.856255514130414,-116.60857920020983,Av. López Mateos,Ensenada,Baja California,,,,,MX,2011-05-10,2020-11-22,,,,,,,,['4bf58dd8d48988d153941735' '4bf58dd8d48988d151941735'],"['Dining and Drinking > Restaurant > Mexican Restaurant > Burrito Restaurant'
 'Dining and Drinking > Restaurant > Mexican Restaurant > Taco Restaurant']","b'\x00\x00\x00\x00\x01\xc0]&\xf2\xf6,{U@?\xdb3\x8f\xb65\xb5'","{'xmin': -116.60857920020983, 'ymin': 31.856255514130414, 'xmax': -116.60857920020983, 'ymax': 31.856255514130414}","dining and drinking > restaurant > mexican restaurant > burrito restaurant, dining and drinking > restaurant > mexican restaurant > taco restaurant",1
4f621142e4b09a0648dd4339,Tortillas De Harina Sabrocitas Del Norte,32.629309,-115.452303,,,,,,,,MX,2012-03-15,2021-08-16,,,,,,,,['4bf58dd8d48988d151941735'],['Dining and Drinking > Restaurant > Mexican Restaurant > Taco Restaurant'],b'\x00\x00\x00\x00\x01\xc0\\\xdc\xf2\x88H8~@@P\x8d2\x83\n\x0b',"{'xmin': -115.452303, 'ymin': 32.629309, 'xmax': -115.452303, 'ymax': 32.629309}",dining and drinking > restaurant > mexican restaurant > taco restaurant,1
50c4f871e4b0b83e0a220579,Tacos Tito's Rosarito,32.3655789625042,-117.05473066714657,,,,,,,,MX,2012-12-09,2021-08-13,,,,,,,,['4bf58dd8d48988d151941735'],['Dining and Drinking > Restaurant > Mexican Restaurant > Taco Restaurant'],b'\x00\x00\x00\x00\x01\xc0]C\x80\xb5\x0e^\xe6@@.\xcbJ\x9c\x07\xd4',"{'xmin': -117.05473066714657, 'ymin': 32.3655789625042, 'xmax': -117.05473066714657, 'ymax': 32.3655789625042}",dining and drinking > restaurant > mexican restaurant > taco restaurant,1
500725a290e75e8ac687ece7,Tacos Eliu,32.6436571521246,-115.46012878417969,av. Francisco Mujica y calle I,Mexicali,Baja California,21030,,,,MX,2012-07-18,2021-12-22,,,,,,,,['4bf58dd8d48988d151941735'],['Dining and Drinking > Restaurant > Mexican Restaurant > Taco Restaurant'],b'\x00\x00\x00\x00\x01\xc0\\\xddr\xc0\x00\x00\x00@@Rc[\x89\x1b\x17',"{'xmin': -115.46012878417969, 'ymin': 32.6436571521246, 'xmax': -115.46012878417969, 'ymax': 32.6436571521246}",dining and drinking > restaurant > mexican restaurant > taco restaurant,1
4de9654581dc3bdd6df8bf3c,Tacos doña Irish,32.64630589614338,-115.45126185376341,Paseo de los Robles,Mexicali,Baja California,,,,,MX,2011-06-03,2020-11-23,,,,,,,,['4bf58dd8d48988d151941735'],['Dining and Drinking > Restaurant > Mexican Restaurant > Taco Restaurant'],b'\x00\x00\x00\x00\x01\xc0\\\xdc\xe1ye\xf6(@@R\xba&\xcf\x92\xeb',"{'xmin': -115.45126185376341, 'ymin': 32.64630589614338, 'xmax': -115.45126185376341, 'ymax': 32.64630589614338}",dining and drinking > restaurant > mexican restaurant > taco restaurant,1
4fc6765ae4b05ab8c3fd2efa,"Tacos De Birria ""El Novillo""",32.528464,-117.025751,,,,,,,,MX,2012-05-30,2021-08-11,,,,,,,,['4bf58dd8d48988d151941735'],['Dining and Drinking > Restaurant > Mexican Restaurant > Taco Restaurant'],b'\x00\x00\x00\x00\x01\xc0]A\xa5\xe7\x85\xb5\xb7@@C\xa4\xb5V\x8e\x82',"{'xmin': -117.025751, 'ymin': 32.528464, 'xmax': -117.025751, 'ymax': 32.528464}",dining and drinking > restaurant > mexican restaurant > taco restaurant,1
6366ad07bfda5f1fb99cdd24,Birrieria Rodríguez,32.43419,-117.032036,Paseo Alicante S/N,Pórticos De San Antonio,Baja California,22664,,,,MX,2022-11-05,2022-11-05,,,,,,,,['4bf58dd8d48988d151941735'],['Dining and Drinking > Restaurant > Mexican Restaurant > Taco Restaurant'],b'\x00\x00\x00\x00\x01\xc0]B\x0c\xe0\xb9\x12\xdc@@7\x93\x89\xb5 \x08',"{'xmin': -117.032036, 'ymin': 32.43419, 'xmax': -117.032036, 'ymax': 32.43419}",dining and drinking > restaurant > mexican restaurant > taco restaurant,1
4fed148de4b0099eb02006f7,Tacos El Guero,19.384706248632604,-103.56995171537636,,,,,,,,MX,2012-06-29,2021-08-14,,,,,,,,['4bf58dd8d48988d151941735'],['Dining and Drinking > Restaurant > Mexican Restaurant > Taco Restaurant'],b'\x00\x00\x00\x00\x01\xc0Y\xe4z\x16\xc2u\xcc@3b|\x1b\xd4q\xa2',"{'xmin': -103.56995171537636, 'ymin': 19.384706248632604, 'xmax': -103.56995171537636, 'ymax': 19.384706248632604}",dining and drinking > restaurant > mexican restaurant > taco restaurant,1
58e85bc0b3cdc87ded29ad51,Cocina La Esperanza,21.80942,-100.73064,Barrio de Santiago,Santa María del Río,San Luis Potosí,79560,,,,MX,2017-04-08,2020-11-23,,,,,,,,['4bf58dd8d48988d151941735'],['Dining and Drinking > Restaurant > Mexican Restaurant > Taco Restaurant'],"b'\x00\x00\x00\x00\x01\xc0Y.\xc2\xceFI\x90@5\xcf6&,\xbas'","{'xmin': -100.73064, 'ymin': 21.80942, 'xmax': -100.73064, 'ymax': 21.80942}",dining and drinking > restaurant > mexican restaurant > taco restaurant,1
4de5a9add4c09fc98b6e1d9f,Tacos y Quesadillas Doña Mony,20.628445,-105.212404,Barrio sta Maria,Puerto Vallarta,Jalisco,,,,,MX,2011-06-01,2020-11-21,,,,,,,,['4bf58dd8d48988d151941735'],['Dining and Drinking > Restaurant > Mexican Restaurant > Taco Restaurant'],b'\x00\x00\x00\x00\x01\xc0ZM\x98\x06\xf2b\x89@4\xa0\xe1\xc5\x82U\xb0',"{'xmin': -105.212404, 'ymin': 20.628445, 'xmax': -105.212404, 'ymax': 20.628445}",dining and drinking > restaurant > mexican restaurant > taco restaurant,1
5e3a21692ca8ce000701b139,Tacos De Tripa Y Costilla,21.113234,-101.70318,,León,Guanajuato,37410,,,,MX,2020-02-05,2020-11-23,,,,,,,,['4bf58dd8d48988d151941735'],['Dining and Drinking > Restaurant > Mexican Restaurant > Taco Restaurant'],b'\x00\x00\x00\x00\x01\xc0Ym\x00\xe6\xaf\xcc\xe2@5\x1c\xfc\xe7F\xcb\x96',"{'xmin': -101.70318, 'ymin': 21.113234, 'xmax': -101.70318, 'ymax': 21.113234}",dining and drinking > restaurant > mexican restaurant > taco restaurant,1
634196980f90f166436f5ad3,Tacos Jiménez,20.773417,-103.68594,,El Arenal,Jalisco,45350,,,,MX,2022-10-08,2022-10-08,,,,,,,,['4bf58dd8d48988d151941735'],['Dining and Drinking > Restaurant > Mexican Restaurant > Taco Restaurant'],b'\x00\x00\x00\x00\x01\xc0Y\xeb\xe6p\xe2\xc1+@4\xc5\xfe\xa8\x11+\xa1',"{'xmin': -103.68594, 'ymin': 20.773417, 'xmax': -103.68594, 'ymax': 20.773417}",dining and drinking > restaurant > mexican restaurant > taco restaurant,1
56265297498e161337b57d31,Pastor City,20.680230062181266,-103.38705590912006,,Guadalajara,Jalisco,,,,,MX,2015-10-20,2021-08-15,,,,,,,,['4bf58dd8d48988d151941735'],['Dining and Drinking > Restaurant > Mexican Restaurant > Taco Restaurant'],b'\x00\x00\x00\x00\x01\xc0Y\xd8\xc5\x86%\xd9;@4\xae#\x8e\xae\xd3\x18',"{'xmin': -103.38705590912006, 'ymin': 20.680230062181266, 'xmax': -103.38705590912006, 'ymax': 20.680230062181266}",dining and drinking > restaurant > mexican restaurant > taco restaurant,1
4ea57fa502d529c117e0261c,Tacos El Moco,20.648606584373812,-105.23909958618802,,Puerto Vallarta,JAL,,,,,MX,2011-10-24,2020-11-25,,,,,,,,['4bf58dd8d48988d151941735'],['Dining and Drinking > Restaurant > Mexican Restaurant > Taco Restaurant'],b'\x00\x00\x00\x00\x01\xc0ZOMhY\xca\x8a@4\xa6\x0b\x14\xc3\xdb\x15',"{'xmin': -105.23909958618802, 'ymin': 20.648606584373812, 'xmax': -105.23909958618802, 'ymax': 20.648606584373812}",dining and drinking > restaurant > mexican restaurant > taco restaurant,1
5084c45be4b093287d70dd77,Los carnales,21.85413014979378,-102.31743335723877,,,,,,,,MX,2012-10-22,2021-08-15,,,,,,,,['4bf58dd8d48988d151941735'],['Dining and Drinking > Restaurant > Mexican Restaurant > Taco Restaurant'],b'\x00\x00\x00\x00\x01\xc0Y\x94P\xd4\x00\x00\x00@5\xda\xa8F\x03\xe4Q',"{'xmin': -102.31743335723877, 'ymin': 21.85413014979378, 'xmax': -102.31743335723877, 'ymax': 21.85413014979378}",dining and drinking > restaurant > mexican restaurant > taco restaurant,1
517f2d72e4b064ade1a1a69a,Tacos Bros,20.672319,-101.357011,,,,,,,,MX,2013-04-30,2021-08-13,,,,,,,,['4bf58dd8d48988d151941735'],['Dining and Drinking > Restaurant > Mexican Restaurant > Taco Restaurant'],b'\x00\x00\x00\x00\x01\xc0YV\xd9D\xaaS\xfc@4\xac\x1d\x19\x15z\xbc',"{'xmin': -101.357011, 'ymin': 20.672319, 'xmax': -101.357011, 'ymax': 20.672319}",dining and drinking > restaurant > mexican restaurant > taco restaurant,1
52f7bcc0498e618c00b9e89f,Taquería el Trébol,20.630146,-103.266115,,,,,,,,MX,2014-02-09,2021-08-10,,,,,,,,['4bf58dd8d48988d151941735'],['Dining and Drinking > Restaurant > Mexican Restaurant > Taco Restaurant'],b'\x00\x00\x00\x00\x01\xc0Y\xd1\x08\x075~g@4\xa1Q?\x8d\xb4\x89',"{'xmin': -103.266115, 'ymin': 20.630146, 'xmax': -103.266115, 'ymax': 20.630146}",dining and drinking > restaurant > mexican restaurant > taco restaurant,1
55858d37498e5649f3aed140,Pinches Tacos,20.729031516352848,-103.36795422379565,Gral. Manuel M. Dieguez,Zapopan,Jalisco,,,,,MX,2015-06-20,2020-11-23,,,,,,,,['4bf58dd8d48988d151941735'],['Dining and Drinking > Restaurant > Mexican Restaurant > Taco Restaurant'],"b""\x00\x00\x00\x00\x01\xc0Y\xd7\x8c\x8f\xdfh'@4\xba\xa1\xcf8} ""","{'xmin': -103.36795422379565, 'ymin': 20.729031516352848, 'xmax': -103.36795422379565, 'ymax': 20.729031516352848}",dining and drinking > restaurant > mexican restaurant > taco restaurant,1
4f963105e4b0d66800024539,tacos de la esquina,19.689810820214177,-101.29987245855853,villas de la loma,,,,,,,MX,2012-04-24,2020-11-30,,,,,,,,['4bf58dd8d48988d151941735'],['Dining and Drinking > Restaurant > Mexican Restaurant > Taco Restaurant'],b'\x00\x00\x00\x00\x01\xc0YS1\x1c@\x9e\xb8@3\xb0\x97q!?0',"{'xmin': -101.29987245855853, 'ymin': 19.689810820214177, 'xmax': -101.29987245855853, 'ymax': 19.689810820214177}",dining and drinking > restaurant > mexican restaurant > taco restaurant,1
561da9c8498e2e37b1209c17,Taqueria Lopez,21.01476119819625,-101.27487318316622,,,,,,,,MX,2015-10-14,2021-08-13,,,,,,,,['4bf58dd8d48988d151941735'],['Dining and Drinking > Restaurant > Mexican Restaurant > Taco Restaurant'],b'\x00\x00\x00\x00\x01\xc0YQ\x97\x85\xb1\x0f\xc4@5\x03\xc7c\xcf\x80\xaf',"{'xmin': -101.27487318316622, 'ymin': 21.01476119819625, 'xmax': -101.27487318316622, 'ymax': 21.01476119819625}",dining and drinking > restaurant > mexican restaurant > taco restaurant,1
4ee6bc84e30005f8ba05e9e0,Taquería Luis,20.72193,-103.393585,Av. Hidalgo 221,Zapopan,,45100,,,,MX,2011-12-13,2020-11-23,,,,,,,,['4bf58dd8d48988d151941735'],['Dining and Drinking > Restaurant > Mexican Restaurant > Taco Restaurant'],b'\x00\x00\x00\x00\x01\xc0Y\xd90\x7f#\xcc\x8e@4\xb8\xd0g\x8c\x00T',"{'xmin': -103.393585, 'ymin': 20.72193, 'xmax': -103.393585, 'ymax': 20.72193}",dining and drinking > restaurant > mexican restaurant > taco restaurant,1
4f37400ee4b0cc4ce357758f,Tacos Universidad,19.68218171890066,-101.1990604054389,Av. Universidad,,,,,,,MX,2012-02-12,2021-08-12,,,,,,,,['4bf58dd8d48988d151941735'],['Dining and Drinking > Restaurant > Mexican Restaurant > Taco Restaurant'],b'\x00\x00\x00\x00\x01\xc0YL\xbdg\xda\xd2x@3\xae\xa3v\x0c\x9b\x7f',"{'xmin': -101.1990604054389, 'ymin': 19.68218171890066, 'xmax': -101.1990604054389, 'ymax': 19.68218171890066}",dining and drinking > restaurant > mexican restaurant > taco restaurant,1
513e31b5e4b0d3edc7868a3e,"Tacos ""El Güero Pely y Tito""",20.6964445589804,-103.37265322118894,AV Jorge Alvares Del Castillo,,,,,,,MX,2013-03-11,2021-08-13,,,,,,,,['4bf58dd8d48988d151941735'],['Dining and Drinking > Restaurant > Mexican Restaurant > Taco Restaurant'],b'\x00\x00\x00\x00\x01\xc0Y\xd7\xd9\x8c\xe5p[@4\xb2J0\xccLG',"{'xmin': -103.37265322118894, 'ymin': 20.6964445589804, 'xmax': -103.37265322118894, 'ymax': 20.6964445589804}",dining and drinking > restaurant > mexican restaurant > taco restaurant,1
336c44f23fd74609ed349f46,Tacos y Salsas,19.332638,-103.601881,Calzada 16 de Sept 39 s/n,Cuauhtémoc,Chihuahua,31500,,,,MX,2010-11-04,2023-12-06,,625 581 3666,http://tacosytacosweb.miadn.mx,mary_loya@hotmail.com,,,,['4bf58dd8d48988d151941735'],['Dining and Drinking > Restaurant > Mexican Restaurant > Taco Restaurant'],"b""\x00\x00\x00\x00\x01\xc0Y\xe6\x857\xe2\xc5]@3U'\xc3\x93h'""","{'xmin': -103.601881, 'ymin': 19.332638, 'xmax': -103.601881, 'ymax': 19.332638}",dining and drinking > restaurant > mexican restaurant > taco restaurant,1
50cb61f0e4b044ef5f89df1a,Tacos de ollita sin nombre,20.659903,-101.34991,,,,,,,,MX,2012-12-14,2021-08-13,,,,,,,,['4bf58dd8d48988d151941735'],['Dining and Drinking > Restaurant > Mexican Restaurant > Taco Restaurant'],b'\x00\x00\x00\x00\x01\xc0YVd\xec\xe9\xa2\xc6@4\xa8\xefg+\x88D',"{'xmin': -101.34991, 'ymin': 20.659903, 'xmax': -101.34991, 'ymax': 20.659903}",dining and drinking > restaurant > mexican restaurant > taco restaurant,1
561c1698498e2a8bc16ccd6a,Carnitas La Tita,19.25648,-103.723973,Calzada De La Armonía,Colima,Colima,,,,,MX,2015-10-12,2020-11-30,,,,,,,,['4bf58dd8d48988d151941735'],['Dining and Drinking > Restaurant > Mexican Restaurant > Taco Restaurant'],b'\x00\x00\x00\x00\x01\xc0Y\xeeU\x92\xd9\x8b\xf8@3A\xa8\xac\\\x13\xfd',"{'xmin': -103.723973, 'ymin': 19.25648, 'xmax': -103.723973, 'ymax': 19.25648}",dining and drinking > restaurant > mexican restaurant > taco restaurant,1
56872557498e46899112de97,Taqueria Doña MARÍA,21.505308977061798,-103.55591840447654,Libertad,Florencia De Benito Juarez,Zacatecas,99780,,,,MX,2016-01-02,2020-11-24,,,,,,,,['4bf58dd8d48988d151941735'],['Dining and Drinking > Restaurant > Mexican Restaurant > Taco Restaurant'],b'\x00\x00\x00\x00\x01\xc0Y\xe3\x94*\xc9\x9e)@5\x81[\xed\xda\xdb\x0b',"{'xmin': -103.55591840447654, 'ymin': 21.505308977061798, 'xmax': -103.55591840447654, 'ymax': 21.505308977061798}",dining and drinking > restaurant > mexican restaurant > taco restaurant,1
521508bd11d2b2217311f4ed,Tacos Alma,20.739623,-103.382393,,,,,,,,MX,2013-08-21,2021-08-19,,,,,,,,['4bf58dd8d48988d151941735'],['Dining and Drinking > Restaurant > Mexican Restaurant > Taco Restaurant'],b'\x00\x00\x00\x00\x01\xc0Y\xd8y }N\t@4\xbdW\xee\xd4^\x92',"{'xmin': -103.382393, 'ymin': 20.739623, 'xmax': -103.382393, 'ymax': 20.739623}",dining and drinking > restaurant > mexican restaurant > taco restaurant,1
5659cf7e498e91d789bdb076,Birrieria Renteria II,20.676845,-105.225123,,,,,,,,MX,2015-11-28,2021-08-12,,,,,,,,['4bf58dd8d48988d151941735'],['Dining and Drinking > Restaurant > Mexican Restaurant > Taco Restaurant'],b'\x00\x00\x00\x00\x01\xc0ZNhjL\xa4\xf4@4\xadE\xb6\xc3v\x0c',"{'xmin': -105.225123, 'ymin': 20.676845, 'xmax': -105.225123, 'ymax': 20.676845}",dining and drinking > restaurant > mexican restaurant > taco restaurant,1
50d3edbde4b071e6376797b2,"Tacos De Asada ""Sergio""",20.689954338140677,-103.34388033867526,,Guadalajara,,,,,,MX,2012-12-21,2021-08-16,,,,,,,,['4bf58dd8d48988d151941735'],['Dining and Drinking > Restaurant > Mexican Restaurant > Taco Restaurant'],"b'\x00\x00\x00\x00\x01\xc0Y\xd6\x02""\xae\x16@@4\xb0\xa0\xd8\xf6\x0c+'","{'xmin': -103.34388033867526, 'ymin': 20.689954338140677, 'xmax': -103.34388033867526, 'ymax': 20.689954338140677}",dining and drinking > restaurant > mexican restaurant > taco restaurant,1
50256460e4b0c36f478f25e6,Ricas Carnitas La Perla,20.802662,-103.457262,,,,,,,,MX,2012-08-10,2020-11-23,,,,,,,,['4bf58dd8d48988d151941735'],['Dining and Drinking > Restaurant > Mexican Restaurant > Taco Restaurant'],b'\x00\x00\x00\x00\x01\xc0Y\xddC\xc7\xd5\xed\x07@4\xcd{A\xbf\xbd\xf1',"{'xmin': -103.457262, 'ymin': 20.802662, 'xmax': -103.457262, 'ymax': 20.802662}",dining and drinking > restaurant > mexican restaurant > taco restaurant,1
4fa1ea48e4b07ed2180962ad,Los 3 Gallos,20.72221,-103.394749,Hidalgo 359,Zapopan,Jalisco,,,,,MX,2012-05-03,2020-11-23,,,,,,,,['4bf58dd8d48988d151941735'],['Dining and Drinking > Restaurant > Mexican Restaurant > Taco Restaurant'],b'\x00\x00\x00\x00\x01\xc0Y\xd9C\x91OH=@4\xb8\xe2\xc1*\xd8\x1b',"{'xmin': -103.394749, 'ymin': 20.72221, 'xmax': -103.394749, 'ymax': 20.72221}",dining and drinking > restaurant > mexican restaurant > taco restaurant,1
53e3c3aa498e7e12b27429ae,gorditas doña tere,20.543644037108965,-101.20338736434489,,,,,,,,MX,2014-08-07,2021-08-12,,,,,,,,['4bf58dd8d48988d151941735'],['Dining and Drinking > Restaurant > Mexican Restaurant > Taco Restaurant'],"b'\x00\x00\x00\x00\x01\xc0YM\x04Lo\x91\xfb@4\x8b,Ap\x0ce'","{'xmin': -101.20338736434489, 'ymin': 20.543644037108965, 'xmax': -101.20338736434489, 'ymax': 20.543644037108965}",dining and drinking > restaurant > mexican restaurant > taco restaurant,1
561b0af1498ed81f44abb0d1,Tacos Don Bigotes,21.906749725341797,-102.2801284790039,Manglar 106,Aguascalientes,aguascalientes,,,,,MX,2015-10-12,2020-11-30,,,,,,,,['4bf58dd8d48988d151941735'],['Dining and Drinking > Restaurant > Mexican Restaurant > Taco Restaurant'],b'\x00\x00\x00\x00\x01\xc0Y\x91\xed\xa0\x00\x00\x00@5\xe8 \xc0\x00\x00\x00',"{'xmin': -102.2801284790039, 'ymin': 21.906749725341797, 'xmax': -102.2801284790039, 'ymax': 21.906749725341797}",dining and drinking > restaurant > mexican restaurant > taco restaurant,1
558e10e7498e84b2d412091c,La Iguana Loca,19.079227704861353,-104.30559577368047,,,,,,,,MX,2015-06-27,2023-12-20,,314 137 2888,,,,,,['4bf58dd8d48988d151941735'],['Dining and Drinking > Restaurant > Mexican Restaurant > Taco Restaurant'],b'\x00\x00\x00\x00\x01\xc0Z\x13\x8e\xe1\x93p8@3\x14HDQQ\x10',"{'xmin': -104.30559577368047, 'ymin': 19.079227704861353, 'xmax': -104.30559577368047, 'ymax': 19.079227704861353}",dining and drinking > restaurant > mexican restaurant > taco restaurant,1
57fd7581498efbce09bdaa09,Takissimo,20.667194,-103.424495,,,,,,,,MX,2016-10-11,2021-08-15,,,,,,,,['4bf58dd8d48988d151941735'],['Dining and Drinking > Restaurant > Mexican Restaurant > Taco Restaurant'],b'\x00\x00\x00\x00\x01\xc0Y\xdb*\xed\x13\x941@4\xaa\xcd9\xda\x16a',"{'xmin': -103.424495, 'ymin': 20.667194, 'xmax': -103.424495, 'ymax': 20.667194}",dining and drinking > restaurant > mexican restaurant > taco restaurant,1
4fb5cca9e4b06643ffdb388e,Taquería La Penca,21.628579,-102.977051,,,,,,,,MX,2012-05-18,2021-08-12,,,,,,,,['4bf58dd8d48988d151941735'],['Dining and Drinking > Restaurant > Mexican Restaurant > Taco Restaurant'],b'\x00\x00\x00\x00\x01\xc0Y\xbe\x88\x00\xea\xe1\x8b@5\xa0\xea\x8d\xa7\xf3\xcf',"{'xmin': -102.977051, 'ymin': 21.628579, 'xmax': -102.977051, 'ymax': 21.628579}",dining and drinking > restaurant > mexican restaurant > taco restaurant,1
4d9a09dfa2c6548117941554,Canasti-taco,19.68551512434395,-101.19189757113506,,,,,,,,MX,2011-04-04,2021-08-11,,,,,,,,['4bf58dd8d48988d151941735'],['Dining and Drinking > Restaurant > Mexican Restaurant > Taco Restaurant'],b'\x00\x00\x00\x00\x01\xc0YLH\x0c\xc0\r>@3\xaf}\xebO\xf8|',"{'xmin': -101.19189757113506, 'ymin': 19.68551512434395, 'xmax': -101.19189757113506, 'ymax': 19.68551512434395}",dining and drinking > restaurant > mexican restaurant > taco restaurant,1
4d2a0032c406721ef40180b6,El Güero Alteño,20.728083033694226,-103.41263948913219,Santa Esther,Zapopan,,,,,,MX,2011-01-09,2024-01-02,,33 3833 2208,http://www.elgueroalteno.com,,,,,['4bf58dd8d48988d151941735'],['Dining and Drinking > Restaurant > Mexican Restaurant > Taco Restaurant'],b'\x00\x00\x00\x00\x01\xc0Y\xdah\xafu\xb7\x19@4\xbac\xa6R}:',"{'xmin': -103.41263948913219, 'ymin': 20.728083033694226, 'xmax': -103.41263948913219, 'ymax': 20.728083033694226}",dining and drinking > restaurant > mexican restaurant > taco restaurant,1
5053f486e4b088edb0b80c61,Tacos Versalles,20.635742601973696,-105.2283742462142,Francia,Puerto Vallarta,Jalisco,,,,,MX,2012-09-15,2023-12-20,,322 779 7388,,,,,,['4bf58dd8d48988d151941735'],['Dining and Drinking > Restaurant > Mexican Restaurant > Taco Restaurant'],b'\x00\x00\x00\x00\x01\xc0ZN\x9d\xaf\x03\xafF@4\xa2\xc0\x06\xf4&\xa6',"{'xmin': -105.2283742462142, 'ymin': 20.635742601973696, 'xmax': -105.2283742462142, 'ymax': 20.635742601973696}",dining and drinking > restaurant > mexican restaurant > taco restaurant,1
57c06df7498e806b071ae286,"Tacos ""De la orgullosa""",21.475175,-104.862096,Avenida tecnológico,Tepic,Nayarit,,,,,MX,2016-08-26,2020-11-30,,,,,,,,['4bf58dd8d48988d151941735'],['Dining and Drinking > Restaurant > Mexican Restaurant > Taco Restaurant'],"b'\x00\x00\x00\x00\x01\xc0Z7,\x94\xb3\x80\xcb@5y\xa5\x11\x9c\xe0v'","{'xmin': -104.862096, 'ymin': 21.475175, 'xmax': -104.862096, 'ymax': 21.475175}",dining and drinking > restaurant > mexican restaurant > taco restaurant,1
4fae9067e4b08885ff55f485,Cabeza de Res,20.639788101327575,-103.41749701286105,,,,,,,,MX,2012-05-12,2021-08-16,,,,,,,,['4bf58dd8d48988d151941735'],['Dining and Drinking > Restaurant > Mexican Restaurant > Taco Restaurant'],"b""\x00\x00\x00\x00\x01\xc0Y\xda\xb8Ed\x1a\x9e@4\xa3\xc9'+\x92f""","{'xmin': -103.41749701286105, 'ymin': 20.639788101327575, 'xmax': -103.41749701286105, 'ymax': 20.639788101327575}",dining and drinking > restaurant > mexican restaurant > taco restaurant,1
538356bd498e1b7adfcb50e4,Tacos el rastro CUCEA,20.72151204980035,-103.37521997361162,,,,,,,,MX,2014-05-26,2021-08-13,,,,,,,,['4bf58dd8d48988d151941735'],['Dining and Drinking > Restaurant > Mexican Restaurant > Taco Restaurant'],b'\x00\x00\x00\x00\x01\xc0Y\xd8\x03\x9a\xa2\xdd\xf2@4\xb8\xb5\x03\x81\x8f\xfb',"{'xmin': -103.37521997361162, 'ymin': 20.72151204980035, 'xmax': -103.37521997361162, 'ymax': 20.72151204980035}",dining and drinking > restaurant > mexican restaurant > taco restaurant,1
507eba65e4b058f60a2bea67,Tacos El greco,20.684295,-103.392126,,,,,,,,MX,2012-10-17,2021-08-11,,,,,,,,['4bf58dd8d48988d151941735'],['Dining and Drinking > Restaurant > Mexican Restaurant > Taco Restaurant'],b'\x00\x00\x00\x00\x01\xc0Y\xd9\x18\x97\xa6zS@4\xaf-\xf5\x05\xd0\xfa',"{'xmin': -103.392126, 'ymin': 20.684295, 'xmax': -103.392126, 'ymax': 20.684295}",dining and drinking > restaurant > mexican restaurant > taco restaurant,1
512822f4e4b0929510bdacdc,Tacos De Pastor El Campeon,20.655994,-105.219959,,,,,,,,MX,2013-02-23,2021-08-11,,,,,,,,['4bf58dd8d48988d151941735'],['Dining and Drinking > Restaurant > Mexican Restaurant > Taco Restaurant'],b'\x00\x00\x00\x00\x01\xc0ZN\x13\xce\xe9\xdd\x7f@4\xa7\xef9\x08_J',"{'xmin': -105.219959, 'ymin': 20.655994, 'xmax': -105.219959, 'ymax': 20.655994}",dining and drinking > restaurant > mexican restaurant > taco restaurant,1
55d7c5bb498eef1f7c16a4d7,Tacos El trompo,20.795961,-103.478064,,,,,,,,MX,2015-08-22,2020-11-23,,,,,,,,['4bf58dd8d48988d151941735'],['Dining and Drinking > Restaurant > Mexican Restaurant > Taco Restaurant'],b'\x00\x00\x00\x00\x01\xc0Y\xde\x98\x99\xbfYG@4\xcb\xc4\x19\x9f\xe46',"{'xmin': -103.478064, 'ymin': 20.795961, 'xmax': -103.478064, 'ymax': 20.795961}",dining and drinking > restaurant > mexican restaurant > taco restaurant,1
51ad5b27498eb07b8cc3b63e,Sabor Maria,20.64196,-105.215086,,,,,,,,MX,2013-06-04,2021-08-16,,,,,,,,['4bf58dd8d48988d151941735'],['Dining and Drinking > Restaurant > Mexican Restaurant > Taco Restaurant'],b'\x00\x00\x00\x00\x01\xc0ZM\xc3\xf8\x11\xf4\xf5@4\xa4W}\x95W\x15',"{'xmin': -105.215086, 'ymin': 20.64196, 'xmax': -105.215086, 'ymax': 20.64196}",dining and drinking > restaurant > mexican restaurant > taco restaurant,1
5a925c63018cbb7b7cdf6abb,Tacos El Primo,20.627237,-103.279396,,San Pedro Tlaquepaque,Jalisco,45407,,,,MX,2018-02-25,2020-11-25,,,,,,,,['4bf58dd8d48988d151941735'],['Dining and Drinking > Restaurant > Mexican Restaurant > Taco Restaurant'],b'\x00\x00\x00\x00\x01\xc0Y\xd1\xe1\x9f\xc2\xa8\x87@4\xa0\x92\x9a\xa1\xd7V',"{'xmin': -103.279396, 'ymin': 20.627237, 'xmax': -103.279396, 'ymax': 20.627237}",dining and drinking > restaurant > mexican restaurant > taco restaurant,1
5333a37611d2760842463f2e,Taqueria Nico's,19.777324,-104.36681,J Encarnación Rosas,Autlan,Jalisco,,,,,MX,2014-03-27,2020-11-23,,,,,,,,['4bf58dd8d48988d151941735'],['Dining and Drinking > Restaurant > Mexican Restaurant > Taco Restaurant'],b'\x00\x00\x00\x00\x01\xc0Z\x17y\xd0\xa6v!@3\xc6\xfe\xb4\xa6eZ',"{'xmin': -104.36681, 'ymin': 19.777324, 'xmax': -104.36681, 'ymax': 19.777324}",dining and drinking > restaurant > mexican restaurant > taco restaurant,1
4e801f95f5b97ae124bab00d,Tacos Don Saul,22.149768,-100.98251,,San Luis Potosí,San Luis Potosí,,,,,MX,2011-09-26,2020-11-30,,,,,,,,['4bf58dd8d48988d151941735'],['Dining and Drinking > Restaurant > Mexican Restaurant > Taco Restaurant'],b'\x00\x00\x00\x00\x01\xc0Y>\xe1q\x9f\x7f\x8d@6&W2\x15\xfc\xc2',"{'xmin': -100.98251, 'ymin': 22.149768, 'xmax': -100.98251, 'ymax': 22.149768}",dining and drinking > restaurant > mexican restaurant > taco restaurant,1
52116c6311d29165ee7f4d72,Takonmadres,21.876243105192923,-102.28142033675583,Héroes De Nacozari,Aguascalientes,,,,,,MX,2013-08-19,2020-11-22,,,,,,,,['4bf58dd8d48988d151941735'],['Dining and Drinking > Restaurant > Mexican Restaurant > Taco Restaurant'],b'\x00\x00\x00\x00\x01\xc0Y\x92\x02\xcaq\xb2\xeb@5\xe0Qw\xd8&+',"{'xmin': -102.28142033675583, 'ymin': 21.876243105192923, 'xmax': -102.28142033675583, 'ymax': 21.876243105192923}",dining and drinking > restaurant > mexican restaurant > taco restaurant,1
4fdd3a6de4b0767cc72700f7,Taqueria Los Güeros,21.10234,-101.65435,,,,,,,,MX,2012-06-17,2021-08-14,,,,,,,,['4bf58dd8d48988d151941735'],['Dining and Drinking > Restaurant > Mexican Restaurant > Taco Restaurant'],b'\x00\x00\x00\x00\x01\xc0Yi\xe0\xde\xd2\x88\xce@5\x1a2\xf4I\x12\x99',"{'xmin': -101.65435, 'ymin': 21.10234, 'xmax': -101.65435, 'ymax': 21.10234}",dining and drinking > restaurant > mexican restaurant > taco restaurant,1
5777ee55498e5a7c110905d2,Birriería la parota,20.684599,-105.227784,,,,,,,,MX,2016-07-02,2021-08-15,,,,,,,,['4bf58dd8d48988d151941735'],['Dining and Drinking > Restaurant > Mexican Restaurant > Taco Restaurant'],b'\x00\x00\x00\x00\x01\xc0ZN\x94\x03W\xa3U@4\xafA\xe1K\xdf\xd2',"{'xmin': -105.227784, 'ymin': 20.684599, 'xmax': -105.227784, 'ymax': 20.684599}",dining and drinking > restaurant > mexican restaurant > taco restaurant,1
64b8a59efd70e16e7f278f75,Tacos El Comal Del Negro,20.76541,-103.417983,,Zapopan,JAL,45134,,,,MX,2023-07-20,2023-07-20,,,,,,,,['4bf58dd8d48988d151941735'],['Dining and Drinking > Restaurant > Mexican Restaurant > Taco Restaurant'],b'\x00\x00\x00\x00\x01\xc0Y\xda\xc0;\xc4\xd2-@4\xc3\xf1\xe8\xe6\x08\x07',"{'xmin': -103.417983, 'ymin': 20.76541, 'xmax': -103.417983, 'ymax': 20.76541}",dining and drinking > restaurant > mexican restaurant > taco restaurant,1
4f637a66e4b0dc771f16322f,Quesadillas El Güero,21.118206306550494,-101.64175823165442,,Leon de los Aldama,,Gto,,,,MX,2012-03-16,2020-11-23,,,,,,,,['4bf58dd8d48988d151941735'],['Dining and Drinking > Restaurant > Mexican Restaurant > Taco Restaurant'],b'\x00\x00\x00\x00\x01\xc0Yi\x12\x91\x1e9@@5\x1eB\xc4\xbc\xd0\xb9',"{'xmin': -101.64175823165442, 'ymin': 21.118206306550494, 'xmax': -101.64175823165442, 'ymax': 21.118206306550494}",dining and drinking > restaurant > mexican restaurant > taco restaurant,1
4beaf7806295c9b6f6198708,Taqueria el pionero,19.680888,-101.198222,,,,,,,,MX,2010-05-12,2021-08-11,,,,,,,,['4bf58dd8d48988d151941735'],['Dining and Drinking > Restaurant > Mexican Restaurant > Taco Restaurant'],b'\x00\x00\x00\x00\x01\xc0YL\xaf\xabS\xd6A@3\xaeN\xad\x0c=%',"{'xmin': -101.198222, 'ymin': 19.680888, 'xmax': -101.198222, 'ymax': 19.680888}",dining and drinking > restaurant > mexican restaurant > taco restaurant,1
4f512a13e4b0d0be9026d689,Kokoritos,20.702777,-103.377662,Av. Providencia 2393,Guadalajara,Jalisco,,,,,MX,2012-03-02,2021-08-13,,33 1202 5937,,,,,,['4bf58dd8d48988d151941735'],['Dining and Drinking > Restaurant > Mexican Restaurant > Taco Restaurant'],b'\x00\x00\x00\x00\x01\xc0Y\xd8+\x9d<\xbcI@4\xb3\xe91\x87a\x89',"{'xmin': -103.377662, 'ymin': 20.702777, 'xmax': -103.377662, 'ymax': 20.702777}",dining and drinking > restaurant > mexican restaurant > taco restaurant,1
526c5d89498ea7e215e2e25a,gorditas Don cuco,20.90472890166557,-100.74858859897043,,,,,,,,MX,2013-10-27,2021-08-11,,,,,,,,['4bf58dd8d48988d151941735'],['Dining and Drinking > Restaurant > Mexican Restaurant > Taco Restaurant'],"b'\x00\x00\x00\x00\x01\xc0Y/\xe8\xe0\'\xaf""@4\xe7\x9cP4fN'","{'xmin': -100.74858859897043, 'ymin': 20.90472890166557, 'xmax': -100.74858859897043, 'ymax': 20.90472890166557}",dining and drinking > restaurant > mexican restaurant > taco restaurant,1
4d1d98252eb1f04dfff5d7c1,Taquería El Chino,19.24545261463153,-103.71012372970944,Blvd. Camino Real 98,Colima,COL,,,,,MX,2010-12-31,2023-12-20,,312 330 8750,,,,,,['4bf58dd8d48988d151941735' '4bf58dd8d48988d153941735'],"['Dining and Drinking > Restaurant > Mexican Restaurant > Taco Restaurant'
 'Dining and Drinking > Restaurant > Mexican Restaurant > Burrito Restaurant']",b'\x00\x00\x00\x00\x01\xc0Y\xedr\xaa\xcc\xcd\xcc@3>\xd5\xfb\x88\x8fd',"{'xmin': -103.71012372970944, 'ymin': 19.24545261463153, 'xmax': -103.71012372970944, 'ymax': 19.24545261463153}","dining and drinking > restaurant > mexican restaurant > taco restaurant, dining and drinking > restaurant > mexican restaurant > burrito restaurant",1
62db69735c7612699f55d51a,Tacos Chalio,20.704024,-103.294433,Hacienda Del Carmen 2185,Guadalajara,JAL,44400,,,,MX,2022-07-23,2022-07-23,,,,,,,,['4bf58dd8d48988d151941735'],['Dining and Drinking > Restaurant > Mexican Restaurant > Taco Restaurant'],b'\x00\x00\x00\x00\x01\xc0Y\xd2\xd7\xfd\x82w>@4\xb4:\xea\xb7\x99_',"{'xmin': -103.294433, 'ymin': 20.704024, 'xmax': -103.294433, 'ymax': 20.704024}",dining and drinking > restaurant > mexican restaurant > taco restaurant,1
5497868a498ec92863228b29,Tacos Danny,20.620557094247506,-103.07399848910651,Obregón,Zapotlanejo,Jalisco,45430,,,,MX,2014-12-22,2020-11-24,,,,,,,,['4bf58dd8d48988d151941735'],['Dining and Drinking > Restaurant > Mexican Restaurant > Taco Restaurant'],b'\x00\x00\x00\x00\x01\xc0Y\xc4\xbcd(\xaa\x9e@4\x9e\xdc\xd4i\x18\x05',"{'xmin': -103.07399848910651, 'ymin': 20.620557094247506, 'xmax': -103.07399848910651, 'ymax': 20.620557094247506}",dining and drinking > restaurant > mexican restaurant > taco restaurant,1
562a567c498eef10bf2eeca5,El Cortijo Birriería y Taquería,21.935576,-102.323979,Blvd Miguel de la Madrid,Aguascalientes,Aguascalientes,,,,,MX,2015-10-23,2020-11-25,,,,,,,,['4bf58dd8d48988d151941735'],['Dining and Drinking > Restaurant > Mexican Restaurant > Taco Restaurant'],b'\x00\x00\x00\x00\x01\xc0Y\x94\xbc\x12je\xcf@5\xef\x81\xe8\xa2\xec)',"{'xmin': -102.323979, 'ymin': 21.935576, 'xmax': -102.323979, 'ymax': 21.935576}",dining and drinking > restaurant > mexican restaurant > taco restaurant,1
54c1d40b498ea74d80b6ca99,Taqueris edgar el zebra,20.719228,-103.348321,,,,,,,,MX,2015-01-23,2021-08-15,,,,,,,,['4bf58dd8d48988d151941735'],['Dining and Drinking > Restaurant > Mexican Restaurant > Taco Restaurant'],b'\x00\x00\x00\x00\x01\xc0Y\xd6J\xe4)\xe0\xa4@4\xb8\x1fS\x82^\x14',"{'xmin': -103.348321, 'ymin': 20.719228, 'xmax': -103.348321, 'ymax': 20.719228}",dining and drinking > restaurant > mexican restaurant > taco restaurant,1
5026efa2e4b04e431bfba874,Tacos El Pariancito,22.157523,-100.928598,,,,,,,,MX,2012-08-11,2020-11-20,2013-01-24,,,,,,,['4bf58dd8d48988d151941735'],['Dining and Drinking > Restaurant > Mexican Restaurant > Taco Restaurant'],b'\x00\x00\x00\x00\x01\xc0Y;n&NHb@6(Sme^)',"{'xmin': -100.928598, 'ymin': 22.157523, 'xmax': -100.928598, 'ymax': 22.157523}",dining and drinking > restaurant > mexican restaurant > taco restaurant,1
50666fcde4b03ce13a7eb647,Tacos el cuñao,21.856827443478952,-102.30085705350785,Rafael Ramírez,Aguascalientes,Aguascalientes,20288,,,,MX,2012-09-29,2020-11-25,,,,,,,,['4bf58dd8d48988d151941735'],['Dining and Drinking > Restaurant > Mexican Restaurant > Taco Restaurant'],b'\x00\x00\x00\x00\x01\xc0Y\x93A=\xf1e\x94@5\xdbY\x0b\x18\x0e\xb1',"{'xmin': -102.30085705350785, 'ymin': 21.856827443478952, 'xmax': -102.30085705350785, 'ymax': 21.856827443478952}",dining and drinking > restaurant > mexican restaurant > taco restaurant,1
4e18dcdcaeb7eb0120d013ed,Taqueria La Herradura,21.846970725791607,-102.71789702560551,Juarez,Calvillo,Aguascalientes,,,,,MX,2011-07-09,2020-11-24,,,,,,,,['4bf58dd8d48988d151941735'],['Dining and Drinking > Restaurant > Mexican Restaurant > Taco Restaurant'],b'\x00\x00\x00\x00\x01\xc0Y\xad\xf2\x06]\xb7\xc4@5\xd8\xd3\x12\xcf\xf1\xc0',"{'xmin': -102.71789702560551, 'ymin': 21.846970725791607, 'xmax': -102.71789702560551, 'ymax': 21.846970725791607}",dining and drinking > restaurant > mexican restaurant > taco restaurant,1
56d27a18498ef8ffbe0c2cc5,"Tacos ""El Cach""",20.393762230530573,-101.1864822888351,,,,,,,,MX,2016-02-28,2021-08-17,,,,,,,,['4bf58dd8d48988d151941735'],['Dining and Drinking > Restaurant > Mexican Restaurant > Taco Restaurant'],b'\x00\x00\x00\x00\x01\xc0YK\xefSh\xf5\x1e@4d\xcd\x99\xfe\x87a',"{'xmin': -101.1864822888351, 'ymin': 20.393762230530573, 'xmax': -101.1864822888351, 'ymax': 20.393762230530573}",dining and drinking > restaurant > mexican restaurant > taco restaurant,1
5c09dc63475abd003914d813,Tacos El Cuńao,21.180241,-101.7039,Camino A La Patińa,León,GTO,37138,,,,MX,2018-12-07,2020-11-26,,,,,,,,['4bf58dd8d48988d151941735'],['Dining and Drinking > Restaurant > Mexican Restaurant > Taco Restaurant'],b'\x00\x00\x00\x00\x01\xc0Ym\x0c\xb2\x95\xe9\xe2@5.$F0e\xf9',"{'xmin': -101.7039, 'ymin': 21.180241, 'xmax': -101.7039, 'ymax': 21.180241}",dining and drinking > restaurant > mexican restaurant > taco restaurant,1
536d9225498e07effec2b54e,Taquieria  el Charailas,20.70600809556881,-102.34834226474094,,,,,,,,MX,2014-05-10,2021-08-15,,,,,,,,['4bf58dd8d48988d151941735'],['Dining and Drinking > Restaurant > Mexican Restaurant > Taco Restaurant'],b'\x00\x00\x00\x00\x01\xc0Y\x96K=Z\xb8\x1f@4\xb4\xbc\xf2Q-\xe5',"{'xmin': -102.34834226474094, 'ymin': 20.70600809556881, 'xmax': -102.34834226474094, 'ymax': 20.70600809556881}",dining and drinking > restaurant > mexican restaurant > taco restaurant,1
56c3d5f6cd109fa928918054,Tacos La Reina,20.533211,-104.039606,,,,,,,,MX,2016-02-17,2021-08-12,,,,,,,,['4bf58dd8d48988d151941735'],['Dining and Drinking > Restaurant > Mexican Restaurant > Taco Restaurant'],b'\x00\x00\x00\x00\x01\xc0Z\x02\x88\xe7\x9a\xaem@4\x88\x80\x84\x1e\xde\x12',"{'xmin': -104.039606, 'ymin': 20.533211, 'xmax': -104.039606, 'ymax': 20.533211}",dining and drinking > restaurant > mexican restaurant > taco restaurant,1
5d24ae93bf5e0e0027e17fda,Birria De Res “Los Nenes”,20.665081,-103.281138,,Guadalajara,JAL,44790,,,,MX,2019-07-09,2021-08-12,,,,,,,,['4bf58dd8d48988d151941735'],['Dining and Drinking > Restaurant > Mexican Restaurant > Taco Restaurant'],b'\x00\x00\x00\x00\x01\xc0Y\xd1\xfe*<\xeal@4\xaaB\xbf\x980\xe4',"{'xmin': -103.281138, 'ymin': 20.665081, 'xmax': -103.281138, 'ymax': 20.665081}",dining and drinking > restaurant > mexican restaurant > taco restaurant,1
514f2870e4b0e7ec7c97e6dd,3 D' Que? Tacos Y Algo Más,19.081541362366767,-104.30648754837598,"Av. Lázaro Cárdenas 31, Las Brisas",MANZANILLO,Colima,,,,,MX,2013-03-24,2020-11-23,,,,,,,,['4bf58dd8d48988d151941735'],['Dining and Drinking > Restaurant > Mexican Restaurant > Taco Restaurant'],b'\x00\x00\x00\x00\x01\xc0Z\x13\x9d}\xf39\xfd@3\x14\xdf\xe5\x0c\xa2\xf5',"{'xmin': -104.30648754837598, 'ymin': 19.081541362366767, 'xmax': -104.30648754837598, 'ymax': 19.081541362366767}",dining and drinking > restaurant > mexican restaurant > taco restaurant,1
4fa7e24be4b0e4baa46574db,Tacos de Barbacoa de Ternera (res) Martín Contreras Suc. Av. Michelena,19.676263822267924,-101.22990819935613,Av. Michelena,Morelia,Michoacán,,,,,MX,2012-05-07,2020-11-21,,,,,,,,['4bf58dd8d48988d151941735'],['Dining and Drinking > Restaurant > Mexican Restaurant > Taco Restaurant'],b'\x00\x00\x00\x00\x01\xc0YN\xb6\xd0\xe1TG@3\xad\x1f\xa08\x1b\xd3',"{'xmin': -101.22990819935613, 'ymin': 19.676263822267924, 'xmax': -101.22990819935613, 'ymax': 19.676263822267924}",dining and drinking > restaurant > mexican restaurant > taco restaurant,1
4ff4e7a8e4b0211bc1be4aca,Cenaduría El Zahuán,20.661454,-103.226821,,,,,,,,MX,2012-07-05,2021-08-12,,,,,,,,['4bf58dd8d48988d151941735'],['Dining and Drinking > Restaurant > Mexican Restaurant > Taco Restaurant'],b'\x00\x00\x00\x00\x01\xc0Y\xce\x84<:B\xf2@4\xa9U\x0c\xa1\xce\xf2',"{'xmin': -103.226821, 'ymin': 20.661454, 'xmax': -103.226821, 'ymax': 20.661454}",dining and drinking > restaurant > mexican restaurant > taco restaurant,1
50739627e4b0f19946efd4c9,Carnes Asadas La Parrilla De La Villa,19.28454383907209,-103.7276976907047,Tecuan 05,Villa De Alvarez,Colima,,,,,MX,2012-10-09,2020-11-20,,,,,,,,['4bf58dd8d48988d151941735'],['Dining and Drinking > Restaurant > Mexican Restaurant > Taco Restaurant'],b'\x00\x00\x00\x00\x01\xc0Y\xee\x92\x99U\xbc\xe4@3H\xd7\xdds\x17\xc9',"{'xmin': -103.7276976907047, 'ymin': 19.28454383907209, 'xmax': -103.7276976907047, 'ymax': 19.28454383907209}",dining and drinking > restaurant > mexican restaurant > taco restaurant,1
523122f311d20c953a519b6c,Tacos Pepe,20.710885270389813,-103.32809588380755,,Guadalajara,,,,,,MX,2013-09-12,2021-08-15,,,,,,,,['4bf58dd8d48988d151941735'],['Dining and Drinking > Restaurant > Mexican Restaurant > Taco Restaurant'],b'\x00\x00\x00\x00\x01\xc0Y\xd4\xff\x85\xe0\xb9\xf6@4\xb5\xfc\x93\xbb\x88I',"{'xmin': -103.32809588380755, 'ymin': 20.710885270389813, 'xmax': -103.32809588380755, 'ymax': 20.710885270389813}",dining and drinking > restaurant > mexican restaurant > taco restaurant,1
587ab5b30393cc1bf1b843a3,Chile Amor Punto Bahía,19.100167,-104.325495,"Miguel de la Madrid 3275, Playa Azul Salagua.",Manzanillo,Colima,28218,,,,MX,2017-01-14,2020-11-25,,,,,,,,['4bf58dd8d48988d151941735'],['Dining and Drinking > Restaurant > Mexican Restaurant > Taco Restaurant'],b'\x00\x00\x00\x00\x01\xc0Z\x14\xd4\xe8\xfb\x00\xbd@3\x19\xa4\x8be#p',"{'xmin': -104.325495, 'ymin': 19.100167, 'xmax': -104.325495, 'ymax': 19.100167}",dining and drinking > restaurant > mexican restaurant > taco restaurant,1
590fcca6b9a5a847605cefa6,Taquería La Escondida,20.42068,-100.76039,,Rincón de Tamayo,Guanajuato,38150,,,,MX,2017-05-08,2020-11-30,,,,,,,,['4bf58dd8d48988d151941735'],['Dining and Drinking > Restaurant > Mexican Restaurant > Taco Restaurant'],b'\x00\x00\x00\x00\x01\xc0Y0\xaa:\xd1\x8d&@4k\xb1\xaf:\x14\xcf',"{'xmin': -100.76039, 'ymin': 20.42068, 'xmax': -100.76039, 'ymax': 20.42068}",dining and drinking > restaurant > mexican restaurant > taco restaurant,1
531c9d57498e95a2a87bd881,Birrieria El Primo,19.692355,-101.204526,,,,,,,,MX,2014-03-09,2021-08-11,,,,,,,,['4bf58dd8d48988d151941735'],['Dining and Drinking > Restaurant > Mexican Restaurant > Taco Restaurant'],b'\x00\x00\x00\x00\x01\xc0YM\x16\xf48K\xa1@3\xb1>-b8\xda',"{'xmin': -101.204526, 'ymin': 19.692355, 'xmax': -101.204526, 'ymax': 19.692355}",dining and drinking > restaurant > mexican restaurant > taco restaurant,1
56e6d617498e6c252c9e3377,Acá Los Tacos By Urban Boba,21.016434,-101.25277,Truco 19,Guanajuato,gto,36000,,,,MX,2016-03-14,2020-11-24,,,,,,,,['4bf58dd8d48988d151941735'],['Dining and Drinking > Restaurant > Mexican Restaurant > Taco Restaurant'],b'\x00\x00\x00\x00\x01\xc0YP-b8\xda<@5\x045\x04\xc4\x8a\xdf',"{'xmin': -101.25277, 'ymin': 21.016434, 'xmax': -101.25277, 'ymax': 21.016434}",dining and drinking > restaurant > mexican restaurant > taco restaurant,1
4f6a6453e4b095242fd4e3bf,Tacos de Tripa Cheo,20.624218176320632,-105.22582586476291,,,,,,,,MX,2012-03-21,2021-08-17,,,,,,,,['4bf58dd8d48988d151941735'],['Dining and Drinking > Restaurant > Mexican Restaurant > Taco Restaurant'],"b'\x00\x00\x00\x00\x01\xc0ZNs\xeeS\xef\xd9@4\x9f\xcc\xc3,\xdd\xaa'","{'xmin': -105.22582586476291, 'ymin': 20.624218176320632, 'xmax': -105.22582586476291, 'ymax': 20.624218176320632}",dining and drinking > restaurant > mexican restaurant > taco restaurant,1
5a49413b8173cb3a047ab6ce,Tacos Enchilados “Doña Mari”,20.230686,-103.563241,,Zacoalco de Torres,JAL,45752,,,,MX,2017-12-31,2020-11-23,,,,,,,,['4bf58dd8d48988d151941735'],['Dining and Drinking > Restaurant > Mexican Restaurant > Taco Restaurant'],"b'\x00\x00\x00\x00\x01\xc0Y\xe4\x0c#\xfa\xb1\x0c@4;\x0e<\xd9\xa5""'","{'xmin': -103.563241, 'ymin': 20.230686, 'xmax': -103.563241, 'ymax': 20.230686}",dining and drinking > restaurant > mexican restaurant > taco restaurant,1
5a97806d9411f2427e78f610,Tacos Papis,21.078192,-101.6059,,León,Guanajuato,,,,,MX,2018-03-01,2020-11-24,,,,,,,,['4bf58dd8d48988d151941735'],['Dining and Drinking > Restaurant > Mexican Restaurant > Taco Restaurant'],b'\x00\x00\x00\x00\x01\xc0Yf\xc7\x10\xcb)_@5\x14\x04d\x12\xcf\x10',"{'xmin': -101.6059, 'ymin': 21.078192, 'xmax': -101.6059, 'ymax': 21.078192}",dining and drinking > restaurant > mexican restaurant > taco restaurant,1
5117476eb0ed4b33660fc4b0,Tacos Chuyo,21.13898751800961,-101.68407797813416,601 16 de Septiembre,León,Guanajuato,,,,,MX,2013-02-10,2020-11-30,,,,,,,,['4bf58dd8d48988d151941735'],['Dining and Drinking > Restaurant > Mexican Restaurant > Taco Restaurant'],b'\x00\x00\x00\x00\x01\xc0Yk\xc7\xef\x00\x00\x00@5#\x94\xaf\x9cgK',"{'xmin': -101.68407797813416, 'ymin': 21.13898751800961, 'xmax': -101.68407797813416, 'ymax': 21.13898751800961}",dining and drinking > restaurant > mexican restaurant > taco restaurant,1
5d61393e87398a00082d07e3,Don Lechón,20.684587,-103.4373,Ramón Corona,Zapopan,Jalisco,45017,,,,MX,2019-08-24,2020-11-21,,,,,,,,['4bf58dd8d48988d151941735'],['Dining and Drinking > Restaurant > Mexican Restaurant > Taco Restaurant'],b'\x00\x00\x00\x00\x01\xc0Y\xdb\xfc\xb9#\xa2\x9c@4\xafA\x17\xf8DJ',"{'xmin': -103.4373, 'ymin': 20.684587, 'xmax': -103.4373, 'ymax': 20.684587}",dining and drinking > restaurant > mexican restaurant > taco restaurant,1
57b915fc38fa56c7b77870a3,Taqueria Los Karnales,21.150318,-101.65759,,La Alameda,Guanajuato,37204,,,,MX,2016-08-21,2020-11-22,,,,,,,,['4bf58dd8d48988d151941735'],['Dining and Drinking > Restaurant > Mexican Restaurant > Taco Restaurant'],b'\x00\x00\x00\x00\x01\xc0Yj\x15\xf4^\x0bN@5&{=\x8e\x00\x08',"{'xmin': -101.65759, 'ymin': 21.150318, 'xmax': -101.65759, 'ymax': 21.150318}",dining and drinking > restaurant > mexican restaurant > taco restaurant,1
4e643e0d1838ad3d0f972e07,Ronco Tacos,20.74282909498612,-103.4063335632008,Av Arcos,Zapopan,Jaliaco,45130,,,,MX,2011-09-05,2021-08-14,,,,,,,,['4bf58dd8d48988d151941735'],['Dining and Drinking > Restaurant > Mexican Restaurant > Taco Restaurant'],b'\x00\x00\x00\x00\x01\xc0Y\xda\x01^}M\xbc@4\xbe*\x0c-{\x90',"{'xmin': -103.4063335632008, 'ymin': 20.74282909498612, 'xmax': -103.4063335632008, 'ymax': 20.74282909498612}",dining and drinking > restaurant > mexican restaurant > taco restaurant,1
4f67e6bfe4b0f8b5d3f2f795,Tacos Don Neto (Originales),20.694292871370756,-103.42102966517005,"George Haendel 200, Vallarta La Patria, 45020 Zapopan, JAL",Zapopan,Jalisco,,,,,MX,2012-03-20,2020-11-26,,,,,,,,['4bf58dd8d48988d151941735'],['Dining and Drinking > Restaurant > Mexican Restaurant > Taco Restaurant'],"b'\x00\x00\x00\x00\x01\xc0Y\xda\xf2&h\xa3G@4\xb1\xbd-xb""'","{'xmin': -103.42102966517005, 'ymin': 20.694292871370756, 'xmax': -103.42102966517005, 'ymax': 20.694292871370756}",dining and drinking > restaurant > mexican restaurant > taco restaurant,1
5a6652acee7120276c43c618,El Güero Alteño,20.70448,-103.376833,,Guadalajara,JAL,44630,,,,MX,2018-01-22,2021-08-11,,,,,,,,['4bf58dd8d48988d151941735'],['Dining and Drinking > Restaurant > Mexican Restaurant > Taco Restaurant'],b'\x00\x00\x00\x00\x01\xc0Y\xd8\x1e\x08(\xc3n@4\xb4X\xcd \xaf\xa3',"{'xmin': -103.376833, 'ymin': 20.70448, 'xmax': -103.376833, 'ymax': 20.70448}",dining and drinking > restaurant > mexican restaurant > taco restaurant,1
52bbae1b498ef8958c61603b,Tacos Krishmar,19.11562,-104.327483,,Manzanillo,COL,,,,,MX,2013-12-26,2020-11-23,,,,,,,,['4bf58dd8d48988d151941735'],['Dining and Drinking > Restaurant > Mexican Restaurant > Taco Restaurant'],b'\x00\x00\x00\x00\x01\xc0Z\x14\xf5{A\xbf\xbe@3\x1d\x99E\xb6\xc3v',"{'xmin': -104.327483, 'ymin': 19.11562, 'xmax': -104.327483, 'ymax': 19.11562}",dining and drinking > restaurant > mexican restaurant > taco restaurant,1
51d2ce53498eceeddbe757ae,Tacos don josé,20.72785049183548,-103.34451259830267,,,,,,,,MX,2013-07-02,2021-08-17,,,,,,,,['4bf58dd8d48988d151941735'],['Dining and Drinking > Restaurant > Mexican Restaurant > Taco Restaurant'],b'\x00\x00\x00\x00\x01\xc0Y\xd6\x0c~\x91\xb1G@4\xbaTh\xea\xcf\x97',"{'xmin': -103.34451259830267, 'ymin': 20.72785049183548, 'xmax': -103.34451259830267, 'ymax': 20.72785049183548}",dining and drinking > restaurant > mexican restaurant > taco restaurant,1
4fd16eb2e4b0c730e403679c,Taqueria Oaxaqueña,20.52685858547005,-100.83687048199371,12 De Octubre,,,,,,,MX,2012-06-08,2021-08-13,,,,,,,,['4bf58dd8d48988d151941735'],['Dining and Drinking > Restaurant > Mexican Restaurant > Taco Restaurant'],b'\x00\x00\x00\x00\x01\xc0Y5\x8fI5\xc9\xa6@4\x86\xe04J5\xef',"{'xmin': -100.83687048199371, 'ymin': 20.52685858547005, 'xmax': -100.83687048199371, 'ymax': 20.52685858547005}",dining and drinking > restaurant > mexican restaurant > taco restaurant,1
6200a878bf60467ffac9ceff,Tacos de con Limón,20.812379406698707,-105.2479089796543,las moras II,Valle de Banderas,Nayarit,63730,,,,MX,2022-02-07,2023-09-13,,322 188 6141,,,,,,['4bf58dd8d48988d151941735'],['Dining and Drinking > Restaurant > Mexican Restaurant > Taco Restaurant'],b'\x00\x00\x00\x00\x01\xc0ZO\xdd\xbd\x9f\xff\xff@4\xcf\xf8\x18\xc7\xb6\xff',"{'xmin': -105.2479089796543, 'ymin': 20.812379406698707, 'xmax': -105.2479089796543, 'ymax': 20.812379406698707}",dining and drinking > restaurant > mexican restaurant > taco restaurant,1
52dafe8f11d211d6b6ef995d,Tacos ''el güero muertes'',20.70524749182363,-103.33157530537032,,Guadalajara,,,,,,MX,2014-01-18,2021-08-12,,,,,,,,['4bf58dd8d48988d151941735'],['Dining and Drinking > Restaurant > Mexican Restaurant > Taco Restaurant'],b'\x00\x00\x00\x00\x01\xc0Y\xd58\x87\xa1.\x83@4\xb4\x8b\x19\x80\xf7\xf1',"{'xmin': -103.33157530537032, 'ymin': 20.70524749182363, 'xmax': -103.33157530537032, 'ymax': 20.70524749182363}",dining and drinking > restaurant > mexican restaurant > taco restaurant,1
527d06d311d2223e1ef4eb76,Tacos de birria los cuates juan alvares y la calzada,20.707885177631876,-103.31545347432804,,Guadalajara,Jalisco,,,,,MX,2013-11-08,2021-08-11,,,,,,,,['4bf58dd8d48988d151941735'],['Dining and Drinking > Restaurant > Mexican Restaurant > Taco Restaurant'],b'\x00\x00\x00\x00\x01\xc0Y\xd40c\xc4\xe9\x81@4\xb57\xf6\x87@\x87',"{'xmin': -103.31545347432804, 'ymin': 20.707885177631876, 'xmax': -103.31545347432804, 'ymax': 20.707885177631876}",dining and drinking > restaurant > mexican restaurant > taco restaurant,1
582829277c74e11cb1dd0b4f,Tacos San Juan de los Lagos,21.130099,-101.655081,Blvd Valtierra,Leon,Guanajuato,,,,,MX,2016-11-13,2020-11-25,,,,,,,,['4bf58dd8d48988d151941735'],['Dining and Drinking > Restaurant > Mexican Restaurant > Taco Restaurant'],b'\x00\x00\x00\x00\x01\xc0Yi\xec\xd8\xdb\xce\xc8@5!N+\x06>\x08',"{'xmin': -101.655081, 'ymin': 21.130099, 'xmax': -101.655081, 'ymax': 21.130099}",dining and drinking > restaurant > mexican restaurant > taco restaurant,1
5a629c99b23dfa02d4c93bd1,Tio Chelo,20.720211,-101.348626,,Irapuato,GTO,36823,,,,MX,2018-01-20,2021-01-25,,462 688 1509,,,,,,['4bf58dd8d48988d151941735' '4bf58dd8d48988d1ce941735'],"['Dining and Drinking > Restaurant > Mexican Restaurant > Taco Restaurant'
 'Dining and Drinking > Restaurant > Seafood Restaurant']","b'\x00\x00\x00\x00\x01\xc0YVO\xe3m""B@4\xb8_\xbf\x838.'","{'xmin': -101.348626, 'ymin': 20.720211, 'xmax': -101.348626, 'ymax': 20.720211}","dining and drinking > restaurant > mexican restaurant > taco restaurant, dining and drinking > restaurant > seafood restaurant",1
50dd0ba0e4b09888b114e492,Tacos Los Chenchos,20.727525854722764,-103.36970293006834,,,,,,,,MX,2012-12-28,2021-08-11,,,,,,,,['4bf58dd8d48988d151941735'],['Dining and Drinking > Restaurant > Mexican Restaurant > Taco Restaurant'],"b'\x00\x00\x00\x00\x01\xc0Y\xd7\xa96zx@@4\xba?""i\x07Z'","{'xmin': -103.36970293006834, 'ymin': 20.727525854722764, 'xmax': -103.36970293006834, 'ymax': 20.727525854722764}",dining and drinking > restaurant > mexican restaurant > taco restaurant,1
4e34b564aeb7f67fbd2a0326,Taqueria Jazmin,19.690080356397758,-101.19710539822894,,Morelia,Michoacán,,,,,MX,2011-07-31,2020-11-22,,,,,,,,['4bf58dd8d48988d151941735'],['Dining and Drinking > Restaurant > Mexican Restaurant > Taco Restaurant'],b'\x00\x00\x00\x00\x01\xc0YL\x9d_\xf5\xd0\x89@3\xb0\xa9\x1b2W$',"{'xmin': -101.19710539822894, 'ymin': 19.690080356397758, 'xmax': -101.19710539822894, 'ymax': 19.690080356397758}",dining and drinking > restaurant > mexican restaurant > taco restaurant,1
55becd2e498ee52e3efb5127,Taqueria Arandas,20.521287431365355,-100.81170448354158,Torres Landa,,,,,,,MX,2015-08-03,2021-08-11,,,,,,,,['4bf58dd8d48988d151941735'],['Dining and Drinking > Restaurant > Mexican Restaurant > Taco Restaurant'],b'\x00\x00\x00\x00\x01\xc0Y3\xf2\xf7\\\xb4\xf8@4\x85s\x17\xd5\x87\xb1',"{'xmin': -100.81170448354158, 'ymin': 20.521287431365355, 'xmax': -100.81170448354158, 'ymax': 20.521287431365355}",dining and drinking > restaurant > mexican restaurant > taco restaurant,1
536c48d8498e40f0bac02a9d,Taqueria Arandas,20.673572540283203,-103.29146575927734,,,,,,,,MX,2014-05-09,2021-08-17,,,,,,,,['4bf58dd8d48988d151941735'],['Dining and Drinking > Restaurant > Mexican Restaurant > Taco Restaurant'],b'\x00\x00\x00\x00\x01\xc0Y\xd2\xa7`\x00\x00\x00@4\xaco@\x00\x00\x00',"{'xmin': -103.29146575927734, 'ymin': 20.673572540283203, 'xmax': -103.29146575927734, 'ymax': 20.673572540283203}",dining and drinking > restaurant > mexican restaurant > taco restaurant,1
52c8377111d216d3098c88a7,Tacos El Gordito Marianito,21.85988998413086,-102.2720718383789,,,,,,,,MX,2014-01-04,2021-08-14,,,,,,,,['4bf58dd8d48988d151941735'],['Dining and Drinking > Restaurant > Mexican Restaurant > Taco Restaurant'],b'\x00\x00\x00\x00\x01\xc0Y\x91i\xa0\x00\x00\x00@5\xdc!\xc0\x00\x00\x00',"{'xmin': -102.2720718383789, 'ymin': 21.85988998413086, 'xmax': -102.2720718383789, 'ymax': 21.85988998413086}",dining and drinking > restaurant > mexican restaurant > taco restaurant,1
550b3c89498e5f9032bafb90,Tortas Ahogadas QuiPer,20.630412,-103.401772,Tabachines 4760,Zapopan,Jalisco,,,,,MX,2015-03-19,2020-11-30,,,,,,,,['4bf58dd8d48988d151941735'],['Dining and Drinking > Restaurant > Mexican Restaurant > Taco Restaurant'],b'\x00\x00\x00\x00\x01\xc0Y\xd9\xb6\xa1\xe8\x1c\xb4@4\xa1b\xaeK\x01\x86',"{'xmin': -103.401772, 'ymin': 20.630412, 'xmax': -103.401772, 'ymax': 20.630412}",dining and drinking > restaurant > mexican restaurant > taco restaurant,1
553d7f0d498e04e9289aa294,Grill & Grill,20.762276,-103.382725,,,,,,,,MX,2015-04-27,2021-08-15,,,,,,,,['4bf58dd8d48988d151941735'],['Dining and Drinking > Restaurant > Mexican Restaurant > Taco Restaurant'],b'\x00\x00\x00\x00\x01\xc0Y\xd8~\x90\xff\x97$@4\xc3$\x85\x1a\x86\x94',"{'xmin': -103.382725, 'ymin': 20.762276, 'xmax': -103.382725, 'ymax': 20.762276}",dining and drinking > restaurant > mexican restaurant > taco restaurant,1
55cc0e18498e206ce00f5d21,Tacos ( A Un Lado De La Coronela),20.91434826490485,-100.74340747622901,San Francisco,San Miguel de allende,guanajuao,,,,,MX,2015-08-13,2021-08-13,,,,,,,,['4bf58dd8d48988d151941735'],['Dining and Drinking > Restaurant > Mexican Restaurant > Taco Restaurant'],b'\x00\x00\x00\x00\x01\xc0Y/\x93\xfc\xf3\x80Z@4\xea\x12\xbaV\xeb\xb1',"{'xmin': -100.74340747622901, 'ymin': 20.91434826490485, 'xmax': -100.74340747622901, 'ymax': 20.91434826490485}",dining and drinking > restaurant > mexican restaurant > taco restaurant,1
52e53b0c498e7624a40e56e8,Los Humaos,21.858562,-102.297485,,,,,,,,MX,2014-01-26,2021-08-13,,,,,,,,['4bf58dd8d48988d151941735'],['Dining and Drinking > Restaurant > Mexican Restaurant > Taco Restaurant'],b'\x00\x00\x00\x00\x01\xc0Y\x93\t\xfe\x86\x83<@5\xdb\xca\xb8\x1f\x96\x9e',"{'xmin': -102.297485, 'ymin': 21.858562, 'xmax': -102.297485, 'ymax': 21.858562}",dining and drinking > restaurant > mexican restaurant > taco restaurant,1
520a78e8498e9d01cec808c9,Los Super Tacos,20.52541393725238,-100.80084525408569,,,,,,,,MX,2013-08-13,2021-08-13,,,,,,,,['4bf58dd8d48988d1cb941735' '4bf58dd8d48988d151941735'],"['Dining and Drinking > Food Truck'
 'Dining and Drinking > Restaurant > Mexican Restaurant > Taco Restaurant']",b'\x00\x00\x00\x00\x01\xc0Y3A\x0cs\xdd\x1c@4\x86\x81\x87\x1d\\\x90',"{'xmin': -100.80084525408569, 'ymin': 20.52541393725238, 'xmax': -100.80084525408569, 'ymax': 20.52541393725238}","dining and drinking > food truck, dining and drinking > restaurant > mexican restaurant > taco restaurant",1
50b6c009498e235cc6263d91,"Taqueria ""el Rey Del Taco""",21.14260639412167,-101.67026916313363,,,,,,,,MX,2012-11-29,2021-08-15,,,,,,,,['4bf58dd8d48988d151941735'],['Dining and Drinking > Restaurant > Mexican Restaurant > Taco Restaurant'],b'\x00\x00\x00\x00\x01\xc0Yj\xe5\xb0\xa1\xcbG@5$\x81\xdaF\xf3\xfc',"{'xmin': -101.67026916313363, 'ymin': 21.14260639412167, 'xmax': -101.67026916313363, 'ymax': 21.14260639412167}",dining and drinking > restaurant > mexican restaurant > taco restaurant,1
4eb2f5272c5b7bbfb27faa3a,Taco Fish Taco by Langostinos,20.65280864624077,-103.40047280039077,,,,,,,,MX,2011-11-03,2021-08-11,,,,,,,,['4bf58dd8d48988d151941735'],['Dining and Drinking > Restaurant > Mexican Restaurant > Taco Restaurant'],"b""\x00\x00\x00\x00\x01\xc0Y\xd9\xa1X\xab'k@4\xa7\x1ew\xaa&p""","{'xmin': -103.40047280039077, 'ymin': 20.65280864624077, 'xmax': -103.40047280039077, 'ymax': 20.65280864624077}",dining and drinking > restaurant > mexican restaurant > taco restaurant,1
51aa1987498efd9805ffbf0c,Tacos el cuñado,21.94563203838738,-102.29692695202033,,,,,,,,MX,2013-06-01,2024-11-21,,,,,,,,['4bf58dd8d48988d151941735' '4bf58dd8d48988d1c1941735'],"['Dining and Drinking > Restaurant > Mexican Restaurant > Taco Restaurant'
 'Dining and Drinking > Restaurant > Mexican Restaurant']",b'\x00\x00\x00\x00\x01\xc0Y\x93\x00\xd9\xe7\x0e\x9c@5\xf2\x14\xf0\xf6\xecr',"{'xmin': -102.29692695202033, 'ymin': 21.94563203838738, 'xmax': -102.29692695202033, 'ymax': 21.94563203838738}","dining and drinking > restaurant > mexican restaurant > taco restaurant, dining and drinking > restaurant > mexican restaurant",1
716b8c0e37b142c5464305bf,La Casita,19.251046,-103.710519,Felipe Sevilla del Rio 490,Colima,Colima,28010,,,,MX,2010-11-04,2023-12-08,,312 314 4322,,,,,,"['4bf58dd8d48988d16e941735' '4bf58dd8d48988d110941735'
 '4bf58dd8d48988d151941735']","['Dining and Drinking > Restaurant > Fast Food Restaurant'
 'Dining and Drinking > Restaurant > Italian Restaurant'
 'Dining and Drinking > Restaurant > Mexican Restaurant > Taco Restaurant']",b'\x00\x00\x00\x00\x01\xc0Y\xedy$\xaf\x0b\xf2@3@D\x8c\xf7\xca\xa7',"{'xmin': -103.710519, 'ymin': 19.251046, 'xmax': -103.710519, 'ymax': 19.251046}","dining and drinking > restaurant > fast food restaurant, dining and drinking > restaurant > italian restaurant, dining and drinking > restaurant > mexican restaurant > taco restaurant",1
659c1dba6a51301e073ef468,Birrieria El Tilin,20.762689,-103.438656,Prof Idolina Gaona de Cosío 4554,Zapopan,Jal.,45200,,,,MX,2024-01-08,2024-05-04,,,,,,,,['4bf58dd8d48988d151941735'],['Dining and Drinking > Restaurant > Mexican Restaurant > Taco Restaurant'],b'\x00\x00\x00\x00\x01\xc0Y\xdc\x12\xf0\x9d\x8cm@4\xc3?\x96\x18\x04\xda',"{'xmin': -103.438656, 'ymin': 20.762689, 'xmax': -103.438656, 'ymax': 20.762689}",dining and drinking > restaurant > mexican restaurant > taco restaurant,1
52029f19498e18983e0abbc8,Tacolico,20.689790725708008,-103.34043884277344,Plaza Juan José Baz,,,,,,,MX,2013-08-07,2021-08-11,,,,,,,,['4bf58dd8d48988d151941735'],['Dining and Drinking > Restaurant > Mexican Restaurant > Taco Restaurant'],b'\x00\x00\x00\x00\x01\xc0Y\xd5\xc9\xc0\x00\x00\x00@4\xb0\x96 \x00\x00\x00',"{'xmin': -103.34043884277344, 'ymin': 20.689790725708008, 'xmax': -103.34043884277344, 'ymax': 20.689790725708008}",dining and drinking > restaurant > mexican restaurant > taco restaurant,1
4fc7b6f9e4b0f6b1969c659c,Taqueria Del Buen Comer (El Amigo 2),21.118105122715868,-101.6731507199991,,,,,,,,MX,2012-05-31,2021-08-16,,,,,,,,['4bf58dd8d48988d151941735'],['Dining and Drinking > Restaurant > Mexican Restaurant > Taco Restaurant'],"b""\x00\x00\x00\x00\x01\xc0Yk\x14\xe6\xc1\xeb3@5\x1e<#'\x8e\x02""","{'xmin': -101.6731507199991, 'ymin': 21.118105122715868, 'xmax': -101.6731507199991, 'ymax': 21.118105122715868}",dining and drinking > restaurant > mexican restaurant > taco restaurant,1
51531662e4b0e8039cc16a3b,Botanas Fausto,20.65732,-103.368656,,Guadalajara,Jalisco,,,,,MX,2013-03-27,2021-08-14,,,,,,,,['4bf58dd8d48988d151941735'],['Dining and Drinking > Restaurant > Mexican Restaurant > Taco Restaurant'],b'\x00\x00\x00\x00\x01\xc0Y\xd7\x98\x0fU\xdeY@4\xa8F\x1f\x9f\x01\xb8',"{'xmin': -103.368656, 'ymin': 20.65732, 'xmax': -103.368656, 'ymax': 20.65732}",dining and drinking > restaurant > mexican restaurant > taco restaurant,1
2ccf06984ce8485019ecc613,Loncheria la Cruz,20.215624,-100.87951,Francisco i Madero 617,Salvatierra,Guanajuato,38900,,,,MX,2013-03-24,2023-12-08,,466 663 0817,,,,,,['4bf58dd8d48988d151941735'],['Dining and Drinking > Restaurant > Mexican Restaurant > Taco Restaurant'],"b'\x00\x00\x00\x00\x01\xc0Y8I\xe4O\xa0Q@473""l;\x92'","{'xmin': -100.87951, 'ymin': 20.215624, 'xmax': -100.87951, 'ymax': 20.215624}",dining and drinking > restaurant > mexican restaurant > taco restaurant,1
5d86479fdd33dc000789a188,Tortas Torres,20.653358,-103.705305,,Tala,JAL,45300,,,,MX,2019-09-21,2020-11-24,,,,,,,,['4bf58dd8d48988d1c1941735' '4bf58dd8d48988d151941735'],"['Dining and Drinking > Restaurant > Mexican Restaurant'
 'Dining and Drinking > Restaurant > Mexican Restaurant > Taco Restaurant']",b'\x00\x00\x00\x00\x01\xc0Y\xed#\xb7\x95-#@4\xa7BxJ\x94y',"{'xmin': -103.705305, 'ymin': 20.653358, 'xmax': -103.705305, 'ymax': 20.653358}","dining and drinking > restaurant > mexican restaurant, dining and drinking > restaurant > mexican restaurant > taco restaurant",1
648d2cabc7c43b217a3d1cd1,Tacos Doña Elvira,20.658475,-103.308579,Medrano,Guadalajara,JAL,44800,,,,MX,2023-06-17,2023-06-17,,,,,,,,['4bf58dd8d48988d151941735'],['Dining and Drinking > Restaurant > Mexican Restaurant > Taco Restaurant'],"b'\x00\x00\x00\x00\x01\xc0Y\xd3\xbf\xc2""N\xdf@4\xa8\x91\xd1N;\xcd'","{'xmin': -103.308579, 'ymin': 20.658475, 'xmax': -103.308579, 'ymax': 20.658475}",dining and drinking > restaurant > mexican restaurant > taco restaurant,1
5226b0af11d22c0276eac54d,Tacos Juan,20.717258,-103.328354,,Guadalajara,,,,,,MX,2013-09-04,2021-08-15,,,,,,,,['4bf58dd8d48988d151941735'],['Dining and Drinking > Restaurant > Mexican Restaurant > Taco Restaurant'],b'\x00\x00\x00\x00\x01\xc0Y\xd5\x03\xc0~\xe0\xb1@4\xb7\x9e8d\xcb\\',"{'xmin': -103.328354, 'ymin': 20.717258, 'xmax': -103.328354, 'ymax': 20.717258}",dining and drinking > restaurant > mexican restaurant > taco restaurant,1
4d37552a41d88cfa9f180ade,Tacos KALI,21.138601078260137,-101.69026614091692,Finlandia,Leon,Guanajuato,,,,,MX,2011-01-19,2023-12-20,,477 773 7078,,,,,,['4bf58dd8d48988d151941735'],['Dining and Drinking > Restaurant > Mexican Restaurant > Taco Restaurant'],b'\x00\x00\x00\x00\x01\xc0Yl-R\t1\x8e@5#{\\:QP',"{'xmin': -101.69026614091692, 'ymin': 21.138601078260137, 'xmax': -101.69026614091692, 'ymax': 21.138601078260137}",dining and drinking > restaurant > mexican restaurant > taco restaurant,1
578517e5498eb6c77882cb58,"Tacos de Birria ""De a la Vuelta del Hospital""",21.513786,-104.909702,,,,,,,,MX,2016-07-12,2021-08-15,,,,,,,,['4bf58dd8d48988d151941735'],['Dining and Drinking > Restaurant > Mexican Restaurant > Taco Restaurant'],b'\x00\x00\x00\x00\x01\xc0Z:8\x8e\xbc\xc6\xc5@5\x83\x87z\xb3$\x85',"{'xmin': -104.909702, 'ymin': 21.513786, 'xmax': -104.909702, 'ymax': 21.513786}",dining and drinking > restaurant > mexican restaurant > taco restaurant,1
550b00dc498e7299d87e93a6,Tacos Ahumados,20.90496063232422,-100.74866485595703,,,,,,,,MX,2015-03-19,2021-08-13,,,,,,,,['4bf58dd8d48988d151941735'],['Dining and Drinking > Restaurant > Mexican Restaurant > Taco Restaurant'],b'\x00\x00\x00\x00\x01\xc0Y/\xea \x00\x00\x00@4\xe7\xab\x80\x00\x00\x00',"{'xmin': -100.74866485595703, 'ymin': 20.90496063232422, 'xmax': -100.74866485595703, 'ymax': 20.90496063232422}",dining and drinking > restaurant > mexican restaurant > taco restaurant,1
5802327f38facac4bc3a108d,taqueria el pistolas,21.352854,-101.940675,,Lagos de Moreno,Jalisco,,,,,MX,2016-10-15,2020-11-25,,,,,,,,['4bf58dd8d48988d151941735'],['Dining and Drinking > Restaurant > Mexican Restaurant > Taco Restaurant'],b'\x00\x00\x00\x00\x01\xc0Y|4\x04\xeaJ\x8c@5ZT\xa3\xc6CF',"{'xmin': -101.940675, 'ymin': 21.352854, 'xmax': -101.940675, 'ymax': 21.352854}",dining and drinking > restaurant > mexican restaurant > taco restaurant,1
5498ceee498ed095cce18a03,Tacos Mary,21.899759200342473,-102.31070248185287,,,,,,,,MX,2014-12-23,2021-08-14,,,,,,,,['4bf58dd8d48988d151941735'],['Dining and Drinking > Restaurant > Mexican Restaurant > Taco Restaurant'],b'\x00\x00\x00\x00\x01\xc0Y\x93\xe2\x8c\xa9\x96\x06@5\xe6V\x9es\xbe\xfc',"{'xmin': -102.31070248185287, 'ymin': 21.899759200342473, 'xmax': -102.31070248185287, 'ymax': 21.899759200342473}",dining and drinking > restaurant > mexican restaurant > taco restaurant,1
5a938afa59c4233f3eb768ff,Taquería Rizo,20.809219,-102.773534,Av. José González Carnicerito 732,Tepatitlán de Morelos,JAL,,,,,MX,2018-02-26,2020-11-24,,,,,,,,['4bf58dd8d48988d151941735'],['Dining and Drinking > Restaurant > Mexican Restaurant > Taco Restaurant'],b'\x00\x00\x00\x00\x01\xc0Y\xb1\x81\x94\xc0\x16\x05@4\xcf(\xf9\xf4MD',"{'xmin': -102.773534, 'ymin': 20.809219, 'xmax': -102.773534, 'ymax': 20.809219}",dining and drinking > restaurant > mexican restaurant > taco restaurant,1
53863261498e11317d1d7f05,la patrona de xalisco,20.64218521118164,-103.31783294677734,,,,,,,,MX,2014-05-28,2021-08-14,,,,,,,,['4bf58dd8d48988d151941735'],['Dining and Drinking > Restaurant > Mexican Restaurant > Taco Restaurant'],b'\x00\x00\x00\x00\x01\xc0Y\xd4W`\x00\x00\x00@4\xa4f@\x00\x00\x00',"{'xmin': -103.31783294677734, 'ymin': 20.64218521118164, 'xmax': -103.31783294677734, 'ymax': 20.64218521118164}",dining and drinking > restaurant > mexican restaurant > taco restaurant,1
4e945de002d5a677b0941954,Tacos Doña Pelos,22.1748013568432,-101.0023147192942,,,,,,,,MX,2011-10-11,2021-08-12,,,,,,,,['4bf58dd8d48988d151941735'],['Dining and Drinking > Restaurant > Mexican Restaurant > Taco Restaurant'],"b'\x00\x00\x00\x00\x01\xc0Y@%\xec\xa2\xea\xc1@6,\xbf\xc8\x1e\xf0\x1f'","{'xmin': -101.0023147192942, 'ymin': 22.1748013568432, 'xmax': -101.0023147192942, 'ymax': 22.1748013568432}",dining and drinking > restaurant > mexican restaurant > taco restaurant,1
503986dce4b01850c9b212d3,Santos Tacos,20.9101719165535,-100.72065467071633,,,,,,,,MX,2012-08-26,2021-08-14,,,,,,,,['4bf58dd8d48988d151941735'],['Dining and Drinking > Restaurant > Mexican Restaurant > Taco Restaurant'],b'\x00\x00\x00\x00\x01\xc0Y.\x1f4\xc4\x9b\xec@4\xe9\x01\x06\xd7U\xbe',"{'xmin': -100.72065467071633, 'ymin': 20.9101719165535, 'xmax': -100.72065467071633, 'ymax': 20.9101719165535}",dining and drinking > restaurant > mexican restaurant > taco restaurant,1
4f1f72dde4b03be7a4a3dc95,Asadero El Takazzo,21.090191,-101.64274,Bulevard Paseo De Jerez sur,León,Guanajuato,37530,,,,MX,2012-01-25,2020-11-23,,,,,,,,['4bf58dd8d48988d151941735'],['Dining and Drinking > Restaurant > Mexican Restaurant > Taco Restaurant'],"b'\x00\x00\x00\x00\x01\xc0Yi""\xa6\xf3\xf50@5\x17\x16\xc1\xe3d\xbf'","{'xmin': -101.64274, 'ymin': 21.090191, 'xmax': -101.64274, 'ymax': 21.090191}",dining and drinking > restaurant > mexican restaurant > taco restaurant,1
54448161498e35dcdaf7f529,"Tacos ""El Fogoncito""",21.149774482800954,-100.92604151047594,,,,,,,,MX,2014-10-20,2021-08-14,,,,,,,,['4bf58dd8d48988d151941735'],['Dining and Drinking > Restaurant > Mexican Restaurant > Taco Restaurant'],b'\x00\x00\x00\x00\x01\xc0Y;DC\x9c\x8e\xe3@5&W\x9e\xd9g\xc9',"{'xmin': -100.92604151047594, 'ymin': 21.149774482800954, 'xmax': -100.92604151047594, 'ymax': 21.149774482800954}",dining and drinking > restaurant > mexican restaurant > taco restaurant,1
54f36c74498ee77ce4560d0a,Tortas Ahogadas Los Arcos,21.884849548339844,-102.29557037353516,,,,,,,,MX,2015-03-01,2021-08-13,,,,,,,,['4bf58dd8d48988d151941735'],['Dining and Drinking > Restaurant > Mexican Restaurant > Taco Restaurant'],b'\x00\x00\x00\x00\x01\xc0Y\x92\xea\xa0\x00\x00\x00@5\xe2\x85\x80\x00\x00\x00',"{'xmin': -102.29557037353516, 'ymin': 21.884849548339844, 'xmax': -102.29557037353516, 'ymax': 21.884849548339844}",dining and drinking > restaurant > mexican restaurant > taco restaurant,1
4e5d17101850092869c76380,Pepe's Taco ,20.618936061615212,-105.23077617473449,Honduras 145,Puerto Vallarta,Jalisco,48500,,,,MX,2011-08-30,2023-03-20,,322 223 1703,,,,,,['4bf58dd8d48988d151941735' '4bf58dd8d48988d1c1941735'],"['Dining and Drinking > Restaurant > Mexican Restaurant > Taco Restaurant'
 'Dining and Drinking > Restaurant > Mexican Restaurant']",b'\x00\x00\x00\x00\x01\xc0ZN\xc5\tn\xcb\x8f@4\x9er\x97\xfe\xf3\xcf',"{'xmin': -105.23077617473449, 'ymin': 20.618936061615212, 'xmax': -105.23077617473449, 'ymax': 20.618936061615212}","dining and drinking > restaurant > mexican restaurant > taco restaurant, dining and drinking > restaurant > mexican restaurant",1
5957c6f5db1d8148fe6ca4aa,Tacos La Fogata,20.133791,-101.187356,,Moroleón,GTO,38800,,,,MX,2017-07-01,2020-11-21,,,,,,,,['4bf58dd8d48988d151941735'],['Dining and Drinking > Restaurant > Mexican Restaurant > Taco Restaurant'],"b'\x00\x00\x00\x00\x01\xc0YK\xfd\xa4\x05-f@4""@ \x81\x7f\xc7'","{'xmin': -101.187356, 'ymin': 20.133791, 'xmax': -101.187356, 'ymax': 20.133791}",dining and drinking > restaurant > mexican restaurant > taco restaurant,1
505915b1e4b04e53f62ff672,Tacos Mi Tierra Plaza Caracol,20.64212448740751,-105.23287686255941,,,,,,,,MX,2012-09-19,2021-08-16,,,,,,,,['4bf58dd8d48988d151941735'],['Dining and Drinking > Restaurant > Mexican Restaurant > Taco Restaurant'],"b'\x00\x00\x00\x00\x01\xc0ZN\xe7t[,\x04@4\xa4bE9`C'","{'xmin': -105.23287686255941, 'ymin': 20.64212448740751, 'xmax': -105.23287686255941, 'ymax': 20.64212448740751}",dining and drinking > restaurant > mexican restaurant > taco restaurant,1
52e1e0f6498e8f3c1663a029,tacos pueblo nuevo,20.693187,-101.368715,,,,,,,,MX,2014-01-24,2021-08-14,,,,,,,,['4bf58dd8d48988d151941735'],['Dining and Drinking > Restaurant > Mexican Restaurant > Taco Restaurant'],b'\x00\x00\x00\x00\x01\xc0YW\x99\x06\xcc\xa2\xdb@4\xb1t\xb4\x07\x03*',"{'xmin': -101.368715, 'ymin': 20.693187, 'xmax': -101.368715, 'ymax': 20.693187}",dining and drinking > restaurant > mexican restaurant > taco restaurant,1
50dfa3ede4b0f6dd0e3cc093,Tacos & Papas,20.75744,-105.341346,,,,,,,,MX,2012-12-30,2021-08-16,,,,,,,,['4bf58dd8d48988d151941735'],['Dining and Drinking > Restaurant > Mexican Restaurant > Taco Restaurant'],b'\x00\x00\x00\x00\x01\xc0ZU\xd8\x9c\xe4\xa7\xb5@4\xc1\xe7\x96|\xae\xa7',"{'xmin': -105.341346, 'ymin': 20.75744, 'xmax': -105.341346, 'ymax': 20.75744}",dining and drinking > restaurant > mexican restaurant > taco restaurant,1
58dd21dacf445127bb92a25e,Tacos De Barbacoa El Maca,20.650053,-103.26105,Avenida Constitución 241,Tonalá,Jalisco,45405,,,,MX,2017-03-30,2020-11-23,,,,,,,,['4bf58dd8d48988d151941735'],['Dining and Drinking > Restaurant > Mexican Restaurant > Taco Restaurant'],"b""\x00\x00\x00\x00\x01\xc0Y\xd0\xb5\x0b\x0f'\xbb@4\xa6i\xdf\x97\xaa\xac""","{'xmin': -103.26105, 'ymin': 20.650053, 'xmax': -103.26105, 'ymax': 20.650053}",dining and drinking > restaurant > mexican restaurant > taco restaurant,1
501caa7de4b00a26d48cdaa5,Tacos De Labio,20.648118,-103.317095,Río Nilo,,,,,,,MX,2012-08-04,2021-08-15,,,,,,,,['4bf58dd8d48988d151941735'],['Dining and Drinking > Restaurant > Mexican Restaurant > Taco Restaurant'],b'\x00\x00\x00\x00\x01\xc0Y\xd4KH\xd3\xaeh@4\xa5\xeb\x0f\xad\xf2\xed',"{'xmin': -103.317095, 'ymin': 20.648118, 'xmax': -103.317095, 'ymax': 20.648118}",dining and drinking > restaurant > mexican restaurant > taco restaurant,1
4faecb60e4b01d7a902fa3a4,El Venado Blanco,20.70300296397374,-103.33451907210495,,Guadalajara,,,,,,MX,2012-05-12,2021-08-12,,33 3609 3386,,,,,,['4bf58dd8d48988d151941735'],['Dining and Drinking > Restaurant > Mexican Restaurant > Taco Restaurant'],b'\x00\x00\x00\x00\x01\xc0Y\xd5h\xc2\xae\xa5\x0f@4\xb3\xf8\x00\x93B\x1f',"{'xmin': -103.33451907210495, 'ymin': 20.70300296397374, 'xmax': -103.33451907210495, 'ymax': 20.70300296397374}",dining and drinking > restaurant > mexican restaurant > taco restaurant,1
4eac1f16991107f63cdee4ed,Tacos de Canasta Sí Señor,21.844592554145255,-102.29116937719772,Av Siglo XXI,Aguascalientes,AGS,,,,,MX,2011-10-29,2020-11-25,,,,,,,,['4bf58dd8d48988d151941735'],['Dining and Drinking > Restaurant > Mexican Restaurant > Taco Restaurant'],b'\x00\x00\x00\x00\x01\xc0Y\x92\xa2\x84\xe2*L@5\xd877\xb6\x7f\xbd',"{'xmin': -102.29116937719772, 'ymin': 21.844592554145255, 'xmax': -102.29116937719772, 'ymax': 21.844592554145255}",dining and drinking > restaurant > mexican restaurant > taco restaurant,1
581d5a91cff951205903ec48,Tacos Don Poli,20.728378,-103.362808,,,,,,,,MX,2016-11-05,2021-08-11,,,,,,,,['4bf58dd8d48988d151941735'],['Dining and Drinking > Restaurant > Mexican Restaurant > Taco Restaurant'],b'\x00\x00\x00\x00\x01\xc0Y\xd78?\x0b\xae\x8a@4\xbav\xfb\t :',"{'xmin': -103.362808, 'ymin': 20.728378, 'xmax': -103.362808, 'ymax': 20.728378}",dining and drinking > restaurant > mexican restaurant > taco restaurant,1
5235d1d4498e983b09625773,Tacos Tita,20.69246531514085,-103.3105536115665,,,,,,,,MX,2013-09-15,2021-08-16,,,,,,,,['4bf58dd8d48988d151941735'],['Dining and Drinking > Restaurant > Mexican Restaurant > Taco Restaurant'],b'\x00\x00\x00\x00\x01\xc0Y\xd3\xe0\x1cAUM@4\xb1Eh*$\xf0',"{'xmin': -103.3105536115665, 'ymin': 20.69246531514085, 'xmax': -103.3105536115665, 'ymax': 20.69246531514085}",dining and drinking > restaurant > mexican restaurant > taco restaurant,1
5112c00de4b01f70822ed738,Tortas Ahogadas Cholico,20.62609635142535,-105.22941417984143,Frente A Sheraton,Puerto Vallarta,,,,,,MX,2013-02-06,2020-11-22,,,,,,,,['4bf58dd8d48988d151941735'],['Dining and Drinking > Restaurant > Mexican Restaurant > Taco Restaurant'],b'\x00\x00\x00\x00\x01\xc0ZN\xae\xb8\xcf\xea\x16@4\xa0G\xd9\xb9\x84M',"{'xmin': -105.22941417984143, 'ymin': 20.62609635142535, 'xmax': -105.22941417984143, 'ymax': 20.62609635142535}",dining and drinking > restaurant > mexican restaurant > taco restaurant,1
5647e4e2498e7aac02ffe1cc,Taqueria Ubiarco,20.618616104125977,-103.36770629882812,,,,,,,,MX,2015-11-15,2021-08-13,,,,,,,,['4bf58dd8d48988d151941735'],['Dining and Drinking > Restaurant > Mexican Restaurant > Taco Restaurant'],b'\x00\x00\x00\x00\x01\xc0Y\xd7\x88\x80\x00\x00\x00@4\x9e]\xa0\x00\x00\x00',"{'xmin': -103.36770629882812, 'ymin': 20.618616104125977, 'xmax': -103.36770629882812, 'ymax': 20.618616104125977}",dining and drinking > restaurant > mexican restaurant > taco restaurant,1
4e6ee5f2ae604d1b4565cd39,Taqueria,19.289049454574073,-99.23255031843742,Tizimin,Tlalpan,Distrito Federal,14100,,,,MX,2011-09-13,2020-11-30,,,,,,,,['4bf58dd8d48988d151941735'],['Dining and Drinking > Restaurant > Mexican Restaurant > Taco Restaurant'],"b'\x00\x00\x00\x00\x01\xc0X\xce\xe2\x1a\xbb\x17=@3I\xff%""R\x81'","{'xmin': -99.23255031843742, 'ymin': 19.289049454574073, 'xmax': -99.23255031843742, 'ymax': 19.289049454574073}",dining and drinking > restaurant > mexican restaurant > taco restaurant,1
4d7ce9fb73ca54818ed9667c,Taqueria Mario,17.063029,-96.720042,,,,,,,,MX,2011-03-13,2021-08-16,,,,,,,,['4bf58dd8d48988d151941735'],['Dining and Drinking > Restaurant > Mexican Restaurant > Taco Restaurant'],"b'\x00\x00\x00\x00\x01\xc0X.\x15+\no\xc6@1\x10""\xab%\xb3\x18'","{'xmin': -96.720042, 'ymin': 17.063029, 'xmax': -96.720042, 'ymax': 17.063029}",dining and drinking > restaurant > mexican restaurant > taco restaurant,1
57369ea538fad9b0b83ece54,La Casa del Pastor,17.02286,-96.72985,,,,,,,,MX,2016-05-14,2021-08-16,,,,,,,,['4bf58dd8d48988d151941735'],['Dining and Drinking > Restaurant > Mexican Restaurant > Taco Restaurant'],"b""\x00\x00\x00\x00\x01\xc0X.\xb5\xdc\xc6?\x14@1\x05\xda'(b\xf6""","{'xmin': -96.72985, 'ymin': 17.02286, 'xmax': -96.72985, 'ymax': 17.02286}",dining and drinking > restaurant > mexican restaurant > taco restaurant,1
4fa1f4cbe4b0cceda8a9f764,tacos el pariente,19.30124101099145,-99.64786266231648,"Alfonso Badillo, Delegación Santiago Miltepec, 50020 Toluca, MEX",Toluca,México,,,,,MX,2012-05-03,2020-11-23,,,,,,,,['4bf58dd8d48988d151941735'],['Dining and Drinking > Restaurant > Mexican Restaurant > Taco Restaurant'],b'\x00\x00\x00\x00\x01\xc0X\xe9v\x94\xf4\xbc\xb9@3M\x1e!\x82l\x19',"{'xmin': -99.64786266231648, 'ymin': 19.30124101099145, 'xmax': -99.64786266231648, 'ymax': 19.30124101099145}",dining and drinking > restaurant > mexican restaurant > taco restaurant,1
529426a1498e21322e3784fb,Taqueria El Sazon De Papa,19.201652,-96.205736,Víctor Sánchez Tapia #517,Veracruz,Veracruz,,,,,MX,2013-11-26,2020-11-23,,,,,,,,['4bf58dd8d48988d151941735'],['Dining and Drinking > Restaurant > Mexican Restaurant > Taco Restaurant'],"b'\x00\x00\x00\x00\x01\xc0X\r*\xc7S\xe7\x08@33\x9fw),I'","{'xmin': -96.205736, 'ymin': 19.201652, 'xmax': -96.205736, 'ymax': 19.201652}",dining and drinking > restaurant > mexican restaurant > taco restaurant,1
5327c74c11d2432aecddb8fc,Tacos Mariano,20.3688,-102.7678,Sócrates,Ocotlán,Jalisco,,,,,MX,2014-03-18,2020-11-30,,,,,,,,['4bf58dd8d48988d151941735'],['Dining and Drinking > Restaurant > Mexican Restaurant > Taco Restaurant'],b'\x00\x00\x00\x00\x01\xc0Y\xb1#\xa2\x9cw\x9a@4^i\xadB\xc3\xca',"{'xmin': -102.7678, 'ymin': 20.3688, 'xmax': -102.7678, 'ymax': 20.3688}",dining and drinking > restaurant > mexican restaurant > taco restaurant,1
4efbccc92c5b0c24c9ae0a1d,El Portón Dorado,19.298421321781035,-99.63388219291147,,Toluca,México,,,,,MX,2011-12-29,2020-11-24,,722 280 8551,,,,,,['4bf58dd8d48988d151941735' '4bf58dd8d48988d1c1941735'],"['Dining and Drinking > Restaurant > Mexican Restaurant > Taco Restaurant'
 'Dining and Drinking > Restaurant > Mexican Restaurant']",b'\x00\x00\x00\x00\x01\xc0X\xe8\x91\x86\x9e\x04\x94@3LeV\xf9z\x88',"{'xmin': -99.63388219291147, 'ymin': 19.298421321781035, 'xmax': -99.63388219291147, 'ymax': 19.298421321781035}","dining and drinking > restaurant > mexican restaurant > taco restaurant, dining and drinking > restaurant > mexican restaurant",1
52bf71ee498eb557d3741696,Los del Valle,17.06227466875662,-96.72559592115606,Libres 212,Oaxaca,,68000,,,,MX,2013-12-29,2020-11-21,,,,,,,,['4bf58dd8d48988d151941735'],['Dining and Drinking > Restaurant > Mexican Restaurant > Taco Restaurant'],b'\x00\x00\x00\x00\x01\xc0X.p)\xdf\xde{@1\x0f\xf1;\x91\xad\xcd',"{'xmin': -96.72559592115606, 'ymin': 17.06227466875662, 'xmax': -96.72559592115606, 'ymax': 17.06227466875662}",dining and drinking > restaurant > mexican restaurant > taco restaurant,1
52a8d821498e8085cb0a3e67,Tacos El Cuñado,19.308833941752525,-99.21682252827776,,,,,,,,MX,2013-12-11,2020-11-23,,,,,,,,['4bf58dd8d48988d151941735'],['Dining and Drinking > Restaurant > Mexican Restaurant > Taco Restaurant'],b'\x00\x00\x00\x00\x01\xc0X\xcd\xe0k\x98\xffL@3O\x0f\xbd\xbf\xb8\xcc',"{'xmin': -99.21682252827776, 'ymin': 19.308833941752525, 'xmax': -99.21682252827776, 'ymax': 19.308833941752525}",dining and drinking > restaurant > mexican restaurant > taco restaurant,1
4f29a2dfe4b027f4b014ec4a,Sr. Taco,18.95220051443923,-99.23184150099314,Cuesta Veloz,Cuernavaca,Morelos,,,,,MX,2012-02-01,2020-11-23,,,,,,,,['4bf58dd8d48988d151941735'],['Dining and Drinking > Restaurant > Mexican Restaurant > Taco Restaurant'],"b""\x00\x00\x00\x00\x01\xc0X\xce\xd6}\xbc'\xc0@2\xf3\xc3i\xb4\xc09""","{'xmin': -99.23184150099314, 'ymin': 18.95220051443923, 'xmax': -99.23184150099314, 'ymax': 18.95220051443923}",dining and drinking > restaurant > mexican restaurant > taco restaurant,1
52c06ece498e0f8ba087dd65,carnitas el 90,19.1480035785198,-102.21938200081885,,,,,,,,MX,2013-12-29,2021-08-11,,,,,,,,['4bf58dd8d48988d151941735'],['Dining and Drinking > Restaurant > Mexican Restaurant > Taco Restaurant'],b'\x00\x00\x00\x00\x01\xc0Y\x8e\nZ\xcd\xb6F@3%\xe3\x90\x01n\xfa',"{'xmin': -102.21938200081885, 'ymin': 19.1480035785198, 'xmax': -102.21938200081885, 'ymax': 19.1480035785198}",dining and drinking > restaurant > mexican restaurant > taco restaurant,1
4eff4897e5faf2869b3de492,Tacos Los Vaqueros,19.294639169712713,-99.52870395421493,Industrial Sur,,,,,,,MX,2011-12-31,2021-11-27,,,,,,,,['4bf58dd8d48988d151941735'],['Dining and Drinking > Restaurant > Mexican Restaurant > Taco Restaurant'],"b""\x00\x00\x00\x00\x01\xc0X\xe1\xd6I\x1c'\x9e@3Kmx\xfe\te""","{'xmin': -99.52870395421493, 'ymin': 19.294639169712713, 'xmax': -99.52870395421493, 'ymax': 19.294639169712713}",dining and drinking > restaurant > mexican restaurant > taco restaurant,1
5409f284498e51f0a4e9f908,Miss Chile Ahogados y Alitas,19.70229316142375,-101.17558625097979,Revillagigedo #590 Col. 5 de Mayo,Morelia,Michoacán,58230,,,,MX,2014-09-05,2020-11-23,2016-04-04,443 229 9787,,,,,,['4bf58dd8d48988d151941735'],['Dining and Drinking > Restaurant > Mexican Restaurant > Taco Restaurant'],b'\x00\x00\x00\x00\x01\xc0YK<\xce\x1dex@3\xb3\xc9|\x10\x84\xfb',"{'xmin': -101.17558625097979, 'ymin': 19.70229316142375, 'xmax': -101.17558625097979, 'ymax': 19.70229316142375}",dining and drinking > restaurant > mexican restaurant > taco restaurant,1
5563f1db498ebf779f2010bd,Pastor Y Piña,19.213925118185003,-96.1948340737919,Rio Magdalena,Veracruz,Veracruz,,,,,MX,2015-05-26,2020-11-23,,,,,,,,['4bf58dd8d48988d151941735'],['Dining and Drinking > Restaurant > Mexican Restaurant > Taco Restaurant'],b'\x00\x00\x00\x00\x01\xc0X\x0cx)U\xc5J@36\xc3\xcb\xeae\xc4',"{'xmin': -96.1948340737919, 'ymin': 19.213925118185003, 'xmax': -96.1948340737919, 'ymax': 19.213925118185003}",dining and drinking > restaurant > mexican restaurant > taco restaurant,1
51f705ed498e6c517455793a,"Tacos Coapa ""Quesadillas""",19.304204,-99.12504,,,,,,,,MX,2013-07-30,2021-08-10,,,,,,,,['4bf58dd8d48988d151941735'],['Dining and Drinking > Restaurant > Mexican Restaurant > Taco Restaurant'],b'\x00\x00\x00\x00\x01\xc0X\xc8\x00\xa7\xc5\xacG@3M\xe0P7O\xf8',"{'xmin': -99.12504, 'ymin': 19.304204, 'xmax': -99.12504, 'ymax': 19.304204}",dining and drinking > restaurant > mexican restaurant > taco restaurant,1
529fdd8111d2fab32e15eee2,La Mejor Birria De La Esquina,19.290788003197456,-99.22186460924773,,,,,,,,MX,2013-12-05,2021-08-15,,,,,,,,['4bf58dd8d48988d151941735'],['Dining and Drinking > Restaurant > Mexican Restaurant > Taco Restaurant'],b'\x00\x00\x00\x00\x01\xc0X\xce3\x07\x9e6\xf7@3Jq\x15#\xcd^',"{'xmin': -99.22186460924773, 'ymin': 19.290788003197456, 'xmax': -99.22186460924773, 'ymax': 19.290788003197456}",dining and drinking > restaurant > mexican restaurant > taco restaurant,1
5189ace4498e53e9ac1ef7d9,Taqueria Tacomiendo,17.05390026933632,-96.71183898222341,Avenida Ferrocarril,Oaxaca,oaxaca,,,,,MX,2013-05-08,2020-11-25,,,,,,,,['4bf58dd8d48988d151941735'],['Dining and Drinking > Restaurant > Mexican Restaurant > Taco Restaurant'],b'\x00\x00\x00\x00\x01\xc0X-\x8e\xc5\x17*\xb8@1\r\xcchv\x0b\x8b',"{'xmin': -96.71183898222341, 'ymin': 17.05390026933632, 'xmax': -96.71183898222341, 'ymax': 17.05390026933632}",dining and drinking > restaurant > mexican restaurant > taco restaurant,1
51c5c43f498ea9954a51dd89,Taqueria Mexico,16.177659,-95.19149,,,,,,,,MX,2013-06-22,2021-08-13,,,,,,,,['4bf58dd8d48988d151941735'],['Dining and Drinking > Restaurant > Mexican Restaurant > Taco Restaurant'],b'\x00\x00\x00\x00\x01\xc0W\xccA_E\xe0\xb5@0-{\x0fj\xd7\x0e',"{'xmin': -95.19149, 'ymin': 16.177659, 'xmax': -95.19149, 'ymax': 16.177659}",dining and drinking > restaurant > mexican restaurant > taco restaurant,1
527c5700498e1581c30be4a0,El Carnalito,19.223454418199633,-99.6288365278503,Calle Ignacio Matamoros,San Bartolomé Tlaltelulco,México,,,,,MX,2013-11-08,2020-11-22,,,,,,,,['4bf58dd8d48988d151941735'],['Dining and Drinking > Restaurant > Mexican Restaurant > Taco Restaurant'],b'\x00\x00\x00\x00\x01\xc0X\xe8>\xdb\x90il@394O\nPk',"{'xmin': -99.6288365278503, 'ymin': 19.223454418199633, 'xmax': -99.6288365278503, 'ymax': 19.223454418199633}",dining and drinking > restaurant > mexican restaurant > taco restaurant,1
51d64e97498e823000168ebf,Tacos el Azador,18.88056878640361,-97.72922376851523,,,,,,,,MX,2013-07-05,2021-08-17,,,,,,,,['4bf58dd8d48988d151941735'],['Dining and Drinking > Restaurant > Mexican Restaurant > Taco Restaurant'],b'\x00\x00\x00\x00\x01\xc0Xn\xab\x9a+OH@2\xe1l\xf4\xbb{_',"{'xmin': -97.72922376851523, 'ymin': 18.88056878640361, 'xmax': -97.72922376851523, 'ymax': 18.88056878640361}",dining and drinking > restaurant > mexican restaurant > taco restaurant,1
56537604498ed65cd7b0a7ca,Tacos Los Pumas,19.254038,-99.606878,José María Morelos Y Pavón,Metepec,Estado De México,,,,,MX,2015-11-23,2020-11-21,,,,,,,,['4bf58dd8d48988d151941735'],['Dining and Drinking > Restaurant > Mexican Restaurant > Taco Restaurant'],b'\x00\x00\x00\x00\x01\xc0X\xe6\xd7\x16\xd2\xaa\\@3A\x08\xa2e\xf0\xf6',"{'xmin': -99.606878, 'ymin': 19.254038, 'xmax': -99.606878, 'ymax': 19.254038}",dining and drinking > restaurant > mexican restaurant > taco restaurant,1
7647da2d43f744cb53183e76,Tacos,19.26293,-99.659385,Calle Jesus Carranza 1009,Toluca de Lerdo,Estado de México,50180,,,,MX,2010-11-04,2023-12-06,,,,,,,,['4bf58dd8d48988d151941735'],['Dining and Drinking > Restaurant > Mexican Restaurant > Taco Restaurant'],b'\x00\x00\x00\x00\x01\xc0X\xea3]$\x9eE@3COag#%',"{'xmin': -99.659385, 'ymin': 19.26293, 'xmax': -99.659385, 'ymax': 19.26293}",dining and drinking > restaurant > mexican restaurant > taco restaurant,1
56d62006498e1bd103736f64,Sopes El Cuñado,19.31628793780197,-99.15327720683237,,,,,,,,MX,2016-03-01,2021-08-13,,,,,,,,['4bf58dd8d48988d151941735'],['Dining and Drinking > Restaurant > Mexican Restaurant > Taco Restaurant'],b'\x00\x00\x00\x00\x01\xc0X\xc9\xcfK3\xa4N@3P\xf8?\x0c\xfa\x8f',"{'xmin': -99.15327720683237, 'ymin': 19.31628793780197, 'xmax': -99.15327720683237, 'ymax': 19.31628793780197}",dining and drinking > restaurant > mexican restaurant > taco restaurant,1
5999ab7e491be70d55390743,El Jacalito,19.329533,-99.286376,,Mexico City,CDMX,01830,,,,MX,2017-08-20,2020-11-22,,,,,,,,['4bf58dd8d48988d1c1941735' '4bf58dd8d48988d151941735'],"['Dining and Drinking > Restaurant > Mexican Restaurant'
 'Dining and Drinking > Restaurant > Mexican Restaurant > Taco Restaurant']",b'\x00\x00\x00\x00\x01\xc0X\xd2S\xfc\x00\x96\xff@3T\\FQ\xf3\xe9',"{'xmin': -99.286376, 'ymin': 19.329533, 'xmax': -99.286376, 'ymax': 19.329533}","dining and drinking > restaurant > mexican restaurant, dining and drinking > restaurant > mexican restaurant > taco restaurant",1
5350892a498edf1b0f2d5c1e,Tacos de La vecina,19.333906173706055,-99.06591796875,,,,,,,,MX,2014-04-18,2021-08-17,,,,,,,,['4bf58dd8d48988d151941735'],['Dining and Drinking > Restaurant > Mexican Restaurant > Taco Restaurant'],b'\x00\x00\x00\x00\x01\xc0X\xc48\x00\x00\x00\x00@3Uz\xe0\x00\x00\x00',"{'xmin': -99.06591796875, 'ymin': 19.333906173706055, 'xmax': -99.06591796875, 'ymax': 19.333906173706055}",dining and drinking > restaurant > mexican restaurant > taco restaurant,1
57ba54d1498e379b254aea2e,Taquitos del don,19.331522,-99.159949,,,,,,,,MX,2016-08-22,2021-08-12,,,,,,,,['4bf58dd8d48988d151941735'],['Dining and Drinking > Restaurant > Mexican Restaurant > Taco Restaurant'],b'\x00\x00\x00\x00\x01\xc0X\xca<\x9a\xbb\x01\xc9@3T\xde\xa03\xe7\x8e',"{'xmin': -99.159949, 'ymin': 19.331522, 'xmax': -99.159949, 'ymax': 19.331522}",dining and drinking > restaurant > mexican restaurant > taco restaurant,1
576a9cc4498e67881117ea9a,Taquería Camacho,16.863779,-99.874277,,,,,,,,MX,2016-06-22,2021-08-16,,,,,,,,['4bf58dd8d48988d151941735'],['Dining and Drinking > Restaurant > Mexican Restaurant > Taco Restaurant'],"b""\x00\x00\x00\x00\x01\xc0X\xf7\xf4'\x84\xa9H@0\xdd \x9e\xdb\xf8\xba""","{'xmin': -99.874277, 'ymin': 16.863779, 'xmax': -99.874277, 'ymax': 16.863779}",dining and drinking > restaurant > mexican restaurant > taco restaurant,1
5027e75fe4b063baa17c86f8,Isfam Quecas,19.279459752818063,-99.16854923422862,Ejidos De San Pedro,Df,Df,14650,,,,MX,2012-08-12,2020-11-23,,,,,,,,['4bf58dd8d48988d151941735'],['Dining and Drinking > Restaurant > Mexican Restaurant > Taco Restaurant'],b'\x00\x00\x00\x00\x01\xc0X\xca\xc9\x82\xba1\xc7@3G\x8a\xac\xa2\xe6\xde',"{'xmin': -99.16854923422862, 'ymin': 19.279459752818063, 'xmax': -99.16854923422862, 'ymax': 19.279459752818063}",dining and drinking > restaurant > mexican restaurant > taco restaurant,1
525f544c11d24e19fd2ee5f8,Tacos Peña,18.851318,-97.092286,Oriente 4 Frente Al Museo,Orizaba,Veracruz,94300,,,,MX,2013-10-17,2020-11-22,,,,,,,,['4bf58dd8d48988d151941735'],['Dining and Drinking > Restaurant > Mexican Restaurant > Taco Restaurant'],b'\x00\x00\x00\x00\x01\xc0XE\xe8\x03\x89\xf8<@2\xd9\xef\xf9\xf8\x7f\x02',"{'xmin': -97.092286, 'ymin': 18.851318, 'xmax': -97.092286, 'ymax': 18.851318}",dining and drinking > restaurant > mexican restaurant > taco restaurant,1
4e7e42d9d22d2ad71bd1b6a7,Taqueria Don Beto,19.30632058865093,-99.04289730848569,,Mexico City,Distrito Federal,,,,,MX,2011-09-24,2020-11-23,,,,,,,,['4bf58dd8d48988d151941735'],['Dining and Drinking > Restaurant > Mexican Restaurant > Taco Restaurant'],b'\x00\x00\x00\x00\x01\xc0X\xc2\xbe\xd4ZB\x14@3Nk\x06\xaeX\xe3',"{'xmin': -99.04289730848569, 'ymin': 19.30632058865093, 'xmax': -99.04289730848569, 'ymax': 19.30632058865093}",dining and drinking > restaurant > mexican restaurant > taco restaurant,1
51f14f15498e0ace03d52938,tacos don migue,19.709021184428014,-101.2112102630571,Av Michoacan,Morelia,michoacan,,,,,MX,2013-07-25,2020-11-25,,,,,,,,['4bf58dd8d48988d151941735'],['Dining and Drinking > Restaurant > Mexican Restaurant > Taco Restaurant'],b'\x00\x00\x00\x00\x01\xc0YM\x84x\r\x1a:@3\xb5\x82i\x8fJ\x1d',"{'xmin': -101.2112102630571, 'ymin': 19.709021184428014, 'xmax': -101.2112102630571, 'ymax': 19.709021184428014}",dining and drinking > restaurant > mexican restaurant > taco restaurant,1
501830e8e4b09f5054cf32a1,"""Los Mejores""",18.94879984366982,-99.22531314655156,Teopanzolco,Cuernavaca,Morelos,,,,,MX,2012-07-31,2020-11-22,,,,,,,,['4bf58dd8d48988d151941735'],['Dining and Drinking > Restaurant > Mexican Restaurant > Taco Restaurant'],b'\x00\x00\x00\x00\x01\xc0X\xcek\x87\xd4\xf3\x0f@2\xf2\xe4\x8b\xeb\x03\x05',"{'xmin': -99.22531314655156, 'ymin': 18.94879984366982, 'xmax': -99.22531314655156, 'ymax': 18.94879984366982}",dining and drinking > restaurant > mexican restaurant > taco restaurant,1
4ecc680c6c25f61c31d43a3b,Sr. Taco,19.725520975731534,-101.2049518036009,,Morelia,Michoacán,,,,,MX,2011-11-23,2020-11-25,,,,,,,,['4bf58dd8d48988d151941735'],['Dining and Drinking > Restaurant > Mexican Restaurant > Taco Restaurant'],b'\x00\x00\x00\x00\x01\xc0YM\x1d\xee+n7@3\xb9\xbb\xbe\x1fT6',"{'xmin': -101.2049518036009, 'ymin': 19.725520975731534, 'xmax': -101.2049518036009, 'ymax': 19.725520975731534}",dining and drinking > restaurant > mexican restaurant > taco restaurant,1
64feae6072502f4625fe0295,Los De Fa,17.549192,-99.4989,18 de marzo esq. av. Álvarez,Chilpancingo de los Bravo,Guerrero,39000,,,,MX,2023-09-11,2023-09-11,,,,,,,,['4bf58dd8d48988d151941735'],['Dining and Drinking > Restaurant > Mexican Restaurant > Taco Restaurant'],b'\x00\x00\x00\x00\x01\xc0X\xdf\xed\xfaC\xfe]@1\x8c\x97\xd8\xcf9\x8f',"{'xmin': -99.4989, 'ymin': 17.549192, 'xmax': -99.4989, 'ymax': 17.549192}",dining and drinking > restaurant > mexican restaurant > taco restaurant,1
4e73820ac65bf4cd62169daa,Kikin Tacos Taurinos,19.396390827117592,-102.05388298657739,Atenas SN,Uruapan,Michoacán de Ocampo,,,,,MX,2011-09-16,2020-11-22,,,,,,,,['4bf58dd8d48988d151941735'],['Dining and Drinking > Restaurant > Mexican Restaurant > Taco Restaurant'],b'\x00\x00\x00\x00\x01\xc0Y\x83r\xd1\xa0JI@3ey\xde\x86\xe7\x8a',"{'xmin': -102.05388298657739, 'ymin': 19.396390827117592, 'xmax': -102.05388298657739, 'ymax': 19.396390827117592}",dining and drinking > restaurant > mexican restaurant > taco restaurant,1
636ee4feecefe6309de3f71e,Taquería El Gallo,17.064593,-96.694021,,Santa Lucía del Camino,OAX,71240,,,,MX,2022-11-12,2022-11-12,,,,,,,,['4bf58dd8d48988d151941735'],['Dining and Drinking > Restaurant > Mexican Restaurant > Taco Restaurant'],"b'\x00\x00\x00\x00\x01\xc0X,j\xd7\x0eo/@1\x10\x89*\xb6\x8c\xef'","{'xmin': -96.694021, 'ymin': 17.064593, 'xmax': -96.694021, 'ymax': 17.064593}",dining and drinking > restaurant > mexican restaurant > taco restaurant,1
4f0dfeede4b06ab9f8c4a0c1,Palenque Tacos,19.260232755946944,-99.62491112345137,Carretera Metepec Tenango,Metepec,Mexico,,,,,MX,2012-01-11,2020-11-24,,,,,,,,['4bf58dd8d48988d151941735'],['Dining and Drinking > Restaurant > Mexican Restaurant > Taco Restaurant'],b'\x00\x00\x00\x00\x01\xc0X\xe7\xfe\x8b9\x88V@3B\x9e\x9d(#\xdc',"{'xmin': -99.62491112345137, 'ymin': 19.260232755946944, 'xmax': -99.62491112345137, 'ymax': 19.260232755946944}",dining and drinking > restaurant > mexican restaurant > taco restaurant,1
56b42af9498e098006a0f2e7,LOS CUÑA2,19.300148,-99.17045,Calle 8 Oriente 53,Ciudad de México,Distrito Federal,14030,,,,MX,2016-02-05,2022-10-27,,55 2890 0835,,,,,,['4bf58dd8d48988d151941735'],['Dining and Drinking > Restaurant > Mexican Restaurant > Taco Restaurant'],b'\x00\x00\x00\x00\x01\xc0X\xca\xe8\xa7\x1d\xe6\x9b@3L\xd6\x7f\xd3\xf5\xb6',"{'xmin': -99.17045, 'ymin': 19.300148, 'xmax': -99.17045, 'ymax': 19.300148}",dining and drinking > restaurant > mexican restaurant > taco restaurant,1
52e32c5711d2d2371a0f8d74,Taquearía El Rosal,19.307516145162808,-99.24789151814032,Av. San Jerónimo,,D. F.,,,,,MX,2014-01-25,2021-08-12,,,,,,,,['4bf58dd8d48988d151941735'],['Dining and Drinking > Restaurant > Mexican Restaurant > Taco Restaurant'],b'\x00\x00\x00\x00\x01\xc0X\xcf\xddtb\xd7\x95@3N\xb9`\xcaw\\',"{'xmin': -99.24789151814032, 'ymin': 19.307516145162808, 'xmax': -99.24789151814032, 'ymax': 19.307516145162808}",dining and drinking > restaurant > mexican restaurant > taco restaurant,1
4d01a80d3be26dcb89f873e4,Kalamatakos,19.67563347716045,-101.1822766939927,Juan Pablo II,Morelia,MICH,,,,,MX,2010-12-10,2023-12-21,,443 319 8828,,,,,,['4bf58dd8d48988d10e941735' '4bf58dd8d48988d151941735'],"['Dining and Drinking > Restaurant > Greek Restaurant'
 'Dining and Drinking > Restaurant > Mexican Restaurant > Taco Restaurant']",b'\x00\x00\x00\x00\x01\xc0YK\xaak\xdd\xe1c@3\xac\xf6P\xc8|\xa5',"{'xmin': -101.1822766939927, 'ymin': 19.67563347716045, 'xmax': -101.1822766939927, 'ymax': 19.67563347716045}","dining and drinking > restaurant > greek restaurant, dining and drinking > restaurant > mexican restaurant > taco restaurant",1
50d668f9498e6fa635b45cc5,Quecas De Kitty,19.325739,-99.249713,,,,,,,,MX,2012-12-23,2021-08-16,,,,,,,,['4bf58dd8d48988d151941735'],['Dining and Drinking > Restaurant > Mexican Restaurant > Taco Restaurant'],b'\x00\x00\x00\x00\x01\xc0X\xcf\xfbL<\x18\xb5@3Sc\xa1\x90\x08 ',"{'xmin': -99.249713, 'ymin': 19.325739, 'xmax': -99.249713, 'ymax': 19.325739}",dining and drinking > restaurant > mexican restaurant > taco restaurant,1
5435f794498e389351e87c83,Tacos de la 27,19.148138,-96.116911,,,,,,,,MX,2014-10-09,2020-11-23,,,,,,,,['4bf58dd8d48988d151941735'],['Dining and Drinking > Restaurant > Mexican Restaurant > Taco Restaurant'],b'\x00\x00\x00\x00\x01\xc0X\x07{xFb\xbb@3%\xec_9K{',"{'xmin': -96.116911, 'ymin': 19.148138, 'xmax': -96.116911, 'ymax': 19.148138}",dining and drinking > restaurant > mexican restaurant > taco restaurant,1
525f39e711d2d329d93b0e85,"Taqueria ""La Jarochita""",17.648976,-101.526232,,,,,,,,MX,2013-10-17,2020-11-23,,,,,,,,['4bf58dd8d48988d151941735'],['Dining and Drinking > Restaurant > Mexican Restaurant > Taco Restaurant'],b'\x00\x00\x00\x00\x01\xc0Ya\xad\xc8\xfb\x86\xf4@1\xa6#J\x87\xe3\x8f',"{'xmin': -101.526232, 'ymin': 17.648976, 'xmax': -101.526232, 'ymax': 17.648976}",dining and drinking > restaurant > mexican restaurant > taco restaurant,1
52d74f8811d2d0218e02bd78,Taqueria Mateos,17.554067879742,-99.5050794099706,,,,,,,,MX,2014-01-16,2021-08-15,,,,,,,,['4bf58dd8d48988d151941735'],['Dining and Drinking > Restaurant > Mexican Restaurant > Taco Restaurant'],b'\x00\x00\x00\x00\x01\xc0X\xe0S8\x96\xed;@1\x8d\xd7d\x7fA\x86',"{'xmin': -99.5050794099706, 'ymin': 17.554067879742, 'xmax': -99.5050794099706, 'ymax': 17.554067879742}",dining and drinking > restaurant > mexican restaurant > taco restaurant,1
6078c9a0775dc462dec6842c,Tacos Habana’s,19.305847,-99.111871,,Ciudad de México,CDMX,04950,,,,MX,2021-04-15,2021-04-15,,,,,,,,['4bf58dd8d48988d151941735'],['Dining and Drinking > Restaurant > Mexican Restaurant > Taco Restaurant'],b'\x00\x00\x00\x00\x01\xc0X\xc7(\xe4\xfb\x97\xbb@3NK\xfd.\x94h',"{'xmin': -99.111871, 'ymin': 19.305847, 'xmax': -99.111871, 'ymax': 19.305847}",dining and drinking > restaurant > mexican restaurant > taco restaurant,1
52cb784c498ee7c1ed3deee7,Tacos Doña Chave,18.911516,-103.876251,,,,,,,,MX,2014-01-07,2021-08-17,,,,,,,,['4bf58dd8d48988d151941735'],['Dining and Drinking > Restaurant > Mexican Restaurant > Taco Restaurant'],b'\x00\x00\x00\x00\x01\xc0Y\xf8\x14\x7f\x13\x05\x96@2\xe9Y\x1c\xd1\xc7\xde',"{'xmin': -103.876251, 'ymin': 18.911516, 'xmax': -103.876251, 'ymax': 18.911516}",dining and drinking > restaurant > mexican restaurant > taco restaurant,1
502f2491e4b0c51825851261,tacorama,17.460285629398456,-97.22550909168216,,Nochixtlan,Oaxaca,69600,,,,MX,2012-08-18,2020-11-23,,,,,,,,['4bf58dd8d48988d151941735'],['Dining and Drinking > Restaurant > Mexican Restaurant > Taco Restaurant'],b'\x00\x00\x00\x00\x01\xc0XNn\xbd\xafno@1u\xd5Gm\x15\xcc',"{'xmin': -97.22550909168216, 'ymin': 17.460285629398456, 'xmax': -97.22550909168216, 'ymax': 17.460285629398456}",dining and drinking > restaurant > mexican restaurant > taco restaurant,1
4fcb9c37e4b035b3382aa788,Antojitos La Imperial,18.985854,-99.100757,Revolución de 1910,México,Morelos,,,,,MX,2012-06-03,2020-11-24,,,,,,,,['4bf58dd8d48988d151941735'],['Dining and Drinking > Restaurant > Mexican Restaurant > Taco Restaurant'],b'\x00\x00\x00\x00\x01\xc0X\xc6r\xcd|\xf5\xf5@2\xfc`\xed\x80\xa1{',"{'xmin': -99.100757, 'ymin': 18.985854, 'xmax': -99.100757, 'ymax': 18.985854}",dining and drinking > restaurant > mexican restaurant > taco restaurant,1
50e8e720e4b0e53293c32f6d,Asadero Don Pancho Jr,19.202073,-96.203442,Cabo Dos Bahias,,,91809,,,,MX,2013-01-06,2021-08-14,,,,,,,,['4bf58dd8d48988d151941735'],['Dining and Drinking > Restaurant > Mexican Restaurant > Taco Restaurant'],b'\x00\x00\x00\x00\x01\xc0X\r\x051\x98(\x80@33\xbb\x0e^g\x94',"{'xmin': -96.203442, 'ymin': 19.202073, 'xmax': -96.203442, 'ymax': 19.202073}",dining and drinking > restaurant > mexican restaurant > taco restaurant,1
4ed835d046907c1b4004d738,Taqueria Lupita,17.061810101259404,-96.71174357086043,Avenida Lazaro Cardenas,,,,,,,MX,2011-12-02,2021-08-12,,,,,,,,['4bf58dd8d48988d151941735'],['Dining and Drinking > Restaurant > Mexican Restaurant > Taco Restaurant'],b'\x00\x00\x00\x00\x01\xc0X-\x8d4\xe7\xfe\xf7@1\x0f\xd2\xc9kx\xba',"{'xmin': -96.71174357086043, 'ymin': 17.061810101259404, 'xmax': -96.71174357086043, 'ymax': 17.061810101259404}",dining and drinking > restaurant > mexican restaurant > taco restaurant,1
5a0120a6780eee7d073973da,El Fogon Del Sur,19.281063,-99.14104,,Ciudad de México,Ciudad de México,,,,,MX,2017-11-07,2020-11-30,,,,,,,,['4bf58dd8d48988d151941735'],['Dining and Drinking > Restaurant > Mexican Restaurant > Taco Restaurant'],b'\x00\x00\x00\x00\x01\xc0X\xc9\x06\xcc\xa2\xdbb@3G\xf3\xbe\xa9\x1d\x9b',"{'xmin': -99.14104, 'ymin': 19.281063, 'xmax': -99.14104, 'ymax': 19.281063}",dining and drinking > restaurant > mexican restaurant > taco restaurant,1
53a25795498e3e065fb0e799,Mitote,19.143719,-96.15705,,,,,,,,MX,2014-06-19,2021-08-15,,,,,,,,['4bf58dd8d48988d151941735'],['Dining and Drinking > Restaurant > Mexican Restaurant > Taco Restaurant'],b'\x00\x00\x00\x00\x01\xc0X\n\r\x1bqu\x8e@3$\xca\xc4\xb4\xd0W',"{'xmin': -96.15705, 'ymin': 19.143719, 'xmax': -96.15705, 'ymax': 19.143719}",dining and drinking > restaurant > mexican restaurant > taco restaurant,1
53d9b3c9498e97eab6aa0e52,El Diablo Jr,17.641748,-101.55221,,"Zihuatanejo, GRO",,,,,,MX,2014-07-31,2020-11-24,2017-01-02,,,,,,,['4bf58dd8d48988d151941735'],['Dining and Drinking > Restaurant > Mexican Restaurant > Taco Restaurant'],b'\x00\x00\x00\x00\x01\xc0YcWh\x9c\xa1\x8c@1\xa4I\x98\xd0E\xfe',"{'xmin': -101.55221, 'ymin': 17.641748, 'xmax': -101.55221, 'ymax': 17.641748}",dining and drinking > restaurant > mexican restaurant > taco restaurant,1
4f049610e4b04fbec48b0e02,Tacos El Chino,19.290029629654462,-99.64715569821783,,,,,,,,MX,2012-01-04,2021-08-15,,,,,,,,['4bf58dd8d48988d151941735'],['Dining and Drinking > Restaurant > Mexican Restaurant > Taco Restaurant'],b'\x00\x00\x00\x00\x01\xc0X\xe9j\xff\xbb\xd1\x00@3J?a\xbe<\xa6',"{'xmin': -99.64715569821783, 'ymin': 19.290029629654462, 'xmax': -99.64715569821783, 'ymax': 19.290029629654462}",dining and drinking > restaurant > mexican restaurant > taco restaurant,1
5204780e498e85e8908418f1,Taqueria Los Primos,18.8496302696117,-97.0880010049426,Oriente 6,Orizaba,Veracruz,94300,,,,MX,2013-08-09,2020-11-23,,,,,,,,['4bf58dd8d48988d151941735'],['Dining and Drinking > Restaurant > Mexican Restaurant > Taco Restaurant'],b'\x00\x00\x00\x00\x01\xc0XE\xa1\xce\xf7\x8f\x97@2\xd9\x81^\x8d\xac\x86',"{'xmin': -97.0880010049426, 'ymin': 18.8496302696117, 'xmax': -97.0880010049426, 'ymax': 18.8496302696117}",dining and drinking > restaurant > mexican restaurant > taco restaurant,1
524f5c7211d29b818cfd1c59,Quesadillas Av. blv Benito Juarez,19.283107,-99.209158,,,,,,,,MX,2013-10-05,2021-08-16,,,,,,,,['4bf58dd8d48988d151941735'],['Dining and Drinking > Restaurant > Mexican Restaurant > Taco Restaurant'],b'\x00\x00\x00\x00\x01\xc0X\xcdb\xd8<l\x98@3Hy\xb3JD\xc8',"{'xmin': -99.209158, 'ymin': 19.283107, 'xmax': -99.209158, 'ymax': 19.283107}",dining and drinking > restaurant > mexican restaurant > taco restaurant,1
50dbf498e4b0a253a394dc9e,Independencia,18.452206,-96.363414,Iturbide,Tierra Blanca,Veracruz-Llave,,,,,MX,2012-12-27,2020-11-30,,,,,,,,['4bf58dd8d48988d151941735' '4bf58dd8d48988d16c941735'],"['Dining and Drinking > Restaurant > Mexican Restaurant > Taco Restaurant'
 'Dining and Drinking > Restaurant > Burger Joint']","b'\x00\x00\x00\x00\x01\xc0X\x17B,\xcb:&@2s\xc3\xc5\xbd\x0e\x13'","{'xmin': -96.363414, 'ymin': 18.452206, 'xmax': -96.363414, 'ymax': 18.452206}","dining and drinking > restaurant > mexican restaurant > taco restaurant, dining and drinking > restaurant > burger joint",1
53178f17498e0c29565af458,El Chel,19.292029910669406,-99.12662190984749,,,,,,,,MX,2014-03-05,2023-12-20,,55 5573 4282,,,,,,['4bf58dd8d48988d151941735'],['Dining and Drinking > Restaurant > Mexican Restaurant > Taco Restaurant'],b'\x00\x00\x00\x00\x01\xc0X\xc8\x1a\x92\xc8p!@3J\xc2x\xe3\xc7f',"{'xmin': -99.12662190984749, 'ymin': 19.292029910669406, 'xmax': -99.12662190984749, 'ymax': 19.292029910669406}",dining and drinking > restaurant > mexican restaurant > taco restaurant,1
