fsq_place_id,name,latitude,longitude,address,locality,region,postcode,admin_region,post_town,po_box,country,date_created,date_refreshed,date_closed,tel,website,email,facebook_id,instagram,twitter,fsq_category_ids,fsq_category_labels,geom,bbox,labels_str,taco_restaurant
77e8d32957104b4d3f07974b,El Perro Guarumo,,,7 Norte 42,Puebla,Puebla,,,,,MX,2010-10-13,2023-12-06,,,http://www.grupozambrano.es.tl,,,,,['4bf58dd8d48988d151941735'],['Dining and Drinking > Restaurant > Mexican Restaurant > Taco Restaurant'],,"{'xmin': None, 'ymin': None, 'xmax': None, 'ymax': None}",dining and drinking > restaurant > mexican restaurant > taco restaurant,1
d7b33dafe63a4f56304043b3,Saboune International Trade Group,,,Cam al Iteso 8650,Guadalajara,Jalisco,44008,,,,MX,2013-04-12,2023-12-06,,33 3634 0020,http://www.arbanys.com.mx,,,,,"['4bf58dd8d48988d16d941735' '4bf58dd8d48988d151941735'
 '4bf58dd8d48988d1bd941735']","['Dining and Drinking > Cafe, Coffee, and Tea House > Café'
 'Dining and Drinking > Restaurant > Mexican Restaurant > Taco Restaurant'
 'Dining and Drinking > Restaurant > Salad Restaurant']",,"{'xmin': None, 'ymin': None, 'xmax': None, 'ymax': None}","dining and drinking > cafe, coffee, and tea house > café, dining and drinking > restaurant > mexican restaurant > taco restaurant, dining and drinking > restaurant > salad restaurant",1
50784d00e4b08ed646d78fe1,"Birria ""Los 3 Toritos""",32.4564863878336,-116.88721243840514,,,,,,,,MX,2012-10-12,2021-08-15,,,,,,,,['4bf58dd8d48988d151941735'],['Dining and Drinking > Restaurant > Mexican Restaurant > Taco Restaurant'],b'\x00\x00\x00\x00\x01\xc0]8\xc8\x16\xad\xe3}@@:n%]hA',"{'xmin': -116.88721243840514, 'ymin': 32.4564863878336, 'xmax': -116.88721243840514, 'ymax': 32.4564863878336}",dining and drinking > restaurant > mexican restaurant > taco restaurant,1
4fe2a62be4b02209bdac3db4,Taco Veloz,31.834271,-116.605888,,,,,,,,MX,2012-06-21,2021-08-17,,,,,,,,['4bf58dd8d48988d151941735'],['Dining and Drinking > Restaurant > Mexican Restaurant > Taco Restaurant'],b'\x00\x00\x00\x00\x01\xc0]&\xc6\xdevB|@?\xd5\x92\xc8\xc5\x00P',"{'xmin': -116.605888, 'ymin': 31.834271, 'xmax': -116.605888, 'ymax': 31.834271}",dining and drinking > restaurant > mexican restaurant > taco restaurant,1
5902c1e0eacf4521f031915b,Tacos De Puerquito Al Horno Estilo Nayarita,32.483212,-116.918246,,Tijuana,BC,22580,,,,MX,2017-04-28,2020-11-30,,,,,,,,['4bf58dd8d48988d151941735'],['Dining and Drinking > Restaurant > Mexican Restaurant > Taco Restaurant'],b'\x00\x00\x00\x00\x01\xc0]:\xc4\x8a\xde\xeb\xb3@@=\xd9\xe4\x0c\x84s',"{'xmin': -116.918246, 'ymin': 32.483212, 'xmax': -116.918246, 'ymax': 32.483212}",dining and drinking > restaurant > mexican restaurant > taco restaurant,1
51f33c8d498e553b7328a9a7,Taqueria el Pariente,31.906159,-116.59176,,,,,,,,MX,2013-07-27,2021-08-13,,,,,,,,['4bf58dd8d48988d151941735'],['Dining and Drinking > Restaurant > Mexican Restaurant > Taco Restaurant'],b'\x00\x00\x00\x00\x01\xc0]%\xdfeU\xc5.@?\xe7\xfa\tE\xf9\xdf',"{'xmin': -116.59176, 'ymin': 31.906159, 'xmax': -116.59176, 'ymax': 31.906159}",dining and drinking > restaurant > mexican restaurant > taco restaurant,1
4dbd88bf0cb691071cbbd606,Tacos de Birria El Paisa,32.50487510796108,-116.97953662564261,,Tijuana,BC,22450,,,,MX,2011-05-01,2020-11-24,,,,,,,,['4bf58dd8d48988d151941735'],['Dining and Drinking > Restaurant > Mexican Restaurant > Taco Restaurant'],b'\x00\x00\x00\x00\x01\xc0]>\xb0\xbac\x17\xa1@@@\x9f\xbf^\xa0\xef',"{'xmin': -116.97953662564261, 'ymin': 32.50487510796108, 'xmax': -116.97953662564261, 'ymax': 32.50487510796108}",dining and drinking > restaurant > mexican restaurant > taco restaurant,1
5a231c7f60255e3bcab4b458,Tacos De Birria Teziutlan,32.512438,-116.997426,,Tijuana,BC,22100,,,,MX,2017-12-02,2020-11-30,,,,,,,,['4bf58dd8d48988d151941735'],['Dining and Drinking > Restaurant > Mexican Restaurant > Taco Restaurant'],b'\x00\x00\x00\x00\x01\xc0]?\xd5\xd3\xdc\x8b\x87@@A\x97\x91\x81\x9d$',"{'xmin': -116.997426, 'ymin': 32.512438, 'xmax': -116.997426, 'ymax': 32.512438}",dining and drinking > restaurant > mexican restaurant > taco restaurant,1
43500e222c0145dc2383893f,Tacos de Guisado Panduro,32.659611,-115.463635,Mariano Arista Esq. H 1600,Mexicali,Baja California,21100,,,,MX,2013-04-05,2023-12-06,,686 554 6179,,,,,,['4bf58dd8d48988d16e941735' '4bf58dd8d48988d151941735'],"['Dining and Drinking > Restaurant > Fast Food Restaurant'
 'Dining and Drinking > Restaurant > Mexican Restaurant > Taco Restaurant']","b'\x00\x00\x00\x00\x01\xc0\\\xdd\xac2""\x91\xfb@@Tn""\x1c\x8az'","{'xmin': -115.463635, 'ymin': 32.659611, 'xmax': -115.463635, 'ymax': 32.659611}","dining and drinking > restaurant > fast food restaurant, dining and drinking > restaurant > mexican restaurant > taco restaurant",1
4d95564c647d8cfa57f99d3d,Tacos El Campanario,32.6057776742178,-115.48684678357675,cataratas del niagara,Mexicali,Baja California,,,,,MX,2011-04-01,2020-11-23,,,,,,,,['4bf58dd8d48988d151941735'],['Dining and Drinking > Restaurant > Mexican Restaurant > Taco Restaurant'],b'\x00\x00\x00\x00\x01\xc0\\\xdf(\x7fig\xff@@M\x8a\x1fq\xb4\xc9',"{'xmin': -115.48684678357675, 'ymin': 32.6057776742178, 'xmax': -115.48684678357675, 'ymax': 32.6057776742178}",dining and drinking > restaurant > mexican restaurant > taco restaurant,1
51bfe526498e60fa8759a259,Taqueria Los Reyes,31.902488,-116.592941,Ignacio Allende,,,,,,,MX,2013-06-18,2020-11-22,,,,,,,,['4bf58dd8d48988d151941735'],['Dining and Drinking > Restaurant > Mexican Restaurant > Taco Restaurant'],b'\x00\x00\x00\x00\x01\xc0]%\xf2\xbe\xce\xddH@?\xe7\tt\x1d\x08O',"{'xmin': -116.592941, 'ymin': 31.902488, 'xmax': -116.592941, 'ymax': 31.902488}",dining and drinking > restaurant > mexican restaurant > taco restaurant,1
4db1f12e93a0615768614603,Los jardines,31.860063442571104,-116.61807060241699,1302 Espinosa,Ensenada,Baja California,22800,,,,MX,2011-04-22,2020-11-23,,,,,,,,['4bf58dd8d48988d1ce941735' '4bf58dd8d48988d151941735'],"['Dining and Drinking > Restaurant > Seafood Restaurant'
 'Dining and Drinking > Restaurant > Mexican Restaurant > Taco Restaurant']","b""\x00\x00\x00\x00\x01\xc0]'\x8ex\x00\x00\x00@?\xdc-\x1e&S\xfc""","{'xmin': -116.61807060241699, 'ymin': 31.860063442571104, 'xmax': -116.61807060241699, 'ymax': 31.860063442571104}","dining and drinking > restaurant > seafood restaurant, dining and drinking > restaurant > mexican restaurant > taco restaurant",1
4fff2385e4b0970f4d8879c5,Tacos el llegale,32.47278594970703,-114.78604125976562,,,,,,,,MX,2012-07-12,2021-08-11,,,,,,,,['4bf58dd8d48988d151941735'],['Dining and Drinking > Restaurant > Mexican Restaurant > Taco Restaurant'],b'\x00\x00\x00\x00\x01\xc0\\\xb2N\x80\x00\x00\x00@@<\x84@\x00\x00\x00',"{'xmin': -114.78604125976562, 'ymin': 32.47278594970703, 'xmax': -114.78604125976562, 'ymax': 32.47278594970703}",dining and drinking > restaurant > mexican restaurant > taco restaurant,1
5cb0a17f6336be002cbcccee,Pelotero La Bola Tacos De Cabeza Y Barbacoa,32.359077,-117.049355,,Rosarito,Baja California,22710,,,,MX,2019-04-12,2020-11-22,,,,,,,,['4bf58dd8d48988d151941735'],['Dining and Drinking > Restaurant > Mexican Restaurant > Taco Restaurant'],b'\x00\x00\x00\x00\x01\xc0]C(\xa1\xdf\xb99@@-\xf6<1\xdfv',"{'xmin': -117.049355, 'ymin': 32.359077, 'xmax': -117.049355, 'ymax': 32.359077}",dining and drinking > restaurant > mexican restaurant > taco restaurant,1
4cdf59e778ddf04d4997a098,Tacos El Cerro Colorado,32.47610731812057,-116.92098319530487,Bulevar Insurgentes,Tijuana,Baja California,,,,,MX,2010-11-14,2020-11-25,,,,,,,,['4bf58dd8d48988d151941735'],['Dining and Drinking > Restaurant > Mexican Restaurant > Taco Restaurant'],b'\x00\x00\x00\x00\x01\xc0]:\xf1c\x80\x00\x00@@<\xf1\x15\xa8[h',"{'xmin': -116.92098319530487, 'ymin': 32.47610731812057, 'xmax': -116.92098319530487, 'ymax': 32.47610731812057}",dining and drinking > restaurant > mexican restaurant > taco restaurant,1
58597793c0df762a78059b9d,Paquirri Alimentos,32.531385,-117.016998,,Tijuana,Baja California,,,,,MX,2016-12-20,2020-11-30,,,,,,,,['4bf58dd8d48988d151941735'],['Dining and Drinking > Restaurant > Mexican Restaurant > Taco Restaurant'],b'\x00\x00\x00\x00\x01\xc0]A\x16~\xc7\x86<@@D\x04lvJ\xe0',"{'xmin': -117.016998, 'ymin': 32.531385, 'xmax': -117.016998, 'ymax': 32.531385}",dining and drinking > restaurant > mexican restaurant > taco restaurant,1
4f111261e4b03856effacd0a,Takon-tento,32.586791,-115.579851,Av. Tulia,Chicoloapan,Estado De México,56377,,,,MX,2012-01-14,2020-11-30,,,,,,,,['4bf58dd8d48988d151941735'],['Dining and Drinking > Restaurant > Mexican Restaurant > Taco Restaurant'],"b""\x00\x00\x00\x00\x01\xc0\\\xe5\x1cG^cc@@K\x1b\xf7\xadK'""","{'xmin': -115.579851, 'ymin': 32.586791, 'xmax': -115.579851, 'ymax': 32.586791}",dining and drinking > restaurant > mexican restaurant > taco restaurant,1
4f733476e4b053123f9b09c0,Molino y tortilleria Tijuana,32.52928939334794,-116.9759836668368,UABC,Tijuana,Baja California,,,,,MX,2012-03-28,2020-11-25,,,,,,,,['4bf58dd8d48988d151941735'],['Dining and Drinking > Restaurant > Mexican Restaurant > Taco Restaurant'],b'\x00\x00\x00\x00\x01\xc0]>v\x842\x9f\xa1@@C\xbf\xc1=FH',"{'xmin': -116.9759836668368, 'ymin': 32.52928939334794, 'xmax': -116.9759836668368, 'ymax': 32.52928939334794}",dining and drinking > restaurant > mexican restaurant > taco restaurant,1
536f856c498e31b95733473d,Carnitas El Info,20.645801104504656,-105.21291885227207,Atardecer 111,Puerto Vallarta,jalisco,,,,,MX,2014-05-11,2020-11-22,,,,,,,,['4bf58dd8d48988d151941735'],['Dining and Drinking > Restaurant > Mexican Restaurant > Taco Restaurant'],b'\x00\x00\x00\x00\x01\xc0ZM\xa0vd\xcdw@4\xa5S8\x9f\x91t',"{'xmin': -105.21291885227207, 'ymin': 20.645801104504656, 'xmax': -105.21291885227207, 'ymax': 20.645801104504656}",dining and drinking > restaurant > mexican restaurant > taco restaurant,1
56c24d40cd105e263792a64b,Mis tacos,20.684833,-103.366929,Juan Álvarez 1443,Guadalajara,Jalisco,,,,,MX,2016-02-15,2021-08-16,,,,,,,,['4bf58dd8d48988d151941735'],['Dining and Drinking > Restaurant > Mexican Restaurant > Taco Restaurant'],b'\x00\x00\x00\x00\x01\xc0Y\xd7{\xc3\xc5\xbd\x0e@4\xafQ7*8\xb9',"{'xmin': -103.366929, 'ymin': 20.684833, 'xmax': -103.366929, 'ymax': 20.684833}",dining and drinking > restaurant > mexican restaurant > taco restaurant,1
512d1643e4b053d1bf02745b,"Tacos y gorditas ""El Gallo""",20.672839,-103.345827,Prisciliano Sánchez 167,Guadalajara,Jalisco,,,,,MX,2013-02-26,2021-08-13,,33 3613 2235,,,,,,['4bf58dd8d48988d151941735'],['Dining and Drinking > Restaurant > Mexican Restaurant > Taco Restaurant'],"b'\x00\x00\x00\x00\x01\xc0Y\xd6""\x07\x91\xc4\xb9@4\xac?-<y-'","{'xmin': -103.345827, 'ymin': 20.672839, 'xmax': -103.345827, 'ymax': 20.672839}",dining and drinking > restaurant > mexican restaurant > taco restaurant,1
51219604e4b0bc189aead097,Tacos Don Pancho,20.60097244676872,-103.41347916242641,Av. Primavera,Tlaquepaque,,,,,,MX,2013-02-18,2020-11-22,,,http://tacosdonpancho.com.mx,,,,,['4bf58dd8d48988d151941735' '4bf58dd8d48988d1c1941735'],"['Dining and Drinking > Restaurant > Mexican Restaurant > Taco Restaurant'
 'Dining and Drinking > Restaurant > Mexican Restaurant']",b'\x00\x00\x00\x00\x01\xc0Y\xdavqN\x0c\xbb@4\x99\xd9T\x8c\xab3',"{'xmin': -103.41347916242641, 'ymin': 20.60097244676872, 'xmax': -103.41347916242641, 'ymax': 20.60097244676872}","dining and drinking > restaurant > mexican restaurant > taco restaurant, dining and drinking > restaurant > mexican restaurant",1
56c7da34cd1086304ea71898,Cordero de Dios,19.69207,-101.200662,,,,,,,,MX,2016-02-20,2021-08-15,,,,,,,,['4bf58dd8d48988d151941735'],['Dining and Drinking > Restaurant > Mexican Restaurant > Taco Restaurant'],b'\x00\x00\x00\x00\x01\xc0YL\xd7\xa5m\xe32@3\xb1+\x7f\xe0\x8a\xf0',"{'xmin': -101.200662, 'ymin': 19.69207, 'xmax': -101.200662, 'ymax': 19.69207}",dining and drinking > restaurant > mexican restaurant > taco restaurant,1
4eb0e4fd8b813ed007e3a6ed,Tacos Pancho,21.895351127082805,-102.31115535890741,Av. Fundición,Aguascalientes,AGS,,,,,MX,2011-11-02,2020-11-23,,,,,,,,['4bf58dd8d48988d151941735'],['Dining and Drinking > Restaurant > Mexican Restaurant > Taco Restaurant'],b'\x00\x00\x00\x00\x01\xc0Y\x93\xe9\xf8*\x9e\xe1@5\xe55\xbbAA\xe4',"{'xmin': -102.31115535890741, 'ymin': 21.895351127082805, 'xmax': -102.31115535890741, 'ymax': 21.895351127082805}",dining and drinking > restaurant > mexican restaurant > taco restaurant,1
5a427780898bdc169aa84e57,Tacos Y Gorditas Doña Pera Y Familia.,20.6526,-103.4388,,Zapopan,Jalisco,45036,,,,MX,2017-12-26,2020-11-25,,,,,,,,['4bf58dd8d48988d151941735'],['Dining and Drinking > Restaurant > Mexican Restaurant > Taco Restaurant'],b'\x00\x00\x00\x00\x01\xc0Y\xdc\x15L\x98_\x07@4\xa7\x10\xcb)^\x9e',"{'xmin': -103.4388, 'ymin': 20.6526, 'xmax': -103.4388, 'ymax': 20.6526}",dining and drinking > restaurant > mexican restaurant > taco restaurant,1
4f776c2ae4b03b459d6c96ae,Tortilleria Juarez,20.70111081523243,-101.35837810431634,,,,,,,,MX,2012-03-31,2021-08-12,,,,,,,,['4bf58dd8d48988d151941735'],['Dining and Drinking > Restaurant > Mexican Restaurant > Taco Restaurant'],b'\x00\x00\x00\x00\x01\xc0YV\xef\xaa\xb7i\t@4\xb3{\xff\x96K\x91',"{'xmin': -101.35837810431634, 'ymin': 20.70111081523243, 'xmax': -101.35837810431634, 'ymax': 20.70111081523243}",dining and drinking > restaurant > mexican restaurant > taco restaurant,1
50909009e4b070cd5bd3340b,Pacharelas JENNY,20.539391,-100.839816,,,,,,,,MX,2012-10-31,2021-08-14,,,,,,,,['4bf58dd8d48988d151941735'],['Dining and Drinking > Restaurant > Mexican Restaurant > Taco Restaurant'],b'\x00\x00\x00\x00\x01\xc0Y5\xbf\x8b\x9b\xaa\x15@4\x8a\x15\x87P\xc1\xb9',"{'xmin': -100.839816, 'ymin': 20.539391, 'xmax': -100.839816, 'ymax': 20.539391}",dining and drinking > restaurant > mexican restaurant > taco restaurant,1
606e5e35326bfe0031e7e837,Eduardo's Tacos,20.714676,-105.274956,Valle de México,Mezcales,Nayarit,63735,,,,MX,2021-04-08,2021-04-08,,,,,,,,['4bf58dd8d48988d151941735'],['Dining and Drinking > Restaurant > Mexican Restaurant > Taco Restaurant'],b'\x00\x00\x00\x00\x01\xc0ZQ\x98\xe1\x0c\xf5\xb2@4\xb6\xf5\x01\x9f<q',"{'xmin': -105.274956, 'ymin': 20.714676, 'xmax': -105.274956, 'ymax': 20.714676}",dining and drinking > restaurant > mexican restaurant > taco restaurant,1
4c825a4d8ce59c745d9e78b0,Taquería Crispín,21.153576210123646,-101.69850106410061,308 Blvd. Juan Alonso de Torres. Lomas Campestre,León,Guanajuato,,,,,MX,2010-09-04,2023-12-20,,477 250 9210,,,,,,['4bf58dd8d48988d151941735'],['Dining and Drinking > Restaurant > Mexican Restaurant > Taco Restaurant'],"b'\x00\x00\x00\x00\x01\xc0Yl\xb4=\xce\xa2""@5\'P\xc5?\xec\xb8'","{'xmin': -101.69850106410061, 'ymin': 21.153576210123646, 'xmax': -101.69850106410061, 'ymax': 21.153576210123646}",dining and drinking > restaurant > mexican restaurant > taco restaurant,1
4fd5446de4b034e1fadea84e,Tacos Chago,20.451861790249133,-101.52910967276254,,,,,,,,MX,2012-06-11,2021-08-10,,,,,,,,['4bf58dd8d48988d151941735'],['Dining and Drinking > Restaurant > Mexican Restaurant > Taco Restaurant'],b'\x00\x00\x00\x00\x01\xc0Ya\xdc\xee\xd1 \xcb@4s\xad6\xdbn\x9a',"{'xmin': -101.52910967276254, 'ymin': 20.451861790249133, 'xmax': -101.52910967276254, 'ymax': 20.451861790249133}",dining and drinking > restaurant > mexican restaurant > taco restaurant,1
4db63e7d5da3a76f4462ecba,Tacos San Judas,20.69813750837935,-103.34260729166935,,Guadalajara,JAL,,,,,MX,2011-04-26,2021-08-12,,,,,,,,['4bf58dd8d48988d151941735'],['Dining and Drinking > Restaurant > Mexican Restaurant > Taco Restaurant'],"b'\x00\x00\x00\x00\x01\xc0Y\xd5\xedG""E\xd3@4\xb2\xb9#\xc6\x99\xa9'","{'xmin': -103.34260729166935, 'ymin': 20.69813750837935, 'xmax': -103.34260729166935, 'ymax': 20.69813750837935}",dining and drinking > restaurant > mexican restaurant > taco restaurant,1
4ea3723ae5facb29c7b454c3,Tacos Joven,22.132894,-100.985397,,San Luis Potosí,San Luis Potosí,,,,,MX,2011-10-23,2020-11-30,,,,,,,,['4bf58dd8d48988d151941735'],['Dining and Drinking > Restaurant > Mexican Restaurant > Taco Restaurant'],"b'\x00\x00\x00\x00\x01\xc0Y?\x10\xbe\x94$\xe6@6""\x05WW\xd5\xaa'","{'xmin': -100.985397, 'ymin': 22.132894, 'xmax': -100.985397, 'ymax': 22.132894}",dining and drinking > restaurant > mexican restaurant > taco restaurant,1
5a6bddf7c47cf902da8f08a8,Tacos Tin-Tin,21.036242,-101.84871,,San Francisco del Rincón,Guanajuato,36330,,,,MX,2018-01-27,2020-11-25,,,,,,,,['4bf58dd8d48988d151941735'],['Dining and Drinking > Restaurant > Mexican Restaurant > Taco Restaurant'],"b""\x00\x00\x00\x00\x01\xc0YvQC\xbfrq@5\tG'\xdc\xbd\xdc""","{'xmin': -101.84871, 'ymin': 21.036242, 'xmax': -101.84871, 'ymax': 21.036242}",dining and drinking > restaurant > mexican restaurant > taco restaurant,1
585ebd76e386e329a47a550f,Tacos Beny,20.852355,-103.424866,Valle de Zapopan No. 1315-74,,,,,,,MX,2016-12-24,2020-11-22,,,,,,,,['4bf58dd8d48988d151941735'],['Dining and Drinking > Restaurant > Mexican Restaurant > Taco Restaurant'],b'\x00\x00\x00\x00\x01\xc0Y\xdb1\x01)\xcb\xab@4\xda3\xef\xf1\x95\x03',"{'xmin': -103.424866, 'ymin': 20.852355, 'xmax': -103.424866, 'ymax': 20.852355}",dining and drinking > restaurant > mexican restaurant > taco restaurant,1
4fc98279e4b0f9aeca61f406,Tacos El Güero,20.695283889770508,-103.31619262695312,,,,,,,,MX,2012-06-02,2021-08-13,,,,,,,,['4bf58dd8d48988d151941735'],['Dining and Drinking > Restaurant > Mexican Restaurant > Taco Restaurant'],b'\x00\x00\x00\x00\x01\xc0Y\xd4<\x80\x00\x00\x00@4\xb1\xfe \x00\x00\x00',"{'xmin': -103.31619262695312, 'ymin': 20.695283889770508, 'xmax': -103.31619262695312, 'ymax': 20.695283889770508}",dining and drinking > restaurant > mexican restaurant > taco restaurant,1
4f6bb9ade4b032eb616d5de8,Las Tortugas de leon,21.098987,-101.646367,,,,,,,,MX,2012-03-22,2023-12-20,,477 212 1154,,,,,,['4bf58dd8d48988d151941735'],['Dining and Drinking > Restaurant > Mexican Restaurant > Taco Restaurant'],b'\x00\x00\x00\x00\x01\xc0Yi^\x13\xb1\x8d\xac@5\x19W6G\xba\xaa',"{'xmin': -101.646367, 'ymin': 21.098987, 'xmax': -101.646367, 'ymax': 21.098987}",dining and drinking > restaurant > mexican restaurant > taco restaurant,1
5686c399498e685a03afb520,Taqueria Los Tascales,20.513532,-100.808983,,,,,,,,MX,2016-01-01,2021-08-16,,,,,,,,"['4bf58dd8d48988d151941735' '4bf58dd8d48988d18c941735'
 '56aa371be4b08b9a8d573566']","['Dining and Drinking > Restaurant > Mexican Restaurant > Taco Restaurant'
 'Arts and Entertainment > Stadium > Baseball Stadium'
 'Retail > Sporting Goods Retail > Ski Store']",b'\x00\x00\x00\x00\x01\xc0Y3\xc6`\xa2\x01G@4\x83v\xd5Is\x11',"{'xmin': -100.808983, 'ymin': 20.513532, 'xmax': -100.808983, 'ymax': 20.513532}","dining and drinking > restaurant > mexican restaurant > taco restaurant, arts and entertainment > stadium > baseball stadium, retail > sporting goods retail > ski store",1
4dc63d1945dd26455285ec45,"La aurora tacos ""Mary Paz""",20.6555128503769,-105.23555677672269,,Puerto Vallarta,Jalisco,,,,,MX,2011-05-08,2020-11-22,,,,,,,,['4bf58dd8d48988d151941735'],['Dining and Drinking > Restaurant > Mexican Restaurant > Taco Restaurant'],b'\x00\x00\x00\x00\x01\xc0ZO\x13\\\xbb\x18\x02@4\xa7\xcf\xb0\xaey\xfe',"{'xmin': -105.23555677672269, 'ymin': 20.6555128503769, 'xmax': -105.23555677672269, 'ymax': 20.6555128503769}",dining and drinking > restaurant > mexican restaurant > taco restaurant,1
57e958b938faf76937ac1887,Valentina,20.676819,-103.34231,Paseo Hospicio,Guadalajara,Jalisco,44100,,,,MX,2016-09-26,2021-08-15,,,,,,,,['4bf58dd8d48988d151941735'],['Dining and Drinking > Restaurant > Mexican Restaurant > Taco Restaurant'],b'\x00\x00\x00\x00\x01\xc0Y\xd5\xe8h3\xc6\x00@4\xadD\x02\x8eO\xb9',"{'xmin': -103.34231, 'ymin': 20.676819, 'xmax': -103.34231, 'ymax': 20.676819}",dining and drinking > restaurant > mexican restaurant > taco restaurant,1
515a374ee4b08cb52d1b5c46,"Tacos ""El Viejo Mulo""",20.704815414453165,-103.3529389026063,San Juan De Ulúa,Zapopan,Jalisco,,,,,MX,2013-04-02,2021-08-11,,,,,,,,['4bf58dd8d48988d151941735'],['Dining and Drinking > Restaurant > Mexican Restaurant > Taco Restaurant'],b'\x00\x00\x00\x00\x01\xc0Y\xd6\x96\x8d\r\x0b\x88@4\xb4n\xc8r\xcb\x04',"{'xmin': -103.3529389026063, 'ymin': 20.704815414453165, 'xmax': -103.3529389026063, 'ymax': 20.704815414453165}",dining and drinking > restaurant > mexican restaurant > taco restaurant,1
51e172b3498e6f174001d294,Tacos de Barbacoa,20.65828367545901,-103.39778141029117,Av. Chapalita,Guadalajara,Jalisco,,,,,MX,2013-07-13,2021-08-15,,,,,,,,['4bf58dd8d48988d151941735'],['Dining and Drinking > Restaurant > Mexican Restaurant > Taco Restaurant'],b'\x00\x00\x00\x00\x01\xc0Y\xd9u@)\n\x12@4\xa8\x85Gi\x96N',"{'xmin': -103.39778141029117, 'ymin': 20.65828367545901, 'xmax': -103.39778141029117, 'ymax': 20.65828367545901}",dining and drinking > restaurant > mexican restaurant > taco restaurant,1
51003460e4b09cb49c951be0,Carnitas Don Toño,20.915874,-100.741345,Colegio 13,San Miguel de Allende,Guanajuato,,,,,MX,2013-01-23,2024-06-23,,,,,102361633158018.0,,,['4bf58dd8d48988d151941735'],['Dining and Drinking > Restaurant > Mexican Restaurant > Taco Restaurant'],b'\x00\x00\x00\x00\x01\xc0Y/r2L\x83f@4\xeav\xb7\xedA\xb7',"{'xmin': -100.741345, 'ymin': 20.915874, 'xmax': -100.741345, 'ymax': 20.915874}",dining and drinking > restaurant > mexican restaurant > taco restaurant,1
4df858d818385456c7f4885f,Tacos Los Tacuaches,19.689794296706634,-101.19186438157145,,Morelia,MICH,,,,,MX,2011-06-15,2021-11-29,,,,,,,,['4bf58dd8d48988d151941735'],['Dining and Drinking > Restaurant > Mexican Restaurant > Taco Restaurant'],b'\x00\x00\x00\x00\x01\xc0YLG\x81\x8b\x07w@3\xb0\x96[\xe9R\x83',"{'xmin': -101.19186438157145, 'ymin': 19.689794296706634, 'xmax': -101.19186438157145, 'ymax': 19.689794296706634}",dining and drinking > restaurant > mexican restaurant > taco restaurant,1
5090058ae4b00a94782a012c,El Puerquito De Oro,21.155622856084502,-100.93560351149034,,,,,,,,MX,2012-10-30,2021-08-11,,,,,,,,['4bf58dd8d48988d151941735'],['Dining and Drinking > Restaurant > Mexican Restaurant > Taco Restaurant'],"b""\x00\x00\x00\x00\x01\xc0Y;\xe0\xed\x8c\xf7\xec@5'\xd6\xe6Ed\x9f""","{'xmin': -100.93560351149034, 'ymin': 21.155622856084502, 'xmax': -100.93560351149034, 'ymax': 21.155622856084502}",dining and drinking > restaurant > mexican restaurant > taco restaurant,1
4ee131862c5b955eefa2bbe7,"Taqueria ""El Cantarito""",20.697106581991914,-103.35151191886493,,,,,,,,MX,2011-12-08,2021-08-17,,,,,,,,['4bf58dd8d48988d151941735'],['Dining and Drinking > Restaurant > Mexican Restaurant > Taco Restaurant'],b'\x00\x00\x00\x00\x01\xc0Y\xd6\x7f+\xd8\xebv@4\xb2u\x93\xb3{K',"{'xmin': -103.35151191886493, 'ymin': 20.697106581991914, 'xmax': -103.35151191886493, 'ymax': 20.697106581991914}",dining and drinking > restaurant > mexican restaurant > taco restaurant,1
516cada3498ee52d443f9f13,Tacos La Caseta,20.55583953857422,-100.83404541015625,,,,,,,,MX,2013-04-16,2021-08-14,,,,,,,,['4bf58dd8d48988d151941735'],['Dining and Drinking > Restaurant > Mexican Restaurant > Taco Restaurant'],b'\x00\x00\x00\x00\x01\xc0Y5a\x00\x00\x00\x00@4\x8eK\x80\x00\x00\x00',"{'xmin': -100.83404541015625, 'ymin': 20.55583953857422, 'xmax': -100.83404541015625, 'ymax': 20.55583953857422}",dining and drinking > restaurant > mexican restaurant > taco restaurant,1
50dfeb65e4b0c73e700cc4c1,tacos el paisa,21.888574600219727,-102.24707794189453,,,,,,,,MX,2012-12-30,2021-08-16,,,,,,,,['4bf58dd8d48988d151941735'],['Dining and Drinking > Restaurant > Mexican Restaurant > Taco Restaurant'],b'\x00\x00\x00\x00\x01\xc0Y\x8f\xd0 \x00\x00\x00@5\xe3y\xa0\x00\x00\x00',"{'xmin': -102.24707794189453, 'ymin': 21.888574600219727, 'xmax': -102.24707794189453, 'ymax': 21.888574600219727}",dining and drinking > restaurant > mexican restaurant > taco restaurant,1
4d7e52032ff9b60c482eaa47,Taqueria Los Angeles Mañaneros,20.681384580244472,-101.36207393918735,Calzada de los chinacos 1204,Irapuato,GTO,36500,,,,MX,2011-03-14,2020-11-21,,462 152 0028,,,,,,['4bf58dd8d48988d151941735'],['Dining and Drinking > Restaurant > Mexican Restaurant > Taco Restaurant'],"b'\x00\x00\x00\x00\x01\xc0YW,8+\xe2\xca@4\xaeo8H&\x11'","{'xmin': -101.36207393918735, 'ymin': 20.681384580244472, 'xmax': -101.36207393918735, 'ymax': 20.681384580244472}",dining and drinking > restaurant > mexican restaurant > taco restaurant,1
4e0e0466b0fb59de67d2188c,Tacos Don Lolo,21.897857577372854,-102.3031746914388,Av. Convención de 1914 Nte.,Aguascalientes,Aguascalientes,20020,,,,MX,2011-07-01,2020-11-30,,,,,,,,['4bf58dd8d48988d151941735'],['Dining and Drinking > Restaurant > Mexican Restaurant > Taco Restaurant'],b'\x00\x00\x00\x00\x01\xc0Y\x93g6\xd2-\x17@5\xe5\xd9\xfe\x83H>',"{'xmin': -102.3031746914388, 'ymin': 21.897857577372854, 'xmax': -102.3031746914388, 'ymax': 21.897857577372854}",dining and drinking > restaurant > mexican restaurant > taco restaurant,1
564e524b498ed9e5c6007c9e,Taquería La Flama,20.963545749710622,-101.31530704071443,,,,,,,,MX,2015-11-19,2021-08-14,,,,,,,,['4bf58dd8d48988d151941735'],['Dining and Drinking > Restaurant > Mexican Restaurant > Taco Restaurant'],b'\x00\x00\x00\x00\x01\xc0YT-\xfd\x95\x04J@4\xf6\xaa\xef+4\xf9',"{'xmin': -101.31530704071443, 'ymin': 20.963545749710622, 'xmax': -101.31530704071443, 'ymax': 20.963545749710622}",dining and drinking > restaurant > mexican restaurant > taco restaurant,1
567a0998498ea45d26c6d3a3,"Tacos ""El Güero""",19.230288,-104.562836,Hidalgo,Cihuatlán,,,,,,MX,2015-12-23,2020-11-23,,,,,,,,['4bf58dd8d48988d151941735'],['Dining and Drinking > Restaurant > Mexican Restaurant > Taco Restaurant'],"b""\x00\x00\x00\x00\x01\xc0Z$\x05\x81I@\xbc@3:\xf4'\x84\xa9H""","{'xmin': -104.562836, 'ymin': 19.230288, 'xmax': -104.562836, 'ymax': 19.230288}",dining and drinking > restaurant > mexican restaurant > taco restaurant,1
5a7b255961e53b6774c86cc5,Lita’s Tacos,20.512346,-105.314659,,Puerto Vallarta,JAL,48270,,,,MX,2018-02-07,2020-11-24,,,,,,,,['4bf58dd8d48988d151941735'],['Dining and Drinking > Restaurant > Mexican Restaurant > Taco Restaurant'],b'\x00\x00\x00\x00\x01\xc0ZT#_\x80\x99\x18@4\x83)\x1b\x82<\x86',"{'xmin': -105.314659, 'ymin': 20.512346, 'xmax': -105.314659, 'ymax': 20.512346}",dining and drinking > restaurant > mexican restaurant > taco restaurant,1
5e6cea5e5d9883000834491c,Tacos Ary,20.673525,-103.35011,,Guadalajara,Jalisco,44100,,,,MX,2020-03-14,2021-08-19,,,,,,,,['4bf58dd8d48988d151941735'],['Dining and Drinking > Restaurant > Mexican Restaurant > Taco Restaurant'],"b'\x00\x00\x00\x00\x01\xc0Y\xd6h3\xc6\x00*@4\xacl""h\t\xd5'","{'xmin': -103.35011, 'ymin': 20.673525, 'xmax': -103.35011, 'ymax': 20.673525}",dining and drinking > restaurant > mexican restaurant > taco restaurant,1
5dc640db166b1e0008a843a3,Tacos De Asada,20.80952,-103.48466,,,,,,,,MX,2019-11-09,2021-08-16,,,,,,,,['4bf58dd8d48988d151941735'],['Dining and Drinking > Restaurant > Mexican Restaurant > Taco Restaurant'],b'\x00\x00\x00\x00\x01\xc0Y\xdf\x04\xab`k{@4\xcf<\xb3\xe5u:',"{'xmin': -103.48466, 'ymin': 20.80952, 'xmax': -103.48466, 'ymax': 20.80952}",dining and drinking > restaurant > mexican restaurant > taco restaurant,1
513cb8b6e4b081263f88e9a2,Tacos toto,20.68088830207719,-103.28631646493709,Plutarco Elias Calles,Guadalajara,Jalisco,,,,,MX,2013-03-10,2021-08-16,,,,,,,,['4bf58dd8d48988d151941735'],['Dining and Drinking > Restaurant > Mexican Restaurant > Taco Restaurant'],b'\x00\x00\x00\x00\x01\xc0Y\xd2S\x02KM\x83@4\xaeN\xb2\x1d\xa6\x87',"{'xmin': -103.28631646493709, 'ymin': 20.68088830207719, 'xmax': -103.28631646493709, 'ymax': 20.68088830207719}",dining and drinking > restaurant > mexican restaurant > taco restaurant,1
52b9f92a498e0090b07ac8a2,"Tacos ""Guin""",20.68754005432129,-103.341064453125,,Guadalajara,,,,,,MX,2013-12-24,2021-08-14,,,,,,,,['4bf58dd8d48988d151941735'],['Dining and Drinking > Restaurant > Mexican Restaurant > Taco Restaurant'],b'\x00\x00\x00\x00\x01\xc0Y\xd5\xd4\x00\x00\x00\x00@4\xb0\x02\xa0\x00\x00\x00',"{'xmin': -103.341064453125, 'ymin': 20.68754005432129, 'xmax': -103.341064453125, 'ymax': 20.68754005432129}",dining and drinking > restaurant > mexican restaurant > taco restaurant,1
52a1364211d2d3be61ee75d2,Tacos Ruelas,20.480122,-100.969066,,,,,,,,MX,2013-12-06,2021-08-16,,,,,,,,['4bf58dd8d48988d151941735'],['Dining and Drinking > Restaurant > Mexican Restaurant > Taco Restaurant'],b'\x00\x00\x00\x00\x01\xc0Y>\x05-fj\x98@4z\xe9F\x80\x17\x12',"{'xmin': -100.969066, 'ymin': 20.480122, 'xmax': -100.969066, 'ymax': 20.480122}",dining and drinking > restaurant > mexican restaurant > taco restaurant,1
962e5909edb04cb66eb14737,Taco Dorado,20.695681,-103.284451,Albino Corso Angel 3582,Guadalajara,Jalisco,44720,,,,MX,2013-05-03,2024-08-04,,33 3604 3301,,,,,,['4bf58dd8d48988d151941735'],['Dining and Drinking > Restaurant > Mexican Restaurant > Taco Restaurant'],b'\x00\x00\x00\x00\x01\xc0Y\xd24q\xf7\x94!@4\xb2\x18&gr\xd6',"{'xmin': -103.284451, 'ymin': 20.695681, 'xmax': -103.284451, 'ymax': 20.695681}",dining and drinking > restaurant > mexican restaurant > taco restaurant,1
634a1978480c1a5accf1dce4,Taquería Los De La Ventana,19.251328,-103.731649,Pino Suarez Esquina Balvino Davalos,Colima,COL,28050,,,,MX,2022-10-15,2022-10-15,,,,,,,,['4bf58dd8d48988d151941735'],['Dining and Drinking > Restaurant > Mexican Restaurant > Taco Restaurant'],b'\x00\x00\x00\x00\x01\xc0Y\xee\xd3VS\xc9\xac@3@W\x08$\x91\xb0',"{'xmin': -103.731649, 'ymin': 19.251328, 'xmax': -103.731649, 'ymax': 19.251328}",dining and drinking > restaurant > mexican restaurant > taco restaurant,1
5723de3b498e6bd675ad4d4f,Tacos de Asada,20.616574,-103.231166,,,,,,,,MX,2016-04-29,2020-11-23,,,,,,,,['4bf58dd8d48988d151941735'],['Dining and Drinking > Restaurant > Mexican Restaurant > Taco Restaurant'],b'\x00\x00\x00\x00\x01\xc0Y\xce\xcblz|\x9e@4\x9d\xd7\xcb-\x90\\',"{'xmin': -103.231166, 'ymin': 20.616574, 'xmax': -103.231166, 'ymax': 20.616574}",dining and drinking > restaurant > mexican restaurant > taco restaurant,1
5117059ce4b03863c5c11d66,Tacos Los Paisas,21.001458655893675,-101.28590210880711,Real de Marfil,Guanajuato,Guanajuato,36250,,,,MX,2013-02-10,2020-11-25,,,,,,,,['4bf58dd8d48988d151941735'],['Dining and Drinking > Restaurant > Mexican Restaurant > Taco Restaurant'],b'\x00\x00\x00\x00\x01\xc0YRL8[\xcb\xc6@5\x00_\x98/\\\x05',"{'xmin': -101.28590210880711, 'ymin': 21.001458655893675, 'xmax': -101.28590210880711, 'ymax': 21.001458655893675}",dining and drinking > restaurant > mexican restaurant > taco restaurant,1
4e3ffe35e4cdab9b93639331,Tacos Don Robert,20.677953,-105.247517,,Puerto Vallarta,Jalisco,,,,,MX,2011-08-08,2020-11-25,,,,,,,,['4bf58dd8d48988d151941735'],['Dining and Drinking > Restaurant > Mexican Restaurant > Taco Restaurant'],b'\x00\x00\x00\x00\x01\xc0ZO\xd7Q\x8b\r\x0f@4\xad\x8eS\xeb9\x9f',"{'xmin': -105.247517, 'ymin': 20.677953, 'xmax': -105.247517, 'ymax': 20.677953}",dining and drinking > restaurant > mexican restaurant > taco restaurant,1
51084643e4b09e79a75b9074,El Taco H,20.62063,-103.247352,Av. Tonaltecas 239,Tonalá,Jalisco,45400,,,,MX,2013-01-29,2020-11-25,,,,,,,,['4bf58dd8d48988d151941735'],['Dining and Drinking > Restaurant > Mexican Restaurant > Taco Restaurant'],b'\x00\x00\x00\x00\x01\xc0Y\xcf\xd4\x9d{\xa6j@4\x9e\xe1\x9b\x90\xea\x9e',"{'xmin': -103.247352, 'ymin': 20.62063, 'xmax': -103.247352, 'ymax': 20.62063}",dining and drinking > restaurant > mexican restaurant > taco restaurant,1
625ae9981872cd1b0dbe1fdb,Taqueria Ian,19.151351,-104.335574,,Manzanillo,COL,28820,,,,MX,2022-04-16,2022-04-16,,,,,,,,['4bf58dd8d48988d151941735'],['Dining and Drinking > Restaurant > Mexican Restaurant > Taco Restaurant'],b'\x00\x00\x00\x00\x01\xc0Z\x15z\x0b^\xd8\xd3@3&\xbe\xf0k7\x86',"{'xmin': -104.335574, 'ymin': 19.151351, 'xmax': -104.335574, 'ymax': 19.151351}",dining and drinking > restaurant > mexican restaurant > taco restaurant,1
4f8b5ee5e4b01832079ee9db,Borrego Rafael Sanzio,20.63431429284896,-103.43032450421384,,,,,,,,MX,2012-04-15,2021-08-16,,,,,,,,['4bf58dd8d48988d151941735'],['Dining and Drinking > Restaurant > Mexican Restaurant > Taco Restaurant'],b'\x00\x00\x00\x00\x01\xc0Y\xdb\x8ao\xca\x11\x04@4\xa2bk\xe7+\xf1',"{'xmin': -103.43032450421384, 'ymin': 20.63431429284896, 'xmax': -103.43032450421384, 'ymax': 20.63431429284896}",dining and drinking > restaurant > mexican restaurant > taco restaurant,1
59bc2bde270ee77dbf0d46d4,Dom Fabrício,20.648954,-103.41424,Calle Tenochtitlán,Zapopan,Jalisco,45050,,,,MX,2017-09-15,2020-11-23,,,,,,,,['4bf58dd8d48988d151941735'],['Dining and Drinking > Restaurant > Mexican Restaurant > Taco Restaurant'],"b'\x00\x00\x00\x00\x01\xc0Y\xda\x82\xe8},|@4\xa6!\xd9n\x9b\xbf'","{'xmin': -103.41424, 'ymin': 20.648954, 'xmax': -103.41424, 'ymax': 20.648954}",dining and drinking > restaurant > mexican restaurant > taco restaurant,1
4e57da38b0fb4c4d61f6c90d,Tacos el Paso,20.652008953002355,-103.40037877050284,,Zapopan,Jalisco,,,,,MX,2011-08-26,2020-11-25,,33 3122 2969,,,,,,['4bf58dd8d48988d151941735'],['Dining and Drinking > Restaurant > Mexican Restaurant > Taco Restaurant'],b'\x00\x00\x00\x00\x01\xc0Y\xd9\x9f\xceGT\xa2@4\xa6\xea\x0f\t\xd8%',"{'xmin': -103.40037877050284, 'ymin': 20.652008953002355, 'xmax': -103.40037877050284, 'ymax': 20.652008953002355}",dining and drinking > restaurant > mexican restaurant > taco restaurant,1
53338cd0498e612d26a7be99,Tacos El Brazza,21.160548042986495,-101.67550458323153,,,,,,,,MX,2014-03-27,2021-08-11,,,,,,,,['4bf58dd8d48988d151941735'],['Dining and Drinking > Restaurant > Mexican Restaurant > Taco Restaurant'],b'\x00\x00\x00\x00\x01\xc0Yk;w\x93Q\xc3@5)\x19\xad2\x10U',"{'xmin': -101.67550458323153, 'ymin': 21.160548042986495, 'xmax': -101.67550458323153, 'ymax': 21.160548042986495}",dining and drinking > restaurant > mexican restaurant > taco restaurant,1
5a2cc2fce2d4aa3b9970b261,Tacos Piteko,20.644203,-101.33766,,Irapuato,Guanajuato,36584,,,,MX,2017-12-10,2020-11-30,,,,,,,,['4bf58dd8d48988d151941735'],['Dining and Drinking > Restaurant > Mexican Restaurant > Taco Restaurant'],b'\x00\x00\x00\x00\x01\xc0YU\x9c8\xb0J\xb6@4\xa4\xea|\xe0\xfc/',"{'xmin': -101.33766, 'ymin': 20.644203, 'xmax': -101.33766, 'ymax': 20.644203}",dining and drinking > restaurant > mexican restaurant > taco restaurant,1
57fbc985498eab93ffd097f9,Un Taco Max,20.69441,-103.350557,,,,,,,,MX,2016-10-10,2021-08-12,,,,,,,,['4bf58dd8d48988d151941735'],['Dining and Drinking > Restaurant > Mexican Restaurant > Taco Restaurant'],b'\x00\x00\x00\x00\x01\xc0Y\xd6o\x86\xa0\x98\x91@4\xb1\xc4\xda\x90\x03\xef',"{'xmin': -103.350557, 'ymin': 20.69441, 'xmax': -103.350557, 'ymax': 20.69441}",dining and drinking > restaurant > mexican restaurant > taco restaurant,1
5055476ae4b0e95b0ee58499,"Taqueria Y Loncheria ""La Guadalupana""",20.6312368521783,-103.37862734677105,Calle 7,Guadalajara,Jalisco,,,,,MX,2012-09-16,2021-08-16,,,,,,,,['4bf58dd8d48988d151941735'],['Dining and Drinking > Restaurant > Mexican Restaurant > Taco Restaurant'],"b'\x00\x00\x00\x00\x01\xc0Y\xd8;n1\xf00@4\xa1\x98\xbd\x04""\xc3'","{'xmin': -103.37862734677105, 'ymin': 20.6312368521783, 'xmax': -103.37862734677105, 'ymax': 20.6312368521783}",dining and drinking > restaurant > mexican restaurant > taco restaurant,1
50df219ce4b09f5e850fb368,Mis tacos al vapor,20.67196986482127,-103.28574146009221,,,,,,,,MX,2012-12-29,2021-08-16,,,,,,,,['4bf58dd8d48988d151941735'],['Dining and Drinking > Restaurant > Mexican Restaurant > Taco Restaurant'],b'\x00\x00\x00\x00\x01\xc0Y\xd2I\x96\x8c\x8dE@4\xac\x067\x91N\x0e',"{'xmin': -103.28574146009221, 'ymin': 20.67196986482127, 'xmax': -103.28574146009221, 'ymax': 20.67196986482127}",dining and drinking > restaurant > mexican restaurant > taco restaurant,1
5b1497e751950e002c48ea56,El Rincon Del Taco,20.593295,-101.199209,,Salamanca,GTO,36724,,,,MX,2018-06-04,2020-11-24,,,,,,,,['4bf58dd8d48988d151941735'],['Dining and Drinking > Restaurant > Mexican Restaurant > Taco Restaurant'],b'\x00\x00\x00\x00\x01\xc0YL\xbf\xd7\x1b\x04h@4\x97\xe2.]\xe1]',"{'xmin': -101.199209, 'ymin': 20.593295, 'xmax': -101.199209, 'ymax': 20.593295}",dining and drinking > restaurant > mexican restaurant > taco restaurant,1
50a6cd9fe4b0147e42d8a2f8,Tacos Hoyo 4,20.578157235592588,-103.30044436845947,,,,,,,,MX,2012-11-16,2020-11-30,,,,,,,,['4bf58dd8d48988d151941735'],['Dining and Drinking > Restaurant > Mexican Restaurant > Taco Restaurant'],b'\x00\x00\x00\x00\x01\xc0Y\xd3:{\x043@@4\x94\x02\x1c\xd2\xd0\xe1',"{'xmin': -103.30044436845947, 'ymin': 20.578157235592588, 'xmax': -103.30044436845947, 'ymax': 20.578157235592588}",dining and drinking > restaurant > mexican restaurant > taco restaurant,1
571a883b498ed30e82413321,Marsella Taqueria,20.678944,-103.3707,,,,,,,,MX,2016-04-22,2021-08-16,,,,,,,,['4bf58dd8d48988d151941735'],['Dining and Drinking > Restaurant > Mexican Restaurant > Taco Restaurant'],b'\x00\x00\x00\x00\x01\xc0Y\xd7\xb9\x8c~($@4\xad\xcfF#\xd0\xc0',"{'xmin': -103.3707, 'ymin': 20.678944, 'xmax': -103.3707, 'ymax': 20.678944}",dining and drinking > restaurant > mexican restaurant > taco restaurant,1
57a6885c498e31a660478609,"Taqueria ""Barrios""",21.808742,-105.209349,,,,,,,,MX,2016-08-07,2021-08-15,,,,,,,,['4bf58dd8d48988d151941735'],['Dining and Drinking > Restaurant > Mexican Restaurant > Taco Restaurant'],b'\x00\x00\x00\x00\x01\xc0ZMe\xf9Y\x1c\xd2@5\xcf\t\xb78\xe6\xd1',"{'xmin': -105.209349, 'ymin': 21.808742, 'xmax': -105.209349, 'ymax': 21.808742}",dining and drinking > restaurant > mexican restaurant > taco restaurant,1
60d657a2d95c691625b3bd3a,Tacos Arandas,21.876117,-102.334206,,Aguascalientes,AGS,20326,,,,MX,2021-06-25,2021-06-25,,,,,,,,['4bf58dd8d48988d151941735' '4bf58dd8d48988d1c1941735'],"['Dining and Drinking > Restaurant > Mexican Restaurant > Taco Restaurant'
 'Dining and Drinking > Restaurant > Mexican Restaurant']",b'\x00\x00\x00\x00\x01\xc0Y\x95c\xa1\x90\x08 @5\xe0I4&x:',"{'xmin': -102.334206, 'ymin': 21.876117, 'xmax': -102.334206, 'ymax': 21.876117}","dining and drinking > restaurant > mexican restaurant > taco restaurant, dining and drinking > restaurant > mexican restaurant",1
501498d4e4b00c78e47b0cc1,Gorditas Doña Mary,20.129679216166945,-101.19849145314627,Juárez,,,,,,,MX,2012-07-29,2021-08-11,,,,,,,,['4bf58dd8d48988d151941735'],['Dining and Drinking > Restaurant > Mexican Restaurant > Taco Restaurant'],b'\x00\x00\x00\x00\x01\xc0YL\xb4\x15~\xf3\x1f@4!2\xa88ho',"{'xmin': -101.19849145314627, 'ymin': 20.129679216166945, 'xmax': -101.19849145314627, 'ymax': 20.129679216166945}",dining and drinking > restaurant > mexican restaurant > taco restaurant,1
4f8f9ec3e4b04e17440f9e62,Tacos gay,20.5428553,-104.8102888,López Cotilla,,,,,,,MX,2012-04-19,2021-08-14,,,,,,,,['4bf58dd8d48988d151941735'],['Dining and Drinking > Restaurant > Mexican Restaurant > Taco Restaurant'],b'\x00\x00\x00\x00\x01\xc0Z3\xdb\xc5\x8e\x14*@4\x8a\xf8\x90\x9f\xf5\xd4',"{'xmin': -104.8102888, 'ymin': 20.5428553, 'xmax': -104.8102888, 'ymax': 20.5428553}",dining and drinking > restaurant > mexican restaurant > taco restaurant,1
5dccc70197d51a000833f279,La Matona,20.632976,-105.229148,,Puerto Vallarta,JAL,48310,,,,MX,2019-11-14,2020-11-30,,,,,,,,['4bf58dd8d48988d151941735'],['Dining and Drinking > Restaurant > Mexican Restaurant > Taco Restaurant'],"b""\x00\x00\x00\x00\x01\xc0ZN\xaa\\_|g@4\xa2\n\xb7\x13'$""","{'xmin': -105.229148, 'ymin': 20.632976, 'xmax': -105.229148, 'ymax': 20.632976}",dining and drinking > restaurant > mexican restaurant > taco restaurant,1
531dfe15498ed1a940f3f92a,tacos elias,20.72165392812944,-103.32234405124055,,,,,,,,MX,2014-03-10,2021-08-14,,,,,,,,['4bf58dd8d48988d151941735'],['Dining and Drinking > Restaurant > Mexican Restaurant > Taco Restaurant'],b'\x00\x00\x00\x00\x01\xc0Y\xd4\xa1H\xf1\x88\xda@4\xb8\xbeO\xd4X\x8c',"{'xmin': -103.32234405124055, 'ymin': 20.72165392812944, 'xmax': -103.32234405124055, 'ymax': 20.72165392812944}",dining and drinking > restaurant > mexican restaurant > taco restaurant,1
50e9e001e4b0688e4d884418,tocumbo,20.683108386691302,-103.36815165717258,Herrera Y Cairo,Guadalajara,Jalisco,,,,,MX,2013-01-06,2021-08-15,,,,,,,,['4bf58dd8d48988d151941735'],['Dining and Drinking > Restaurant > Mexican Restaurant > Taco Restaurant'],b'\x00\x00\x00\x00\x01\xc0Y\xd7\x8f\xcb\xf7\xe1\x90@4\xae\xe00\xf4vd',"{'xmin': -103.36815165717258, 'ymin': 20.683108386691302, 'xmax': -103.36815165717258, 'ymax': 20.683108386691302}",dining and drinking > restaurant > mexican restaurant > taco restaurant,1
518daf68498e10467a88d748,Tacos Los Güeros,20.683608273416997,-101.34916052272717,,,,,,,,MX,2013-05-11,2021-08-15,,,,,,,,['4bf58dd8d48988d151941735'],['Dining and Drinking > Restaurant > Mexican Restaurant > Taco Restaurant'],b'\x00\x00\x00\x00\x01\xc0YVX\xa5`\x8a\xb8@4\xaf\x00\xf3\xa9\x99\xdd',"{'xmin': -101.34916052272717, 'ymin': 20.683608273416997, 'xmax': -101.34916052272717, 'ymax': 20.683608273416997}",dining and drinking > restaurant > mexican restaurant > taco restaurant,1
4f28af45e4b0eb70d4984a40,Tacos Las Chorreadas,20.666846329441235,-103.40434293163528,12 De Dic,,,,,,,MX,2012-02-01,2021-08-15,,,,,,,,['4bf58dd8d48988d151941735'],['Dining and Drinking > Restaurant > Mexican Restaurant > Taco Restaurant'],"b'\x00\x00\x00\x00\x01\xc0Y\xd9\xe0\xc1,\xef\x82@4\xaa\xb6p\xe8hb'","{'xmin': -103.40434293163528, 'ymin': 20.666846329441235, 'xmax': -103.40434293163528, 'ymax': 20.666846329441235}",dining and drinking > restaurant > mexican restaurant > taco restaurant,1
5743379b498ea4910b6eea19,El Hay Jode,19.687416,-101.23535,,,,,,,,MX,2016-05-23,2021-08-16,,,,,,,,['4bf58dd8d48988d151941735'],['Dining and Drinking > Restaurant > Mexican Restaurant > Taco Restaurant'],b'\x00\x00\x00\x00\x01\xc0YO\x0f\xf9rGE@3\xaf\xfa~\xb6\xbfD',"{'xmin': -101.23535, 'ymin': 19.687416, 'xmax': -101.23535, 'ymax': 19.687416}",dining and drinking > restaurant > mexican restaurant > taco restaurant,1
58b0e88123188e2a64f9260e,Carne Asada Juan Pablo II,20.66664,-101.37957,,,,,,,,MX,2017-02-25,2021-08-17,,,,,,,,['4bf58dd8d48988d151941735'],['Dining and Drinking > Restaurant > Mexican Restaurant > Taco Restaurant'],"b'\x00\x00\x00\x00\x01\xc0YXJ\xdf\xf8""\xbc@4\xaa\xa8\xebF4\x98'","{'xmin': -101.37957, 'ymin': 20.66664, 'xmax': -101.37957, 'ymax': 20.66664}",dining and drinking > restaurant > mexican restaurant > taco restaurant,1
50dbbdcae4b050d7b9aa8a59,Tacos El David,20.63265,-103.311011,Herrera I Cairo Y Rep. de Chile,Tlaquepaque,Jalisco,,,,,MX,2012-12-27,2020-11-26,,,,,,,,['4bf58dd8d48988d151941735'],['Dining and Drinking > Restaurant > Mexican Restaurant > Taco Restaurant'],b'\x00\x00\x00\x00\x01\xc0Y\xd3\xe7\x9a\xael\x8f@4\xa1\xf5Y\xb3\xd0}',"{'xmin': -103.311011, 'ymin': 20.63265, 'xmax': -103.311011, 'ymax': 20.63265}",dining and drinking > restaurant > mexican restaurant > taco restaurant,1
50d77db0e4b047bb0ad332e5,Las Ahogadas De La China,21.89874,-102.313248,Av. Fundición 2007-A,Aguascalientes,AGS,20010,,,,MX,2012-12-23,2020-11-22,,449 912 3149,,,,,,['4bf58dd8d48988d1c1941735' '4bf58dd8d48988d151941735'],"['Dining and Drinking > Restaurant > Mexican Restaurant'
 'Dining and Drinking > Restaurant > Mexican Restaurant > Taco Restaurant']",b'\x00\x00\x00\x00\x01\xc0Y\x94\x0cAV\xe2e@5\xe6\x13\xd3\x1b\x9bg',"{'xmin': -102.313248, 'ymin': 21.89874, 'xmax': -102.313248, 'ymax': 21.89874}","dining and drinking > restaurant > mexican restaurant, dining and drinking > restaurant > mexican restaurant > taco restaurant",1
5466c4fa498ed1a67d31aba2,"Taqueria ""Otro rollo""",20.653002,-103.250866,,,,,,,,MX,2014-11-15,2021-08-12,,,,,,,,['4bf58dd8d48988d151941735'],['Dining and Drinking > Restaurant > Mexican Restaurant > Taco Restaurant'],b'\x00\x00\x00\x00\x01\xc0Y\xd0\x0e0Dkj@4\xa7+#\x9a8\xfc',"{'xmin': -103.250866, 'ymin': 20.653002, 'xmax': -103.250866, 'ymax': 20.653002}",dining and drinking > restaurant > mexican restaurant > taco restaurant,1
5646a943498e3d2881a2b694,Taquería Manuel,20.69710925986537,-103.36201444277522,,,,,,,,MX,2015-11-14,2021-08-12,,,,,,,,['4bf58dd8d48988d151941735'],['Dining and Drinking > Restaurant > Mexican Restaurant > Taco Restaurant'],b'\x00\x00\x00\x00\x01\xc0Y\xd7+>\xa0\x19\x8d@4\xb2u\xc0\xa0\xdcL',"{'xmin': -103.36201444277522, 'ymin': 20.69710925986537, 'xmax': -103.36201444277522, 'ymax': 20.69710925986537}",dining and drinking > restaurant > mexican restaurant > taco restaurant,1
53a5cf50498ea26469783c61,tacos susy,21.098255,-101.679534,,,,,,,,MX,2014-06-21,2021-08-11,,,,,,,,['4bf58dd8d48988d151941735'],['Dining and Drinking > Restaurant > Mexican Restaurant > Taco Restaurant'],"b'\x00\x00\x00\x00\x01\xc0Yk}|,\xa1I@5\x19\'=[\xab""'","{'xmin': -101.679534, 'ymin': 21.098255, 'xmax': -101.679534, 'ymax': 21.098255}",dining and drinking > restaurant > mexican restaurant > taco restaurant,1
4e24f7f11f6ee0c70a5ba36e,Tacos Don Luis,21.109667812935076,-101.60244942181232,,León de Los Aldama,GTO,,,,,MX,2011-07-19,2020-11-24,,,,,,,,['4bf58dd8d48988d151941735'],['Dining and Drinking > Restaurant > Mexican Restaurant > Taco Restaurant'],b'\x00\x00\x00\x00\x01\xc0Yf\x8e\x88\x05\x0be@5\x1c\x130\x95\xfa\xe1',"{'xmin': -101.60244942181232, 'ymin': 21.109667812935076, 'xmax': -101.60244942181232, 'ymax': 21.109667812935076}",dining and drinking > restaurant > mexican restaurant > taco restaurant,1
51cf0424498e99170e59b334,Tacos Al Vapor Don Juan y Familia,21.111144,-101.634766,Paseo De Jerez,Leon,Guanajuato,,,,,MX,2013-06-29,2020-11-21,,,,,,,,['4bf58dd8d48988d151941735'],['Dining and Drinking > Restaurant > Mexican Restaurant > Taco Restaurant'],b'\x00\x00\x00\x00\x01\xc0Yh\xa0\x01\x92\xa77@5\x1cs\xee\xe5%\x89',"{'xmin': -101.634766, 'ymin': 21.111144, 'xmax': -101.634766, 'ymax': 21.111144}",dining and drinking > restaurant > mexican restaurant > taco restaurant,1
4d9f1a9691af6ea82e0892e8,Tacos Al Vapor Zaragoza,20.68688970601382,-103.3786489876542,,Guadalajara,JAL,,,,,MX,2011-04-08,2021-08-14,,,,,,,,['4bf58dd8d48988d151941735'],['Dining and Drinking > Restaurant > Mexican Restaurant > Taco Restaurant'],b'\x00\x00\x00\x00\x01\xc0Y\xd8;\xc8\xf6\xa8\xda@4\xaf\xd8\x00\xf7I\xd5',"{'xmin': -103.3786489876542, 'ymin': 20.68688970601382, 'xmax': -103.3786489876542, 'ymax': 20.68688970601382}",dining and drinking > restaurant > mexican restaurant > taco restaurant,1
4f06962ae4b09a8a3d0a5c46,Tacos Reymond,20.634798320385663,-103.41623295644793,Sagitario,Guadalajara,Jalisco,,,,,MX,2012-01-06,2020-11-23,,,,,,,,['4bf58dd8d48988d151941735'],['Dining and Drinking > Restaurant > Mexican Restaurant > Taco Restaurant'],b'\x00\x00\x00\x00\x01\xc0Y\xda\xa3\x8f\x8d\xdd\x85@4\xa2\x82$\x89\x9c\xb6',"{'xmin': -103.41623295644793, 'ymin': 20.634798320385663, 'xmax': -103.41623295644793, 'ymax': 20.634798320385663}",dining and drinking > restaurant > mexican restaurant > taco restaurant,1
515c4627e4b04a5c0804e026,Tortilleria,20.668484350058414,-103.40820874630022,1361,Jalisco,Guadalajara,45040,,,,MX,2013-04-03,2020-11-24,,,,,,,,['4bf58dd8d48988d151941735'],['Dining and Drinking > Restaurant > Mexican Restaurant > Taco Restaurant'],b'\x00\x00\x00\x00\x01\xc0Y\xda \x17\x93\xd3=@4\xab!\xcaUc\x82',"{'xmin': -103.40820874630022, 'ymin': 20.668484350058414, 'xmax': -103.40820874630022, 'ymax': 20.668484350058414}",dining and drinking > restaurant > mexican restaurant > taco restaurant,1
51df044c498ea6eb2173fa49,Ta' Colorado,20.658481,-103.438227,,,,,,,,MX,2013-07-11,2021-08-11,,,,,,,,['4bf58dd8d48988d151941735'],['Dining and Drinking > Restaurant > Mexican Restaurant > Taco Restaurant'],b'\x00\x00\x00\x00\x01\xc0Y\xdc\x0b\xe9BNY@4\xa8\x925\xf8\t\x91',"{'xmin': -103.438227, 'ymin': 20.658481, 'xmax': -103.438227, 'ymax': 20.658481}",dining and drinking > restaurant > mexican restaurant > taco restaurant,1
51658885e4b00bb1e7340c82,Tlacoyos Las Güeritas,21.017922716153524,-101.25629529629522,San Roque,,,,,,,MX,2013-04-10,2021-08-12,,,,,,,,['4bf58dd8d48988d1cb941735' '4bf58dd8d48988d151941735'],"['Dining and Drinking > Food Truck'
 'Dining and Drinking > Restaurant > Mexican Restaurant > Taco Restaurant']",b'\x00\x00\x00\x00\x01\xc0YPg$b\xed9@5\x04\x96\x95G\xbc!',"{'xmin': -101.25629529629522, 'ymin': 21.017922716153524, 'xmax': -101.25629529629522, 'ymax': 21.017922716153524}","dining and drinking > food truck, dining and drinking > restaurant > mexican restaurant > taco restaurant",1
5b5b53ae646e38002b0c288f,"Tacolandia 3 ""La Joya""",19.124310695177616,-104.34157781302929,Diamante 2,Manzanillo,Colima,28864,,,,MX,2018-07-27,2020-11-22,,314 116 1268,,,,,,['4bf58dd8d48988d151941735'],['Dining and Drinking > Restaurant > Mexican Restaurant > Taco Restaurant'],b'\x00\x00\x00\x00\x01\xc0Z\x15\xdci0\x00\x00@3\x1f\xd2\xd3bT\xb5',"{'xmin': -104.34157781302929, 'ymin': 19.124310695177616, 'xmax': -104.34157781302929, 'ymax': 19.124310695177616}",dining and drinking > restaurant > mexican restaurant > taco restaurant,1
500b430ae4b067574eab0539,Tacos cesar,20.70949631594227,-103.34308570921387,,Guadalajara,,,,,,MX,2012-07-22,2021-08-15,,,,,,,,['4bf58dd8d48988d151941735'],['Dining and Drinking > Restaurant > Mexican Restaurant > Taco Restaurant'],b'\x00\x00\x00\x00\x01\xc0Y\xd5\xf5\x1d\xc33\x1b@4\xb5\xa1\x8c\xf1\x9a\xc3',"{'xmin': -103.34308570921387, 'ymin': 20.70949631594227, 'xmax': -103.34308570921387, 'ymax': 20.70949631594227}",dining and drinking > restaurant > mexican restaurant > taco restaurant,1
5a559036ca18ea7a53e8ba6b,Tacos Baron Rojo,20.680702,-101.362258,Calz. de Los Chinacos 869,Irapuato,GTO,36690,,,,MX,2018-01-10,2020-11-21,,,,,,,,['4bf58dd8d48988d151941735'],['Dining and Drinking > Restaurant > Mexican Restaurant > Taco Restaurant'],b'\x00\x00\x00\x00\x01\xc0YW/<-\xad\xb8@4\xaeB||Ra',"{'xmin': -101.362258, 'ymin': 20.680702, 'xmax': -101.362258, 'ymax': 20.680702}",dining and drinking > restaurant > mexican restaurant > taco restaurant,1
5386409d498e5a8cd9ee44a0,Novilleros,20.730113983154297,-103.37922668457031,,,,,,,,MX,2014-05-28,2021-08-16,,,,,,,,['4bf58dd8d48988d151941735'],['Dining and Drinking > Restaurant > Mexican Restaurant > Taco Restaurant'],b'\x00\x00\x00\x00\x01\xc0Y\xd8E@\x00\x00\x00@4\xba\xe8\xc0\x00\x00\x00',"{'xmin': -103.37922668457031, 'ymin': 20.730113983154297, 'xmax': -103.37922668457031, 'ymax': 20.730113983154297}",dining and drinking > restaurant > mexican restaurant > taco restaurant,1
4f088a9ae4b0671f27b60373,Tacos De Birria Chanfay,20.603296279907227,-105.23336791992188,,,,,,,,MX,2012-01-07,2021-08-13,,,,,,,,['4bf58dd8d48988d151941735'],['Dining and Drinking > Restaurant > Mexican Restaurant > Taco Restaurant'],b'\x00\x00\x00\x00\x01\xc0ZN\xef\x80\x00\x00\x00@4\x9aq\xa0\x00\x00\x00',"{'xmin': -105.23336791992188, 'ymin': 20.603296279907227, 'xmax': -105.23336791992188, 'ymax': 20.603296279907227}",dining and drinking > restaurant > mexican restaurant > taco restaurant,1
513643e7e4b059ba232a9398,carnitas janitzio,20.58864912463872,-103.41811775941301,Camino Real De Colima #36,Santa Maria Tequepexpan,jalisco,,,,,MX,2013-03-05,2020-11-23,,,,,,,,['4bf58dd8d48988d151941735'],['Dining and Drinking > Restaurant > Mexican Restaurant > Taco Restaurant'],b'\x00\x00\x00\x00\x01\xc0Y\xda\xc2p\xfd\xa3\x90@4\x96\xb1\xb5\x83$p',"{'xmin': -103.41811775941301, 'ymin': 20.58864912463872, 'xmax': -103.41811775941301, 'ymax': 20.58864912463872}",dining and drinking > restaurant > mexican restaurant > taco restaurant,1
5d27e0cbd0ae5e003069550d,El Taco Mixe,21.839363,-102.320816,Av. Santa Mónica,Aguascalientes,Aguascalientes,20286,,,,MX,2019-07-12,2020-11-22,,,,,,,,['4bf58dd8d48988d151941735'],['Dining and Drinking > Restaurant > Mexican Restaurant > Taco Restaurant'],b'\x00\x00\x00\x00\x01\xc0Y\x94\x88?\xd5\x02%@5\xd6\xe0~Zx\xf2',"{'xmin': -102.320816, 'ymin': 21.839363, 'xmax': -102.320816, 'ymax': 21.839363}",dining and drinking > restaurant > mexican restaurant > taco restaurant,1
560a9924498e038dce28a388,Tacos El Pochol,19.102014541625977,-104.30734252929688,,,,,,,,MX,2015-09-29,2021-08-14,,,,,,,,['4bf58dd8d48988d151941735'],['Dining and Drinking > Restaurant > Mexican Restaurant > Taco Restaurant'],b'\x00\x00\x00\x00\x01\xc0Z\x13\xab\x80\x00\x00\x00@3\x1a\x1d\xa0\x00\x00\x00',"{'xmin': -104.30734252929688, 'ymin': 19.102014541625977, 'xmax': -104.30734252929688, 'ymax': 19.102014541625977}",dining and drinking > restaurant > mexican restaurant > taco restaurant,1
5a2b48129be52275780a6ef9,Taquerias Azteca,20.678643,-103.446,,Zapopan,JAL,45010,,,,MX,2017-12-09,2020-11-23,,,,,,,,['4bf58dd8d48988d151941735'],['Dining and Drinking > Restaurant > Mexican Restaurant > Taco Restaurant'],b'\x00\x00\x00\x00\x01\xc0Y\xdc\x8bC\x95\x81\x06@4\xad\xbb\x8c2\xa8\xca',"{'xmin': -103.446, 'ymin': 20.678643, 'xmax': -103.446, 'ymax': 20.678643}",dining and drinking > restaurant > mexican restaurant > taco restaurant,1
563e9cb2cd10b88df74b2a91,Sutako,20.65175236264074,-103.28278191784659,Jose R Osorio,Guadalajara,jalisco,44820,,,,MX,2015-11-08,2021-08-16,,,,,,,,['4bf58dd8d48988d151941735'],['Dining and Drinking > Restaurant > Mexican Restaurant > Taco Restaurant'],b'\x00\x00\x00\x00\x01\xc0Y\xd2\x19\x19TCH@4\xa6\xd9>*\xa1\xf9',"{'xmin': -103.28278191784659, 'ymin': 20.65175236264074, 'xmax': -103.28278191784659, 'ymax': 20.65175236264074}",dining and drinking > restaurant > mexican restaurant > taco restaurant,1
4f087ecfe4b026656e42ccf3,Tacos de Birria El Trebol,20.630032396432085,-103.26610267519617,Paseo Loma Sur,Tonala,Jalisco,45418,,,,MX,2012-01-07,2020-11-25,,,,,,,,['4bf58dd8d48988d151941735'],['Dining and Drinking > Restaurant > Mexican Restaurant > Taco Restaurant'],b'\x00\x00\x00\x00\x01\xc0Y\xd1\x07\xd3\x83\xd6\x1f@4\xa1I\xcd\x9a\x18\xa8',"{'xmin': -103.26610267519617, 'ymin': 20.630032396432085, 'xmax': -103.26610267519617, 'ymax': 20.630032396432085}",dining and drinking > restaurant > mexican restaurant > taco restaurant,1
500abe30e4b0e57c75d60f87,"Birria ""Don Emily""",21.069206771639536,-101.68758589705567,Hermanos  Aldama,León,Guanajuato,,,,,MX,2012-07-21,2020-11-22,,,,,,,,['4bf58dd8d48988d151941735'],['Dining and Drinking > Restaurant > Mexican Restaurant > Taco Restaurant'],b'\x00\x00\x00\x00\x01\xc0Yl\x01hGB\xe0@5\x11\xb7\x88\xf4\xda\x82',"{'xmin': -101.68758589705567, 'ymin': 21.069206771639536, 'xmax': -101.68758589705567, 'ymax': 21.069206771639536}",dining and drinking > restaurant > mexican restaurant > taco restaurant,1
514dd999e4b08d2815f34eed,Tacos Don Nachito,20.647163477214768,-103.31111745261903,,Guadalajara,Jal,,,,,MX,2013-03-23,2021-08-13,,,,,,,,['4bf58dd8d48988d151941735'],['Dining and Drinking > Restaurant > Mexican Restaurant > Taco Restaurant'],b'\x00\x00\x00\x00\x01\xc0Y\xd3\xe9Y-\r\xab@4\xa5\xac\x81q\xcd\x96',"{'xmin': -103.31111745261903, 'ymin': 20.647163477214768, 'xmax': -103.31111745261903, 'ymax': 20.647163477214768}",dining and drinking > restaurant > mexican restaurant > taco restaurant,1
52099b7e11d20ecba769584c,Takos Chava,21.132267,-101.662453,,,,,,,,MX,2013-08-13,2021-08-13,,,,,,,,['4bf58dd8d48988d151941735'],['Dining and Drinking > Restaurant > Mexican Restaurant > Taco Restaurant'],b'\x00\x00\x00\x00\x01\xc0Yje\xa1D\x88\xc6@5!\xdc@\x07W\x0c',"{'xmin': -101.662453, 'ymin': 21.132267, 'xmax': -101.662453, 'ymax': 21.132267}",dining and drinking > restaurant > mexican restaurant > taco restaurant,1
59eb5aa91fa7632d4cc0fa3e,Birriería Oscar,19.115283,-104.327523,,Manzanillo,COL,28869,,,,MX,2017-10-21,2020-11-24,,,,,,,,['4bf58dd8d48988d1c1941735' '4bf58dd8d48988d151941735'],"['Dining and Drinking > Restaurant > Mexican Restaurant'
 'Dining and Drinking > Restaurant > Mexican Restaurant > Taco Restaurant']",b'\x00\x00\x00\x00\x01\xc0Z\x14\xf6#\x07l\x05@3\x1d\x83/\xca\xc8\xe7',"{'xmin': -104.327523, 'ymin': 19.115283, 'xmax': -104.327523, 'ymax': 19.115283}","dining and drinking > restaurant > mexican restaurant, dining and drinking > restaurant > mexican restaurant > taco restaurant",1
56a6d79b498eae38f9a88f2f,Tacos El Primo,20.739085238602694,-103.3491990202464,Prolongación Federalismo,Guadalajara,Jalisco,,,,,MX,2016-01-26,2020-11-26,,,,,,,,['4bf58dd8d48988d151941735'],['Dining and Drinking > Restaurant > Mexican Restaurant > Taco Restaurant'],b'\x00\x00\x00\x00\x01\xc0Y\xd6YF\xd8\xf0:@4\xbd4\xb0\xb0\xc1C',"{'xmin': -103.3491990202464, 'ymin': 20.739085238602694, 'xmax': -103.3491990202464, 'ymax': 20.739085238602694}",dining and drinking > restaurant > mexican restaurant > taco restaurant,1
509488f0e4b0b538e4cb888f,Lechón Pascualito,21.87670729905651,-102.29160504402277,,,,,,,,MX,2012-11-03,2021-08-23,,,,,,,,['4bf58dd8d48988d151941735'],['Dining and Drinking > Restaurant > Mexican Restaurant > Taco Restaurant'],b'\x00\x00\x00\x00\x01\xc0Y\x92\xa9\xa83\xdbK@5\xe0o\xe3\xb9\x9c\xb9',"{'xmin': -102.29160504402277, 'ymin': 21.87670729905651, 'xmax': -102.29160504402277, 'ymax': 21.87670729905651}",dining and drinking > restaurant > mexican restaurant > taco restaurant,1
570de017498e23b674aeeaa8,Taqueria Gupys,20.6046921273779,-103.26340850017176,Miguel Hidalgo 386,,Jalisco,45638,,,,MX,2016-04-13,2021-08-11,,33 3486 4164,,,,,,['4bf58dd8d48988d151941735'],['Dining and Drinking > Restaurant > Mexican Restaurant > Taco Restaurant'],b'\x00\x00\x00\x00\x01\xc0Y\xd0\xdb\xafSny@4\x9a\xcd\x1ao<\x9b',"{'xmin': -103.26340850017176, 'ymin': 20.6046921273779, 'xmax': -103.26340850017176, 'ymax': 20.6046921273779}",dining and drinking > restaurant > mexican restaurant > taco restaurant,1
5be9bf9af05ca8002d1f0013,Tacos Al Carbon,21.011426,-101.270691,,Guanajuato,GTO,36050,,,,MX,2018-11-12,2020-11-22,,,,,,,,['4bf58dd8d48988d151941735'],['Dining and Drinking > Restaurant > Mexican Restaurant > Taco Restaurant'],b'\x00\x00\x00\x00\x01\xc0YQS\x00X\x14\x94@5\x02\xec\xd0xR\xf8',"{'xmin': -101.270691, 'ymin': 21.011426, 'xmax': -101.270691, 'ymax': 21.011426}",dining and drinking > restaurant > mexican restaurant > taco restaurant,1
52fc291a498e683cb7d94a6d,Tacos Don Juan,21.251213,-102.328513,,,,,,,,MX,2014-02-13,2023-12-21,,474 742 1029,,,,,,['4bf58dd8d48988d151941735'],['Dining and Drinking > Restaurant > Mexican Restaurant > Taco Restaurant'],b'\x00\x00\x00\x00\x01\xc0Y\x95\x06[c\xd3\xe5@5@O~\xc3T~',"{'xmin': -102.328513, 'ymin': 21.251213, 'xmax': -102.328513, 'ymax': 21.251213}",dining and drinking > restaurant > mexican restaurant > taco restaurant,1
5144f1b6e4b02dd323aa61d3,Oaxaca tacos arabes y orientales,21.1684002,-102.4645808,Calzada porfirio diaz,,,,,,,MX,2013-03-16,2021-08-10,,,,,,,,['4bf58dd8d48988d151941735'],['Dining and Drinking > Restaurant > Mexican Restaurant > Taco Restaurant'],b'\x00\x00\x00\x00\x01\xc0Y\x9d\xbb\xb1\x1b\x96^@5+\x1cF\x87\xa3\xce',"{'xmin': -102.4645808, 'ymin': 21.1684002, 'xmax': -102.4645808, 'ymax': 21.1684002}",dining and drinking > restaurant > mexican restaurant > taco restaurant,1
50cb48b9e4b03ff3324023ff,Tacos de Barbacoa,20.64145,-103.40768,,,,,,,,MX,2012-12-14,2021-08-15,,,,,,,,['4bf58dd8d48988d151941735'],['Dining and Drinking > Restaurant > Mexican Restaurant > Taco Restaurant'],b'\x00\x00\x00\x00\x01\xc0Y\xda\x17m\xda\xce\xee@4\xa46\x114\x04\xea',"{'xmin': -103.40768, 'ymin': 20.64145, 'xmax': -103.40768, 'ymax': 20.64145}",dining and drinking > restaurant > mexican restaurant > taco restaurant,1
64449eeb8a6f2c430dd0ce7b,Tacos El Compadre,20.347369,-102.028668,,La Piedad de Cabadas,Michoacán,59300,,,,MX,2023-04-23,2023-04-23,,,,,,,,['4bf58dd8d48988d151941735'],['Dining and Drinking > Restaurant > Mexican Restaurant > Taco Restaurant'],"b'\x00\x00\x00\x00\x01\xc0Y\x81\xd5\xb2N\x9cE@4X\xed,\xbe\xa4\xec'","{'xmin': -102.028668, 'ymin': 20.347369, 'xmax': -102.028668, 'ymax': 20.347369}",dining and drinking > restaurant > mexican restaurant > taco restaurant,1
523e600311d288f65fa7e483,El callejon del hambre,20.884549267921553,-103.83834535573544,Agustina Ramirez,Tequila,Jalisco,,,,,MX,2013-09-22,2020-11-30,,,,,,,,['4bf58dd8d48988d151941735'],['Dining and Drinking > Restaurant > Mexican Restaurant > Taco Restaurant'],b'\x00\x00\x00\x00\x01\xc0Y\xf5\xa7sGh\xc8@4\xe2q\xd2!l\x7f',"{'xmin': -103.83834535573544, 'ymin': 20.884549267921553, 'xmax': -103.83834535573544, 'ymax': 20.884549267921553}",dining and drinking > restaurant > mexican restaurant > taco restaurant,1
4f95a0b1e4b020d1a4d1203c,"Tacos ""Chamberry Jr""",20.636063774534005,-105.22378604480778,,,,,,,,MX,2012-04-23,2021-08-15,,,,,,,,['4bf58dd8d48988d151941735'],['Dining and Drinking > Restaurant > Mexican Restaurant > Taco Restaurant'],b'\x00\x00\x00\x00\x01\xc0ZNR\x82\xb3\xf0\n@4\xa2\xd5\x13U\xcb;',"{'xmin': -105.22378604480778, 'ymin': 20.636063774534005, 'xmax': -105.22378604480778, 'ymax': 20.636063774534005}",dining and drinking > restaurant > mexican restaurant > taco restaurant,1
4fc45044e4b06b77214839d0,Tacos Zacatecas Sucursal,21.484595149661658,-104.8527386897238,Avenida Hortencias,Tepic,Nayarit,63000,,,,MX,2012-05-29,2020-11-22,,,,,,,,['4bf58dd8d48988d151941735'],['Dining and Drinking > Restaurant > Mexican Restaurant > Taco Restaurant'],b'\x00\x00\x00\x00\x01\xc0Z6\x93EL\x19r@5|\x0em\x7f\x98\xd8',"{'xmin': -104.8527386897238, 'ymin': 21.484595149661658, 'xmax': -104.8527386897238, 'ymax': 21.484595149661658}",dining and drinking > restaurant > mexican restaurant > taco restaurant,1
54809002498e8572be32ead1,Birria tatemada La Troje,21.92759132385254,-102.26275634765625,,,,,,,,MX,2014-12-04,2021-08-13,,,,,,,,['4bf58dd8d48988d151941735'],['Dining and Drinking > Restaurant > Mexican Restaurant > Taco Restaurant'],b'\x00\x00\x00\x00\x01\xc0Y\x90\xd1\x00\x00\x00\x00@5\xedv\xa0\x00\x00\x00',"{'xmin': -102.26275634765625, 'ymin': 21.92759132385254, 'xmax': -102.26275634765625, 'ymax': 21.92759132385254}",dining and drinking > restaurant > mexican restaurant > taco restaurant,1
534add6f498e014b91dde677,Batman y las TRES chiqueadas,20.733980539428714,-103.33698918198036,Tala 1893,Zapopan,Jalisco,45590,,,,MX,2014-04-13,2020-11-24,,,,,,,,['4bf58dd8d48988d151941735'],['Dining and Drinking > Restaurant > Mexican Restaurant > Taco Restaurant'],"b'\x00\x00\x00\x00\x01\xc0Y\xd5\x91;\x12\xed\x88@4\xbb\xe6&\x0c\xbf,'","{'xmin': -103.33698918198036, 'ymin': 20.733980539428714, 'xmax': -103.33698918198036, 'ymax': 20.733980539428714}",dining and drinking > restaurant > mexican restaurant > taco restaurant,1
4f56d6bfe4b0925ee14c6a10,Tacos Arandinos,20.736944322146503,-103.35031619779106,Tratado de Campeche,Zapopan,JAL,,,,,MX,2012-03-07,2020-11-24,,,,,,,,['4bf58dd8d48988d1cb941735' '4bf58dd8d48988d151941735'],"['Dining and Drinking > Food Truck'
 'Dining and Drinking > Restaurant > Mexican Restaurant > Taco Restaurant']",b'\x00\x00\x00\x00\x01\xc0Y\xd6k\x94\xa11c@4\xbc\xa8b\x12\x97\x95',"{'xmin': -103.35031619779106, 'ymin': 20.736944322146503, 'xmax': -103.35031619779106, 'ymax': 20.736944322146503}","dining and drinking > food truck, dining and drinking > restaurant > mexican restaurant > taco restaurant",1
5a354bd523472452939ba60b,Nopales En Penca,20.728794,-100.759499,,Comonfort,GTO,38204,,,,MX,2017-12-16,2020-11-21,,,,,,,,['4bf58dd8d48988d151941735'],['Dining and Drinking > Restaurant > Mexican Restaurant > Taco Restaurant'],b'\x00\x00\x00\x00\x01\xc0Y0\x9b\xa1\xb1\x96\x10@4\xba\x92>[\x85b',"{'xmin': -100.759499, 'ymin': 20.728794, 'xmax': -100.759499, 'ymax': 20.728794}",dining and drinking > restaurant > mexican restaurant > taco restaurant,1
54394069498ea4de494cb566,Tacos del Norte,21.907052,-102.292173,,,,,,,,MX,2014-10-11,2021-08-17,,449 111 6888,,,,,,['4bf58dd8d48988d151941735'],['Dining and Drinking > Restaurant > Mexican Restaurant > Taco Restaurant'],b'\x00\x00\x00\x00\x01\xc0Y\x92\xb2\xf6a\xf1\x8d@5\xe84\x8fS\xc5z',"{'xmin': -102.292173, 'ymin': 21.907052, 'xmax': -102.292173, 'ymax': 21.907052}",dining and drinking > restaurant > mexican restaurant > taco restaurant,1
552159fa498e9288870b2149,Tacos del güero,21.410994529587104,-103.11757019115093,,,,,,,,MX,2015-04-05,2021-08-17,,,,,,,,['4bf58dd8d48988d151941735'],['Dining and Drinking > Restaurant > Mexican Restaurant > Taco Restaurant'],b'\x00\x00\x00\x00\x01\xc0Y\xc7\x86E\x1f~\x93@5i6\xef\xffiY',"{'xmin': -103.11757019115093, 'ymin': 21.410994529587104, 'xmax': -103.11757019115093, 'ymax': 21.410994529587104}",dining and drinking > restaurant > mexican restaurant > taco restaurant,1
4fe7d203e4b0221ceb6dcf56,Checo Tacos,20.1926,-104.0411,,,,,,,,MX,2012-06-25,2021-08-16,,,,,,,,['4bf58dd8d48988d151941735'],['Dining and Drinking > Restaurant > Mexican Restaurant > Taco Restaurant'],b'\x00\x00\x00\x00\x01\xc0Z\x02\xa1a\xe4\xf7f@41N;\xcd5\xa8',"{'xmin': -104.0411, 'ymin': 20.1926, 'xmax': -104.0411, 'ymax': 20.1926}",dining and drinking > restaurant > mexican restaurant > taco restaurant,1
571f7bb7498e2e6dddd31c84,Tortilleria San Agustín,19.691416,-101.173923,,,,,,,,MX,2016-04-26,2021-08-16,,,,,,,,['4bf58dd8d48988d151941735'],['Dining and Drinking > Restaurant > Mexican Restaurant > Taco Restaurant'],b'\x00\x00\x00\x00\x01\xc0YK!\x8d\xefAl@3\xb1\x00\xa3\x93\xee_',"{'xmin': -101.173923, 'ymin': 19.691416, 'xmax': -101.173923, 'ymax': 19.691416}",dining and drinking > restaurant > mexican restaurant > taco restaurant,1
661f0b2db682c165619b9048,Tacos de Barbacoa Charlis,20.564956798366193,-103.47631394863129,Blvrd Bosques de Sta Anita 255,Tlajomulco de Zúñiga,Jalisco,45645,,,,MX,2024-04-16,2024-04-16,,33 1974 6820,,,,,,['4bf58dd8d48988d151941735'],['Dining and Drinking > Restaurant > Mexican Restaurant > Taco Restaurant'],b'\x00\x00\x00\x00\x01\xc0Y\xde{\xed\x80\x00\x00@4\x90\xa1\x02<\xa2\xbb',"{'xmin': -103.47631394863129, 'ymin': 20.564956798366193, 'xmax': -103.47631394863129, 'ymax': 20.564956798366193}",dining and drinking > restaurant > mexican restaurant > taco restaurant,1
4f5e413be4b0cfc5e365dd29,Takitos de guisados =),20.69812488258609,-105.2380138785537,,,,,,,,MX,2012-03-12,2021-08-11,,,,,,,,['4bf58dd8d48988d151941735'],['Dining and Drinking > Restaurant > Mexican Restaurant > Taco Restaurant'],b'\x00\x00\x00\x00\x01\xc0ZO;\x9e\x90\x18w@4\xb2\xb8O\xf3;)',"{'xmin': -105.2380138785537, 'ymin': 20.69812488258609, 'xmax': -105.2380138785537, 'ymax': 20.69812488258609}",dining and drinking > restaurant > mexican restaurant > taco restaurant,1
512e6491e4b0f9473c3b8451,tacos paseados,20.665263303252765,-103.38598397270734,,,,,,,,MX,2013-02-27,2021-08-13,,,,,,,,['4bf58dd8d48988d151941735'],['Dining and Drinking > Restaurant > Mexican Restaurant > Taco Restaurant'],"b'\x00\x00\x00\x00\x01\xc0Y\xd8\xb3\xf6\x1e\xe3\xb9@4\xaaN\xb2""\xb3\x16'","{'xmin': -103.38598397270734, 'ymin': 20.665263303252765, 'xmax': -103.38598397270734, 'ymax': 20.665263303252765}",dining and drinking > restaurant > mexican restaurant > taco restaurant,1
5802619138fa49ff82cbb312,"Birria y Tacos al Vapor ""El Tapatio""",20.715325,-105.274422,,,,,,,,MX,2016-10-15,2021-08-15,,,,,,,,['4bf58dd8d48988d151941735'],['Dining and Drinking > Restaurant > Mexican Restaurant > Taco Restaurant'],b'\x00\x00\x00\x00\x01\xc0ZQ\x90!J\xd3c@4\xb7\x1f\x8a\t\x02\xde',"{'xmin': -105.274422, 'ymin': 20.715325, 'xmax': -105.274422, 'ymax': 20.715325}",dining and drinking > restaurant > mexican restaurant > taco restaurant,1
51677667e4b0e7af788e3820,Tacos Don Pifas,20.6529541015625,-103.26094055175781,Constitución,,,,,,,MX,2013-04-12,2021-08-16,,,,,,,,['4bf58dd8d48988d151941735'],['Dining and Drinking > Restaurant > Mexican Restaurant > Taco Restaurant'],b'\x00\x00\x00\x00\x01\xc0Y\xd0\xb3@\x00\x00\x00@4\xa7(\x00\x00\x00\x00',"{'xmin': -103.26094055175781, 'ymin': 20.6529541015625, 'xmax': -103.26094055175781, 'ymax': 20.6529541015625}",dining and drinking > restaurant > mexican restaurant > taco restaurant,1
50384b76e4b0a9cf58fe2fe0,Tacos El Cuñadito,20.433362431383422,-101.72346296130497,5 de Mayo,Pénjamo,Guanajuato,,,,,MX,2012-08-25,2020-11-26,,,,,,,,['4bf58dd8d48988d151941735'],['Dining and Drinking > Restaurant > Mexican Restaurant > Taco Restaurant'],b'\x00\x00\x00\x00\x01\xc0YnM7\x97\xab\x05@4n\xf0\xd7\x1e\x1bZ',"{'xmin': -101.72346296130497, 'ymin': 20.433362431383422, 'xmax': -101.72346296130497, 'ymax': 20.433362431383422}",dining and drinking > restaurant > mexican restaurant > taco restaurant,1
535b1709498edf48bd4062a6,Taquería la sagrada familia,20.725607526976408,-103.35069972974007,,,,,,,,MX,2014-04-26,2021-08-11,,,,,,,,['4bf58dd8d48988d151941735'],['Dining and Drinking > Restaurant > Mexican Restaurant > Taco Restaurant'],b'\x00\x00\x00\x00\x01\xc0Y\xd6q\xddG|\xc7@4\xb9\xc1j6\x18Y',"{'xmin': -103.35069972974007, 'ymin': 20.725607526976408, 'xmax': -103.35069972974007, 'ymax': 20.725607526976408}",dining and drinking > restaurant > mexican restaurant > taco restaurant,1
5067260de4b0bb2af990cadb,Tacos De Barbacoa Paco's,20.642539227784937,-103.37889031423256,,,,,,,,MX,2012-09-29,2021-08-12,,,,,,,,['4bf58dd8d48988d151941735'],['Dining and Drinking > Restaurant > Mexican Restaurant > Taco Restaurant'],b'\x00\x00\x00\x00\x01\xc0Y\xd8?\xbd)\x19\x9a@4\xa4}si\xbb\xc0',"{'xmin': -103.37889031423256, 'ymin': 20.642539227784937, 'xmax': -103.37889031423256, 'ymax': 20.642539227784937}",dining and drinking > restaurant > mexican restaurant > taco restaurant,1
e4ce839080d04a47fa14c388,Taqueria las Tres Torres,20.548449,-104.044331,Gutierrez 80,Ameca,Jalisco,46600,,,,MX,2013-03-24,2023-12-06,,375 758 2505,,,,,,['4bf58dd8d48988d151941735'],['Dining and Drinking > Restaurant > Mexican Restaurant > Taco Restaurant'],"b""\x00\x00\x00\x00\x01\xc0Z\x02\xd6Q\xb0\xcc\xbc@4\x8cg'V\x86\x1f""","{'xmin': -104.044331, 'ymin': 20.548449, 'xmax': -104.044331, 'ymax': 20.548449}",dining and drinking > restaurant > mexican restaurant > taco restaurant,1
4f9dc6fae4b02343c97f8a63,"Tacos de ""Doña Tifo""",22.15101729761637,-101.01621166461163,,,,,,,,MX,2012-04-29,2021-08-14,,,,,,,,['4bf58dd8d48988d151941735'],['Dining and Drinking > Restaurant > Mexican Restaurant > Taco Restaurant'],b'\x00\x00\x00\x00\x01\xc0YA\t\x9c\xa6T\x86@6&\xa9\x11\xd2d\x82',"{'xmin': -101.01621166461163, 'ymin': 22.15101729761637, 'xmax': -101.01621166461163, 'ymax': 22.15101729761637}",dining and drinking > restaurant > mexican restaurant > taco restaurant,1
53134c63498ea3c7eec3011b,"Carnitas ""El Manzanas""",21.016088485717773,-101.89128875732422,,,,,,,,MX,2014-03-02,2020-11-22,,,,,,,,['4bf58dd8d48988d151941735'],['Dining and Drinking > Restaurant > Mexican Restaurant > Taco Restaurant'],b'\x00\x00\x00\x00\x01\xc0Yy\n\xe0\x00\x00\x00@5\x04\x1e`\x00\x00\x00',"{'xmin': -101.89128875732422, 'ymin': 21.016088485717773, 'xmax': -101.89128875732422, 'ymax': 21.016088485717773}",dining and drinking > restaurant > mexican restaurant > taco restaurant,1
1b56bb5a08b14cfc940f10d5,Tacos de Mariscos el Dorado,20.711359,-103.295191,Periferico 960,Guadalajara,Jalisco,,,,,MX,2013-03-23,2024-07-26,,33 3832 6102,,,,,,['4bf58dd8d48988d151941735' '4bf58dd8d48988d1ce941735'],"['Dining and Drinking > Restaurant > Mexican Restaurant > Taco Restaurant'
 'Dining and Drinking > Restaurant > Seafood Restaurant']",b'\x00\x00\x00\x00\x01\xc0Y\xd2\xe4h\xca\xc4\xb5@4\xb6\x1b\x9f\x98\xb7\x1c',"{'xmin': -103.295191, 'ymin': 20.711359, 'xmax': -103.295191, 'ymax': 20.711359}","dining and drinking > restaurant > mexican restaurant > taco restaurant, dining and drinking > restaurant > seafood restaurant",1
4e9520c9d3e37232efc6a479,Tacos El Sinaloa,20.66011880291211,-103.42370204842437,,Zapopan,Jalisco,,,,,MX,2011-10-12,2020-11-25,,,,,,,,['4bf58dd8d48988d151941735'],['Dining and Drinking > Restaurant > Mexican Restaurant > Taco Restaurant'],b'\x00\x00\x00\x00\x01\xc0Y\xdb\x1d\xef2N\xc7@4\xa8\xfd\x8b\xbd\xfbp',"{'xmin': -103.42370204842437, 'ymin': 20.66011880291211, 'xmax': -103.42370204842437, 'ymax': 20.66011880291211}",dining and drinking > restaurant > mexican restaurant > taco restaurant,1
5613d1fb498e46b2746cf356,Birreria El Ruso.,20.7063045501709,-105.22064971923828,,,,,,,,MX,2015-10-06,2021-08-16,,,,,,,,['4bf58dd8d48988d151941735'],['Dining and Drinking > Restaurant > Mexican Restaurant > Taco Restaurant'],b'\x00\x00\x00\x00\x01\xc0ZN\x1f \x00\x00\x00@4\xb4\xd0`\x00\x00\x00',"{'xmin': -105.22064971923828, 'ymin': 20.7063045501709, 'xmax': -105.22064971923828, 'ymax': 20.7063045501709}",dining and drinking > restaurant > mexican restaurant > taco restaurant,1
4d9bc47e7ae55481b6c63f74,Tacos Niko's,20.640961308699723,-103.27887495133177,,,,,,,,MX,2011-04-06,2021-08-16,,,,,,,,['4bf58dd8d48988d151941735'],['Dining and Drinking > Restaurant > Mexican Restaurant > Taco Restaurant'],b'\x00\x00\x00\x00\x01\xc0Y\xd1\xd9\x16R\xe90@4\xa4\x16\nR\xdd\xde',"{'xmin': -103.27887495133177, 'ymin': 20.640961308699723, 'xmax': -103.27887495133177, 'ymax': 20.640961308699723}",dining and drinking > restaurant > mexican restaurant > taco restaurant,1
672bd92e5447816880b4e314,La Maria Borracha Barbacoa,21.063827,-101.569959,"Blvd. Cañaveral 710 Local E, Valle Del Roble",León,Gto.,37544,,,,MX,2024-11-06,2024-11-06,,,,,,,,['4bf58dd8d48988d151941735'],['Dining and Drinking > Restaurant > Mexican Restaurant > Taco Restaurant'],b'\x00\x00\x00\x00\x01\xc0Ydz5PC\xe5@5\x10V\xf7]\x9a\x0f',"{'xmin': -101.569959, 'ymin': 21.063827, 'xmax': -101.569959, 'ymax': 21.063827}",dining and drinking > restaurant > mexican restaurant > taco restaurant,1
5147d781e4b08bbdaed2bf34,Angus Prime Tacos & Cortes,21.160053,-101.691959,Blvd. Bosques del Campestre,León,Guanajuato,,,,,MX,2013-03-19,2020-11-23,,,,,,,,['4bf58dd8d48988d151941735'],['Dining and Drinking > Restaurant > Mexican Restaurant > Taco Restaurant'],b'\x00\x00\x00\x00\x01\xc0YlI\x0ef\xcb\x10@5(\xf9;\xc0\xa0o',"{'xmin': -101.691959, 'ymin': 21.160053, 'xmax': -101.691959, 'ymax': 21.160053}",dining and drinking > restaurant > mexican restaurant > taco restaurant,1
4d39fb4b0333a09379115034,Tacos De Canasta,20.522286833782246,-100.81343293190002,Andador Gongora,Celaya,GTO,,,,,MX,2011-01-21,2020-11-25,,,,,,,,['4bf58dd8d48988d151941735'],['Dining and Drinking > Restaurant > Mexican Restaurant > Taco Restaurant'],b'\x00\x00\x00\x00\x01\xc0Y4\x0fI\x00\x00\x00@4\x85\xb4\x97\x069\xe4',"{'xmin': -100.81343293190002, 'ymin': 20.522286833782246, 'xmax': -100.81343293190002, 'ymax': 20.522286833782246}",dining and drinking > restaurant > mexican restaurant > taco restaurant,1
4f01247329c201c6fe8f4539,Taquería El Rincón Tapatío,22.15258544985733,-100.9733512490757,San Luis,,,,,,,MX,2012-01-02,2021-08-13,,,,,,,,['4bf58dd8d48988d153941735' '4bf58dd8d48988d151941735'],"['Dining and Drinking > Restaurant > Mexican Restaurant > Burrito Restaurant'
 'Dining and Drinking > Restaurant > Mexican Restaurant > Taco Restaurant']","b""\x00\x00\x00\x00\x01\xc0Y>Kc\t\x93B@6'\x0f\xd7\x0c\xfb\x91""","{'xmin': -100.9733512490757, 'ymin': 22.15258544985733, 'xmax': -100.9733512490757, 'ymax': 22.15258544985733}","dining and drinking > restaurant > mexican restaurant > burrito restaurant, dining and drinking > restaurant > mexican restaurant > taco restaurant",1
54262847498e0a36cc258d74,tacos don cache,20.680479661260943,-103.30068680040273,,,,,,,,MX,2014-09-27,2021-08-15,,,,,,,,['4bf58dd8d48988d151941735'],['Dining and Drinking > Restaurant > Mexican Restaurant > Taco Restaurant'],b'\x00\x00\x00\x00\x01\xc0Y\xd3>s\xd9\x84d@4\xae3\xeaB\xb5{',"{'xmin': -103.30068680040273, 'ymin': 20.680479661260943, 'xmax': -103.30068680040273, 'ymax': 20.680479661260943}",dining and drinking > restaurant > mexican restaurant > taco restaurant,1
53e57e77498eaa12652268db,Taqueria el Pitaya,20.600311,-101.173514,Lomas Del Prado 3 Sección,,,,,,,MX,2014-08-09,2021-08-13,,,,,,,,['4bf58dd8d48988d151941735'],['Dining and Drinking > Restaurant > Mexican Restaurant > Taco Restaurant'],b'\x00\x00\x00\x00\x01\xc0YK\x1a\xdav\xd9{@4\x99\xad\xfbPm\xd7',"{'xmin': -101.173514, 'ymin': 20.600311, 'xmax': -101.173514, 'ymax': 20.600311}",dining and drinking > restaurant > mexican restaurant > taco restaurant,1
57e95fac498e2af8ace46b77,"Loncheria ""Mayra""",21.902931,-102.341194,,,,,,,,MX,2016-09-26,2020-11-23,,,,,,,,['4bf58dd8d48988d151941735'],['Dining and Drinking > Restaurant > Mexican Restaurant > Taco Restaurant'],b'\x00\x00\x00\x00\x01\xc0Y\x95\xd6\x1f[\xe5\xda@5\xe7&|k\x8bi',"{'xmin': -102.341194, 'ymin': 21.902931, 'xmax': -102.341194, 'ymax': 21.902931}",dining and drinking > restaurant > mexican restaurant > taco restaurant,1
535343b711d2b89866b23146,taqueria el tejaban,20.70778,-102.34441,Allende 103,Arandas,Jalisco,,,,,MX,2014-04-20,2020-11-22,,,,,,,,['4bf58dd8d48988d151941735'],['Dining and Drinking > Restaurant > Mexican Restaurant > Taco Restaurant'],b'\x00\x00\x00\x00\x01\xc0Y\x96\n\xd0=\x9a\x95@4\xb51\x11\xf0\xc3L',"{'xmin': -102.34441, 'ymin': 20.70778, 'xmax': -102.34441, 'ymax': 20.70778}",dining and drinking > restaurant > mexican restaurant > taco restaurant,1
547213b3498e3f6064d4e3f9,Tacos de Barbacoa,20.74390270880301,-103.43978369535839,Boulevard Jardín Real,Zapopan,Jalisco,,,,,MX,2014-11-23,2020-11-25,,,,,,,,['4bf58dd8d48988d151941735'],['Dining and Drinking > Restaurant > Mexican Restaurant > Taco Restaurant'],b'\x00\x00\x00\x00\x01\xc0Y\xdc%j\x8386@4\xbephm\xb6\xf9',"{'xmin': -103.43978369535839, 'ymin': 20.74390270880301, 'xmax': -103.43978369535839, 'ymax': 20.74390270880301}",dining and drinking > restaurant > mexican restaurant > taco restaurant,1
52b7d695498ede6a9d13bda6,"Tacos ""Chachin""",21.09164543429905,-101.66508634919806,,,,,,,,MX,2013-12-23,2021-08-11,,,,,,,,['4bf58dd8d48988d151941735'],['Dining and Drinking > Restaurant > Mexican Restaurant > Taco Restaurant'],b'\x00\x00\x00\x00\x01\xc0Yj\x90\xc6U\xb4\x97@5\x17v\x13?$c',"{'xmin': -101.66508634919806, 'ymin': 21.09164543429905, 'xmax': -101.66508634919806, 'ymax': 21.09164543429905}",dining and drinking > restaurant > mexican restaurant > taco restaurant,1
4e7d83cd8b81fa0f5b0cfc08,2x3,21.102580538870146,-101.67279500744523,,León de Los Aldama,Guanajuato,,,,,MX,2011-09-24,2020-11-24,,,,,,,,['4bf58dd8d48988d151941735'],['Dining and Drinking > Restaurant > Mexican Restaurant > Taco Restaurant'],b'\x00\x00\x00\x00\x01\xc0Yk\x0f\x12\xcax\xeb@5\x1aB\xb7\xdb\xa7A',"{'xmin': -101.67279500744523, 'ymin': 21.102580538870146, 'xmax': -101.67279500744523, 'ymax': 21.102580538870146}",dining and drinking > restaurant > mexican restaurant > taco restaurant,1
c120d99c5f1447d17454d7d9,Menuderia Martha,20.665595,-103.312084,Genovevo Rivas Guillen 32,Guadalajara,Jalisco,44730,,,,MX,2014-12-07,2024-08-05,,33 3345 7077,,,,,,['4bf58dd8d48988d151941735'],['Dining and Drinking > Restaurant > Mexican Restaurant > Taco Restaurant'],b'\x00\x00\x00\x00\x01\xc0Y\xd3\xf9/+f\xb6@4\xaado\x15a\x91',"{'xmin': -103.312084, 'ymin': 20.665595, 'xmax': -103.312084, 'ymax': 20.665595}",dining and drinking > restaurant > mexican restaurant > taco restaurant,1
53100fdd498e596eae9e5270,La Esquinita,20.623147,-103.415395,,,,,,,,MX,2014-02-28,2021-08-14,,,,,,,,['4bf58dd8d48988d151941735'],['Dining and Drinking > Restaurant > Mexican Restaurant > Taco Restaurant'],b'\x00\x00\x00\x00\x01\xc0Y\xda\x95\xd4\xe8\xfb\x01@4\x9f\x86\x8f\xd1\x99\xbb',"{'xmin': -103.415395, 'ymin': 20.623147, 'xmax': -103.415395, 'ymax': 20.623147}",dining and drinking > restaurant > mexican restaurant > taco restaurant,1
50d7cf71e4b019a9e251c262,Taquería El Escorpión,20.677010904631207,-102.57034256235113,Cuauhtemoc,San José De Gracia,Jalisco,,,,,MX,2012-12-24,2020-11-21,,,,,,,,['4bf58dd8d48988d151941735'],['Dining and Drinking > Restaurant > Mexican Restaurant > Taco Restaurant'],b'\x00\x00\x00\x00\x01\xc0Y\xa4\x80~\x174(@4\xadP\x96.m)',"{'xmin': -102.57034256235113, 'ymin': 20.677010904631207, 'xmax': -102.57034256235113, 'ymax': 20.677010904631207}",dining and drinking > restaurant > mexican restaurant > taco restaurant,1
54e79824498ed4896a589a37,Tacollita:.,20.650903,-103.361485,Quetzal #1547,Guadalajara,Jalisco,44910,,,,MX,2015-02-20,2021-08-15,,,,,,,,['4bf58dd8d48988d151941735'],['Dining and Drinking > Restaurant > Mexican Restaurant > Taco Restaurant'],"b'\x00\x00\x00\x00\x01\xc0Y\xd7""\x91\xfb?\xa7@4\xa6\xa1\x949\xdeH'","{'xmin': -103.361485, 'ymin': 20.650903, 'xmax': -103.361485, 'ymax': 20.650903}",dining and drinking > restaurant > mexican restaurant > taco restaurant,1
55803f0d498e3a13b6916fb5,Carnitas El Capi,19.693125,-101.176721,Av Lázaro Cárdenas 1901,Morelia,Michoacán,,,,,MX,2015-06-16,2020-11-30,,,,,,,,['4bf58dd8d48988d151941735'],['Dining and Drinking > Restaurant > Mexican Restaurant > Taco Restaurant'],b'\x00\x00\x00\x00\x01\xc0YKOe\x98\xe1\r@3\xb1p\xa3\xd7\n=',"{'xmin': -101.176721, 'ymin': 19.693125, 'xmax': -101.176721, 'ymax': 19.693125}",dining and drinking > restaurant > mexican restaurant > taco restaurant,1
50913c28e4b0857f800e0db7,Tacos De Tino,17.081575556013828,-96.75017552309843,,,,,,,,MX,2012-10-31,2021-08-15,,,,,,,,['4bf58dd8d48988d151941735'],['Dining and Drinking > Restaurant > Mexican Restaurant > Taco Restaurant'],"b'\x00\x00\x00\x00\x01\xc0X0\x02\xe02}\xeb@1\x14\xe2""\xb9;\x7f'","{'xmin': -96.75017552309843, 'ymin': 17.081575556013828, 'xmax': -96.75017552309843, 'ymax': 17.081575556013828}",dining and drinking > restaurant > mexican restaurant > taco restaurant,1
5626885e498e24ab8df6059b,Tacos De La Casetita Naranja,18.981374740600586,-99.24082946777344,,,,,,,,MX,2015-10-20,2021-08-16,,,,,,,,['4bf58dd8d48988d151941735'],['Dining and Drinking > Restaurant > Mexican Restaurant > Taco Restaurant'],b'\x00\x00\x00\x00\x01\xc0X\xcfi\xc0\x00\x00\x00@2\xfb;`\x00\x00\x00',"{'xmin': -99.24082946777344, 'ymin': 18.981374740600586, 'xmax': -99.24082946777344, 'ymax': 18.981374740600586}",dining and drinking > restaurant > mexican restaurant > taco restaurant,1
5232270711d2807255af1875,Tacos el Gordo,18.31566619873047,-100.28131866455078,,,,,,,,MX,2013-09-12,2021-08-15,,,,,,,,['4bf58dd8d48988d151941735'],['Dining and Drinking > Restaurant > Mexican Restaurant > Taco Restaurant'],b'\x00\x00\x00\x00\x01\xc0Y\x12\x01 \x00\x00\x00@2P\xcf\x80\x00\x00\x00',"{'xmin': -100.28131866455078, 'ymin': 18.31566619873047, 'xmax': -100.28131866455078, 'ymax': 18.31566619873047}",dining and drinking > restaurant > mexican restaurant > taco restaurant,1
65df2b910fb8c13f9ee14f21,Tacos Al Pastor,19.250221,-99.607849,,Metepec,Edo. Méx.,52140,,,,MX,2024-02-28,2024-02-28,,,,,,,,['4bf58dd8d48988d151941735'],['Dining and Drinking > Restaurant > Mexican Restaurant > Taco Restaurant'],b'\x00\x00\x00\x00\x01\xc0X\xe6\xe6\xff}\xfa\x01@3@\x0e{\xc3\xc5\xbd',"{'xmin': -99.607849, 'ymin': 19.250221, 'xmax': -99.607849, 'ymax': 19.250221}",dining and drinking > restaurant > mexican restaurant > taco restaurant,1
4c09d860340720a106998593,Tacos Charly,19.293278747757583,-99.17009437978517,San Fernando 201,Tlalpan,DF,14040,,,,MX,2010-06-05,2020-11-30,,55 5606 2824,,,,,,['4bf58dd8d48988d151941735'],['Dining and Drinking > Restaurant > Mexican Restaurant > Taco Restaurant'],b'\x00\x00\x00\x00\x01\xc0X\xca\xe2\xd3\x89\x9aI@3K\x14P\xe6;\x0c',"{'xmin': -99.17009437978517, 'ymin': 19.293278747757583, 'xmax': -99.17009437978517, 'ymax': 19.293278747757583}",dining and drinking > restaurant > mexican restaurant > taco restaurant,1
4ecf7c58f790d070375433df,Tacos De Carro,16.859360431083154,-99.89169288697052,,,,,,,,MX,2011-11-25,2021-08-12,,,,,,,,['4bf58dd8d48988d151941735'],['Dining and Drinking > Restaurant > Mexican Restaurant > Taco Restaurant'],b'\x00\x00\x00\x00\x01\xc0X\xf9\x11\x7f\n\xe7O@0\xdb\xff\x0b\x92\xfa\x86',"{'xmin': -99.89169288697052, 'ymin': 16.859360431083154, 'xmax': -99.89169288697052, 'ymax': 16.859360431083154}",dining and drinking > restaurant > mexican restaurant > taco restaurant,1
5b7f1d9d95a722002c79b41d,Tacos De Max,19.332905,-99.20132,Av. San Jerónimo,Ciudad de México,Ciudad de México,01900,,,,MX,2018-08-23,2020-11-25,,,,,,,,['4bf58dd8d48988d151941735'],['Dining and Drinking > Restaurant > Mexican Restaurant > Taco Restaurant'],b'\x00\x00\x00\x00\x01\xc0X\xcc\xe2mH\x01\xf7@3U9C\x17\xac\xc5',"{'xmin': -99.20132, 'ymin': 19.332905, 'xmax': -99.20132, 'ymax': 19.332905}",dining and drinking > restaurant > mexican restaurant > taco restaurant,1
4ed279340e61efa33386c0e1,Taqueria George Kino,14.911441314911348,-92.2529954851845,,,,,,,,MX,2011-11-27,2021-08-14,,,,,,,,['4bf58dd8d48988d151941735'],['Dining and Drinking > Restaurant > Mexican Restaurant > Taco Restaurant'],b'\x00\x00\x00\x00\x01\xc0W\x101\x13\xf9\xb9\xcc@-\xd2\xa8o\x9f\x88\xf3',"{'xmin': -92.2529954851845, 'ymin': 14.911441314911348, 'xmax': -92.2529954851845, 'ymax': 14.911441314911348}",dining and drinking > restaurant > mexican restaurant > taco restaurant,1
59debba7bb8d360aa1aee6f7,La Chule Grill,18.898457,-96.94484,,,,,,,,MX,2017-10-12,2021-08-17,,,,,,,,"['4bf58dd8d48988d1df931735' '4bf58dd8d48988d1cc941735'
 '4bf58dd8d48988d151941735']","['Dining and Drinking > Restaurant > BBQ Joint'
 'Dining and Drinking > Restaurant > Steakhouse'
 'Dining and Drinking > Restaurant > Mexican Restaurant > Taco Restaurant']","b""\x00\x00\x00\x00\x01\xc0X<xB0\xfc\xf8@2\xe6\x01G'\xdc\xbe""","{'xmin': -96.94484, 'ymin': 18.898457, 'xmax': -96.94484, 'ymax': 18.898457}","dining and drinking > restaurant > bbq joint, dining and drinking > restaurant > steakhouse, dining and drinking > restaurant > mexican restaurant > taco restaurant",1
518ee8af498ed1b8db9154a5,"Tacos ""Los Tres Amigos""",19.230895260640406,-99.19857737675407,,,,,,,,MX,2013-05-12,2021-08-11,,,,,,,,['4bf58dd8d48988d151941735'],['Dining and Drinking > Restaurant > Mexican Restaurant > Taco Restaurant'],b'\x00\x00\x00\x00\x01\xc0X\xcc\xb5}\xe2\xb8\x97@3;\x1b\xf3\xa9@\x7f',"{'xmin': -99.19857737675407, 'ymin': 19.230895260640406, 'xmax': -99.19857737675407, 'ymax': 19.230895260640406}",dining and drinking > restaurant > mexican restaurant > taco restaurant,1
5285774011d291a6d8a6b452,"Tacos ""La Puerta""",17.66572270871148,-101.58730942427219,,,,,,,,MX,2013-11-15,2021-08-15,,,,,,,,['4bf58dd8d48988d151941735'],['Dining and Drinking > Restaurant > Mexican Restaurant > Taco Restaurant'],b'\x00\x00\x00\x00\x01\xc0Ye\x96zDxm@1\xaal\xcd\xae\x1e\xcf',"{'xmin': -101.58730942427219, 'ymin': 17.66572270871148, 'xmax': -101.58730942427219, 'ymax': 17.66572270871148}",dining and drinking > restaurant > mexican restaurant > taco restaurant,1
56f4ba3e498e3c2fc2f40dae,Taqueria El Torito,18.619502568728574,-99.32208435512844,,,,,,,,MX,2016-03-25,2021-08-13,,,,,,,,['4bf58dd8d48988d151941735'],['Dining and Drinking > Restaurant > Mexican Restaurant > Taco Restaurant'],b'\x00\x00\x00\x00\x01\xc0X\xd4\x9d\x07\xb2\xf5\x1d@2\x9e\x97\xb8hz+',"{'xmin': -99.32208435512844, 'ymin': 18.619502568728574, 'xmax': -99.32208435512844, 'ymax': 18.619502568728574}",dining and drinking > restaurant > mexican restaurant > taco restaurant,1
52cf58c5498ea81c3fedd669,"Tacos, sopes, quesadillas, huaraches y gorditas!",19.306919019848127,-99.13285238110461,,,,,,,,MX,2014-01-10,2021-08-11,,,,,,,,['4bf58dd8d48988d151941735'],['Dining and Drinking > Restaurant > Mexican Restaurant > Taco Restaurant'],b'\x00\x00\x00\x00\x01\xc0X\xc8\x80\xa7F\x02\x90@3N\x92>\xb0\xc4\xa1',"{'xmin': -99.13285238110461, 'ymin': 19.306919019848127, 'xmax': -99.13285238110461, 'ymax': 19.306919019848127}",dining and drinking > restaurant > mexican restaurant > taco restaurant,1
551198b7498e6d65c1ce0aaa,Tacos El Campirano,19.304099107544076,-99.05856934012007,,,,,,,,MX,2015-03-24,2021-08-17,,,,,,,,['4bf58dd8d48988d151941735'],['Dining and Drinking > Restaurant > Mexican Restaurant > Taco Restaurant'],b'\x00\x00\x00\x00\x01\xc0X\xc3\xbf\x99\x9e\x17L@3M\xd9pi\xa5\x04',"{'xmin': -99.05856934012007, 'ymin': 19.304099107544076, 'xmax': -99.05856934012007, 'ymax': 19.304099107544076}",dining and drinking > restaurant > mexican restaurant > taco restaurant,1
518bbbcd498e52f9aa9ca578,Tacos Y Pancita Don Martin,19.289260370692613,-99.66754040301171,,,,,,,,MX,2013-05-09,2021-08-12,,,,,,,,['4bf58dd8d48988d151941735'],['Dining and Drinking > Restaurant > Mexican Restaurant > Taco Restaurant'],"b""\x00\x00\x00\x00\x01\xc0X\xea\xb8\xfba\xecj@3J\x0c\xf7\xb8'S""","{'xmin': -99.66754040301171, 'ymin': 19.289260370692613, 'xmax': -99.66754040301171, 'ymax': 19.289260370692613}",dining and drinking > restaurant > mexican restaurant > taco restaurant,1
1594e60358da479dfcc97fb7,Taqueria el Churrro Video & Taco-taquizas a Domicilio,19.691223,-101.150151,Avenida Lázaro Cárdenas 2279,Morelia,Michoacán,,,,,MX,2010-10-13,2023-12-06,,,http://welcome.to/elchurro,,,,,['4bf58dd8d48988d151941735'],['Dining and Drinking > Restaurant > Mexican Restaurant > Taco Restaurant'],b'\x00\x00\x00\x00\x01\xc0YI\x9c\x12\xf0\x9d\x8c@3\xb0\xf3\xfd\x93>6',"{'xmin': -101.150151, 'ymin': 19.691223, 'xmax': -101.150151, 'ymax': 19.691223}",dining and drinking > restaurant > mexican restaurant > taco restaurant,1
56aa82e8498eed481d73ead7,Taqueria Blanquita,17.642418,-101.556497,,,,,,,,MX,2016-01-28,2020-11-24,,,,,,,,['4bf58dd8d48988d151941735'],['Dining and Drinking > Restaurant > Mexican Restaurant > Taco Restaurant'],b'\x00\x00\x00\x00\x01\xc0Yc\x9d\xa5\x97\xd4\x9d@1\xa4u\x81\x8c\\\x9a',"{'xmin': -101.556497, 'ymin': 17.642418, 'xmax': -101.556497, 'ymax': 17.642418}",dining and drinking > restaurant > mexican restaurant > taco restaurant,1
58a711f58f0be45e9c52c089,El Cerdito Sabroso,17.5882,-99.516654,,Chilpancigo,Guerrero,,,,,MX,2017-02-17,2020-11-30,,,,,,,,['4bf58dd8d48988d151941735'],['Dining and Drinking > Restaurant > Mexican Restaurant > Taco Restaurant'],b'\x00\x00\x00\x00\x01\xc0X\xe1\x10\xdb\xf0V?@1\x96\x94Fs\x81\xd8',"{'xmin': -99.516654, 'ymin': 17.5882, 'xmax': -99.516654, 'ymax': 17.5882}",dining and drinking > restaurant > mexican restaurant > taco restaurant,1
5258d72311d2ef4b09a8fb1e,tacos fabian,19.25070993655662,-99.61064638236881,,,,,,,,MX,2013-10-12,2021-08-16,,,,,,,,['4bf58dd8d48988d151941735'],['Dining and Drinking > Restaurant > Mexican Restaurant > Taco Restaurant'],b'\x00\x00\x00\x00\x01\xc0X\xe7\x14\xd4\x90lw@3@.\x86\xc2J\xfd',"{'xmin': -99.61064638236881, 'ymin': 19.25070993655662, 'xmax': -99.61064638236881, 'ymax': 19.25070993655662}",dining and drinking > restaurant > mexican restaurant > taco restaurant,1
5be638a035f983002c938d3c,Taqueria 2 De Abril,19.281911,-99.624261,2 De Abril,Toluca de Lerdo,Edomex,50160,,,,MX,2018-11-10,2020-11-26,,,,,,,,['4bf58dd8d48988d151941735'],['Dining and Drinking > Restaurant > Mexican Restaurant > Taco Restaurant'],b'\x00\x00\x00\x00\x01\xc0X\xe7\xf3\xe4h\xca\xc5@3H+Q\xbda\xf6',"{'xmin': -99.624261, 'ymin': 19.281911, 'xmax': -99.624261, 'ymax': 19.281911}",dining and drinking > restaurant > mexican restaurant > taco restaurant,1
53f6aff3498ee94efb30041a,Tacos Árabes Nesme,18.892386594056834,-96.9401319898681,Avenida 9 Bis,Córdoba,Veracruz,,,,,MX,2012-08-11,2021-12-16,,,,,,,,['4bf58dd8d48988d151941735'],['Dining and Drinking > Restaurant > Mexican Restaurant > Taco Restaurant'],b'\x00\x00\x00\x00\x01\xc0X<+\x1f]\x9a\x0b@2\xe4sr\xa4\xdc\xe9',"{'xmin': -96.9401319898681, 'ymin': 18.892386594056834, 'xmax': -96.9401319898681, 'ymax': 18.892386594056834}",dining and drinking > restaurant > mexican restaurant > taco restaurant,1
673bccc6634f15702593a55a,Los Taquitos De Las Torres,19.27757,-99.5658,,Metepec,Estado de México,52172,,,,MX,2024-11-18,2024-11-18,,,,,,,,['4bf58dd8d48988d151941735'],['Dining and Drinking > Restaurant > Mexican Restaurant > Taco Restaurant'],b'\x00\x00\x00\x00\x01\xc0X\xe46\x114\x04\xea@3G\x0e\xd3\xd8Y\xc9',"{'xmin': -99.5658, 'ymin': 19.27757, 'xmax': -99.5658, 'ymax': 19.27757}",dining and drinking > restaurant > mexican restaurant > taco restaurant,1
5c75ff85c58ed7002db77f98,Taqueria Villamelon,16.205836,-95.205498,,Salina Cruz,OAX,70610,,,,MX,2019-02-27,2020-11-22,,,,,,,,['4bf58dd8d48988d151941735'],['Dining and Drinking > Restaurant > Mexican Restaurant > Taco Restaurant'],b'\x00\x00\x00\x00\x01\xc0W\xcd&\xe1\x15Y.@04\xb1\xab\x08V\xe7',"{'xmin': -95.205498, 'ymin': 16.205836, 'xmax': -95.205498, 'ymax': 16.205836}",dining and drinking > restaurant > mexican restaurant > taco restaurant,1
52640b3d11d26036fa61f5d0,tacos de mixote,19.283878,-99.120062,,,,,,,,MX,2013-10-20,2021-08-14,,,,,,,,['4bf58dd8d48988d151941735'],['Dining and Drinking > Restaurant > Mexican Restaurant > Taco Restaurant'],b'\x00\x00\x00\x00\x01\xc0X\xc7\xaf\x18\x86\xdf\x83@3H\xac:\x86\r\xcc',"{'xmin': -99.120062, 'ymin': 19.283878, 'xmax': -99.120062, 'ymax': 19.283878}",dining and drinking > restaurant > mexican restaurant > taco restaurant,1
63f505c0a6d79c0735d45aa7,Tacos El Gordo,19.64228,-103.446562,,Zapotiltic,JAL,49610,,,,MX,2023-02-21,2023-02-21,,,,,,,,['4bf58dd8d48988d151941735'],['Dining and Drinking > Restaurant > Mexican Restaurant > Taco Restaurant'],b'\x00\x00\x00\x00\x01\xc0Y\xdc\x94x\xc8h\xba@3\xa4lvJ\xdf\xf8',"{'xmin': -103.446562, 'ymin': 19.64228, 'xmax': -103.446562, 'ymax': 19.64228}",dining and drinking > restaurant > mexican restaurant > taco restaurant,1
4eeff12877c8053fbc652aee,Tacos Hnos Trujillo,16.087355404838448,-93.76348575838243,,,,,,,,MX,2011-12-20,2021-08-16,,,,,,,,['4bf58dd8d48988d151941735'],['Dining and Drinking > Restaurant > Mexican Restaurant > Taco Restaurant'],b'\x00\x00\x00\x00\x01\xc0Wp\xdc\xf3^\xcd\xb7@0\x16\\\xec~\xe8\xf4',"{'xmin': -93.76348575838243, 'ymin': 16.087355404838448, 'xmax': -93.76348575838243, 'ymax': 16.087355404838448}",dining and drinking > restaurant > mexican restaurant > taco restaurant,1
5181380fe4b076cf88e28ac6,Frutacos,17.646879555974962,-101.5454786513301,,,,,,,,MX,2013-05-01,2020-11-24,,,,,,,,['4bf58dd8d48988d151941735'],['Dining and Drinking > Restaurant > Mexican Restaurant > Taco Restaurant'],b'\x00\x00\x00\x00\x01\xc0Yb\xe9\x1fJ\x08A@1\xa5\x99\xe6\t]\x0c',"{'xmin': -101.5454786513301, 'ymin': 17.646879555974962, 'xmax': -101.5454786513301, 'ymax': 17.646879555974962}",dining and drinking > restaurant > mexican restaurant > taco restaurant,1
515ccffbe4b01a47720fab8e,Chileatole Lupita,18.851264354773623,-97.08174058103756,Amado Nervo,Orizaba,Veracruz,94340,,,,MX,2013-04-04,2020-11-24,,,,,,,,['4bf58dd8d48988d151941735'],['Dining and Drinking > Restaurant > Mexican Restaurant > Taco Restaurant'],b'\x00\x00\x00\x00\x01\xc0XE;<\xd8\x93\xfe@2\xd9\xecu\xf4\x00\xd5',"{'xmin': -97.08174058103756, 'ymin': 18.851264354773623, 'xmax': -97.08174058103756, 'ymax': 18.851264354773623}",dining and drinking > restaurant > mexican restaurant > taco restaurant,1
54bad335498e312c6dc66574,Barbacoa Don Jorge,19.316464160967904,-99.08499691576992,,,,,,,,MX,2015-01-17,2021-08-11,,,,,,,,['4bf58dd8d48988d151941735'],['Dining and Drinking > Restaurant > Mexican Restaurant > Taco Restaurant'],b'\x00\x00\x00\x00\x01\xc0X\xc5p\x96\xe7_\x88@3Q\x03\xcb\x95\xb6\x96',"{'xmin': -99.08499691576992, 'ymin': 19.316464160967904, 'xmax': -99.08499691576992, 'ymax': 19.316464160967904}",dining and drinking > restaurant > mexican restaurant > taco restaurant,1
512124d8e4b01ed291465296,taqueria los campechanos,19.20833940335674,-99.58416009160453,,,,,,,,MX,2013-02-17,2021-08-16,,,,,,,,['4bf58dd8d48988d151941735'],['Dining and Drinking > Restaurant > Mexican Restaurant > Taco Restaurant'],b'\x00\x00\x00\x00\x01\xc0X\xe5b\xe1\x02Dx@35U\xbb+\xe2\xa6',"{'xmin': -99.58416009160453, 'ymin': 19.20833940335674, 'xmax': -99.58416009160453, 'ymax': 19.20833940335674}",dining and drinking > restaurant > mexican restaurant > taco restaurant,1
5e38a529b0791c0008c1e071,Los De BezasK,19.319005,-99.137442,,Ciudad de México,CDMX,04870,,,,MX,2020-02-03,2020-11-23,,,,,,,,['4bf58dd8d48988d151941735'],['Dining and Drinking > Restaurant > Mexican Restaurant > Taco Restaurant'],b'\x00\x00\x00\x00\x01\xc0X\xc8\xcb\xd9\x87\xc62@3Q\xaaO\xcaB\xaf',"{'xmin': -99.137442, 'ymin': 19.319005, 'xmax': -99.137442, 'ymax': 19.319005}",dining and drinking > restaurant > mexican restaurant > taco restaurant,1
5742a717498ea96580842925,carnitas y comidas juniors,16.238615135595026,-95.21387100219727,carretera transismica km.2.5,Salina Cruz,Oaxaca,70613,,,,MX,2016-05-23,2020-11-25,,,,,,,,['4bf58dd8d48988d151941735'],['Dining and Drinking > Restaurant > Mexican Restaurant > Taco Restaurant'],b'\x00\x00\x00\x00\x01\xc0W\xcd\xb0\x10\x00\x00\x00@0=\x15\xe1\xab\xb6\x14',"{'xmin': -95.21387100219727, 'ymin': 16.238615135595026, 'xmax': -95.21387100219727, 'ymax': 16.238615135595026}",dining and drinking > restaurant > mexican restaurant > taco restaurant,1
4e1c7fe7e4cdf4c87bdddf7c,Tato's Restaurante Tres Marias,19.05375971475323,-99.24183294678171,LAZARO CARDENAS 28,Tres Marías,Morelos,62510,,,,MX,2011-07-12,2023-09-13,,739 393 0736,,,,,,['4bf58dd8d48988d151941735'],['Dining and Drinking > Restaurant > Mexican Restaurant > Taco Restaurant'],b'\x00\x00\x00\x00\x01\xc0X\xcfz0\xe5au@3\r\xc32X\xb5\x19',"{'xmin': -99.24183294678171, 'ymin': 19.05375971475323, 'xmax': -99.24183294678171, 'ymax': 19.05375971475323}",dining and drinking > restaurant > mexican restaurant > taco restaurant,1
510ad5bbe4b07b50daa0eccd,tortas y tacos los ahogados,19.70414525128,-101.1793914304477,Av Madero Sector Oriente,Morelia,michoacan,,,,,MX,2013-01-31,2020-11-22,,,,,,,,['4bf58dd8d48988d151941735'],['Dining and Drinking > Restaurant > Mexican Restaurant > Taco Restaurant'],"b""\x00\x00\x00\x00\x01\xc0YK{&1\xbd'@3\xb4B\xdc\xf9\xe1\x9d""","{'xmin': -101.1793914304477, 'ymin': 19.70414525128, 'xmax': -101.1793914304477, 'ymax': 19.70414525128}",dining and drinking > restaurant > mexican restaurant > taco restaurant,1
5205aa8e498e0fee3bcafce3,Tacos De Los Gordos,19.276400706684107,-99.17150666732795,,,,,,,,MX,2013-08-10,2021-08-16,,,,,,,,['4bf58dd8d48988d151941735'],['Dining and Drinking > Restaurant > Mexican Restaurant > Taco Restaurant'],b'\x00\x00\x00\x00\x01\xc0X\xca\xf9\xf7\x19\xce\x0c@3F\xc22[\xcc\xae',"{'xmin': -99.17150666732795, 'ymin': 19.276400706684107, 'xmax': -99.17150666732795, 'ymax': 19.276400706684107}",dining and drinking > restaurant > mexican restaurant > taco restaurant,1
538b43f2498e8301b31ad11a,Taquitos Providencia,19.267732,-99.740112,Av. El Nevado,San Cristóbal Tecolit,México,51367,,,,MX,2014-06-01,2021-08-13,,,,,,,,['4bf58dd8d48988d151941735'],['Dining and Drinking > Restaurant > Mexican Restaurant > Taco Restaurant'],b'\x00\x00\x00\x00\x01\xc0X\xef]\xfe\xb8\xd8#@3D\x8a\x15\x98\x17\xb9',"{'xmin': -99.740112, 'ymin': 19.267732, 'xmax': -99.740112, 'ymax': 19.267732}",dining and drinking > restaurant > mexican restaurant > taco restaurant,1
535d4bd111d2006cad83a5c4,Barbacoa,19.28721491319896,-99.62665089219422,,,,,,,,MX,2014-04-27,2021-08-20,,,,,,,,['4bf58dd8d48988d151941735'],['Dining and Drinking > Restaurant > Mexican Restaurant > Taco Restaurant'],b'\x00\x00\x00\x00\x01\xc0X\xe8\x1b\x0cW\xfe\xf0@3I\x86\xea\xa3\x1c\xee',"{'xmin': -99.62665089219422, 'ymin': 19.28721491319896, 'xmax': -99.62665089219422, 'ymax': 19.28721491319896}",dining and drinking > restaurant > mexican restaurant > taco restaurant,1
541ced91498e0b63fb8326ad,Tacos el buda,19.076085,-96.091619,,,,,,,,MX,2014-09-20,2020-11-30,,,,,,,,['4bf58dd8d48988d151941735'],['Dining and Drinking > Restaurant > Mexican Restaurant > Taco Restaurant'],"b'\x00\x00\x00\x00\x01\xc0X\x05\xdd\x15\xf0,M@3\x13zNz\xb7V'","{'xmin': -96.091619, 'ymin': 19.076085, 'xmax': -96.091619, 'ymax': 19.076085}",dining and drinking > restaurant > mexican restaurant > taco restaurant,1
57142ea1498e9f6675607456,Tacos Cooacabana,19.294874,-99.131386,Acoxpa,,,,,,,MX,2016-04-18,2021-08-17,,,,,,,,['4bf58dd8d48988d151941735'],['Dining and Drinking > Restaurant > Mexican Restaurant > Taco Restaurant'],b'\x00\x00\x00\x00\x01\xc0X\xc8h\xa0\xd3I\xbf@3K|\xdc\xcap\xd2',"{'xmin': -99.131386, 'ymin': 19.294874, 'xmax': -99.131386, 'ymax': 19.294874}",dining and drinking > restaurant > mexican restaurant > taco restaurant,1
5644d3f7498e0fa831402386,La Esquina del Taco,19.254303,-99.60701,José María Morelos s/n,Metepec,México,,,,,MX,2015-11-12,2020-11-24,,,,,,,,['4bf58dd8d48988d151941735'],['Dining and Drinking > Restaurant > Mexican Restaurant > Taco Restaurant'],b'\x00\x00\x00\x00\x01\xc0X\xe6\xd9@x\x96\x14@3A\x1a\x00\\FR',"{'xmin': -99.60701, 'ymin': 19.254303, 'xmax': -99.60701, 'ymax': 19.254303}",dining and drinking > restaurant > mexican restaurant > taco restaurant,1
53ff3aaf498ebc59b6376cc1,Gorditas de El Salto,20.392467498779297,-103.15784454345703,,,,,,,,MX,2014-08-28,2020-11-30,,,,,,,,['4bf58dd8d48988d151941735'],['Dining and Drinking > Restaurant > Mexican Restaurant > Taco Restaurant'],b'\x00\x00\x00\x00\x01\xc0Y\xca\x1a \x00\x00\x00@4dx\xc0\x00\x00\x00',"{'xmin': -103.15784454345703, 'ymin': 20.392467498779297, 'xmax': -103.15784454345703, 'ymax': 20.392467498779297}",dining and drinking > restaurant > mexican restaurant > taco restaurant,1
