fsq_place_id,name,latitude,longitude,address,locality,region,postcode,admin_region,post_town,po_box,country,date_created,date_refreshed,date_closed,tel,website,email,facebook_id,instagram,twitter,fsq_category_ids,fsq_category_labels,geom,bbox,labels_str,taco_restaurant
4f3b0210e4b0ccd5ed91fc0e,"Tako Taco ""tacos & Grill",31.834029016881903,-116.59903481321412,Valledorado,Ensenada,Baja California.,,,,,MX,2012-02-15,2020-11-23,,,,,,,,['4bf58dd8d48988d151941735' '4bf58dd8d48988d1df931735'],"['Dining and Drinking > Restaurant > Mexican Restaurant > Taco Restaurant'
 'Dining and Drinking > Restaurant > BBQ Joint']",b'\x00\x00\x00\x00\x01\xc0]&V\x96\x1c\xfa\xe3@?\xd5\x82\xec\xf7l=',"{'xmin': -116.59903481321412, 'ymin': 31.834029016881903, 'xmax': -116.59903481321412, 'ymax': 31.834029016881903}","dining and drinking > restaurant > mexican restaurant > taco restaurant, dining and drinking > restaurant > bbq joint",1
4ec946057ee537da80a8566e,Tacos Arandas,32.5216752526549,-117.0276549045853,,Tijuana,Baja California,,,,,MX,2011-11-20,2020-11-26,,,,,,,,['4bf58dd8d48988d151941735'],['Dining and Drinking > Restaurant > Mexican Restaurant > Taco Restaurant'],b'\x00\x00\x00\x00\x01\xc0]A\xc5\x19\x13\xb1%@@B\xc6A2\xa4\x86',"{'xmin': -117.0276549045853, 'ymin': 32.5216752526549, 'xmax': -117.0276549045853, 'ymax': 32.5216752526549}",dining and drinking > restaurant > mexican restaurant > taco restaurant,1
4bc0ed074cdfc9b638c99321,Fruteria La Unica,32.498159288879975,-116.98827977393829,Av. Las Ferias,Tijuana,BC,22030,,,,MX,2010-04-10,2020-11-23,,664 681 9950,,,,,,"['4bf58dd8d48988d112941735' '4bf58dd8d48988d16e941735'
 '4bf58dd8d48988d151941735']","['Dining and Drinking > Juice Bar'
 'Dining and Drinking > Restaurant > Fast Food Restaurant'
 'Dining and Drinking > Restaurant > Mexican Restaurant > Taco Restaurant']",b'\x00\x00\x00\x00\x01\xc0]??\xf9\xcf\x17?@@?\xc3\xae\xfe\xf8\x14',"{'xmin': -116.98827977393829, 'ymin': 32.498159288879975, 'xmax': -116.98827977393829, 'ymax': 32.498159288879975}","dining and drinking > juice bar, dining and drinking > restaurant > fast food restaurant, dining and drinking > restaurant > mexican restaurant > taco restaurant",1
5801df5f38fae8b1c61ecb7e,Tacos Varios De La Plaza,32.527508,-117.02249,,Tijuana,Baja California,,,,,MX,2016-10-15,2020-11-22,,,,,,,,['4bf58dd8d48988d151941735'],['Dining and Drinking > Restaurant > Mexican Restaurant > Taco Restaurant'],"b'\x00\x00\x00\x00\x01\xc0]Apy\xe5\x9f,@@C\x85a\xd40n'","{'xmin': -117.02249, 'ymin': 32.527508, 'xmax': -117.02249, 'ymax': 32.527508}",dining and drinking > restaurant > mexican restaurant > taco restaurant,1
52be256a498eacc389e94441,El Profe Tacos,31.865291595458984,-116.6196060180664,,,,,,,,MX,2013-12-28,2021-08-14,,,,,,,,['4bf58dd8d48988d151941735'],['Dining and Drinking > Restaurant > Mexican Restaurant > Taco Restaurant'],"b""\x00\x00\x00\x00\x01\xc0]'\xa7\xa0\x00\x00\x00@?\xdd\x83\xc0\x00\x00\x00""","{'xmin': -116.6196060180664, 'ymin': 31.865291595458984, 'xmax': -116.6196060180664, 'ymax': 31.865291595458984}",dining and drinking > restaurant > mexican restaurant > taco restaurant,1
4fc85512e4b0896b9f401502,tacos el gube,32.63336350134918,-115.49389153232983,,Mexicali,BCS,,,,,MX,2012-06-01,2021-08-12,,,,,,,,['4bf58dd8d48988d151941735'],['Dining and Drinking > Restaurant > Mexican Restaurant > Taco Restaurant'],"b'\x00\x00\x00\x00\x01\xc0\\\xdf\x9b\xeb:\xc80@@Q\x12\x0e""c,'","{'xmin': -115.49389153232983, 'ymin': 32.63336350134918, 'xmax': -115.49389153232983, 'ymax': 32.63336350134918}",dining and drinking > restaurant > mexican restaurant > taco restaurant,1
4f395390e4b0edf91ef097a7,Ponchos Fish Tacos,32.639227,-115.426753,Independencia,Mexicali,Baja California,,,,,MX,2012-02-13,2020-11-23,,,,,,,,['4bf58dd8d48988d151941735'],['Dining and Drinking > Restaurant > Mexican Restaurant > Taco Restaurant'],b'\x00\x00\x00\x00\x01\xc0\\\xdbO\xeb\xd0\x9e\x13@@Q\xd20\xb9\xdc/',"{'xmin': -115.426753, 'ymin': 32.639227, 'xmax': -115.426753, 'ymax': 32.639227}",dining and drinking > restaurant > mexican restaurant > taco restaurant,1
59fcb70e8496ca4e8098e8d7,Tacos A Vapor Moreno,32.65857,-115.427842,Calzada Aviación,Mexicali,BC,21210,,,,MX,2017-11-03,2020-11-22,,,,,,,,['4bf58dd8d48988d1cb941735' '4bf58dd8d48988d151941735'],"['Dining and Drinking > Food Truck'
 'Dining and Drinking > Restaurant > Mexican Restaurant > Taco Restaurant']",b'\x00\x00\x00\x00\x01\xc0\\\xdba\xc3iv\xbc@@TL\x05\x92\x108',"{'xmin': -115.427842, 'ymin': 32.65857, 'xmax': -115.427842, 'ymax': 32.65857}","dining and drinking > food truck, dining and drinking > restaurant > mexican restaurant > taco restaurant",1
51ce8bb0498ef93fb9634fd8,"Tacos ""Los Poblanos""",32.33799019829598,-117.0552126815151,Carr.tijuana Ensenada,Rosarito,Baja California,,,,,MX,2013-06-29,2020-11-22,,,,,,,,['4bf58dd8d48988d151941735'],['Dining and Drinking > Restaurant > Mexican Restaurant > Taco Restaurant'],b'\x00\x00\x00\x00\x01\xc0]C\x88\x9a\xc5[\xa3@@+CCH\x06_',"{'xmin': -117.0552126815151, 'ymin': 32.33799019829598, 'xmax': -117.0552126815151, 'ymax': 32.33799019829598}",dining and drinking > restaurant > mexican restaurant > taco restaurant,1
5001b51ae4b0b1602bbe88d3,Tacos De Birria Casa Blanca,32.50198290079553,-116.8978234527757,,Tijuana,Baja California,,,,,MX,2012-07-14,2020-11-23,,,,,,,,['4bf58dd8d48988d151941735'],['Dining and Drinking > Restaurant > Mexican Restaurant > Taco Restaurant'],b'\x00\x00\x00\x00\x01\xc0]9u\xf0\x7f\xd08@@@@\xf9\xc7\x08\xb5',"{'xmin': -116.8978234527757, 'ymin': 32.50198290079553, 'xmax': -116.8978234527757, 'ymax': 32.50198290079553}",dining and drinking > restaurant > mexican restaurant > taco restaurant,1
510c8406e4b0a910c30934d3,Tacos Valtierra,21.134431492372457,-101.67615765141466,,,,,,,,MX,2013-02-02,2021-08-16,,,,,,,,['4bf58dd8d48988d151941735'],['Dining and Drinking > Restaurant > Mexican Restaurant > Taco Restaurant'],"b'\x00\x00\x00\x00\x01\xc0YkF*\xbd\xf1\x08@5""j\x1a/J\xcc'","{'xmin': -101.67615765141466, 'ymin': 21.134431492372457, 'xmax': -101.67615765141466, 'ymax': 21.134431492372457}",dining and drinking > restaurant > mexican restaurant > taco restaurant,1
54033e74498eccd896002053,"tacos ""el pelon""",20.518762,-100.833982,,,,,,,,MX,2014-08-31,2021-08-12,,,,,,,,['4bf58dd8d48988d151941735'],['Dining and Drinking > Restaurant > Mexican Restaurant > Taco Restaurant'],b'\x00\x00\x00\x00\x01\xc0Y5_\xf6\t\xdc\xf9@4\x84\xcd\x96 hU',"{'xmin': -100.833982, 'ymin': 20.518762, 'xmax': -100.833982, 'ymax': 20.518762}",dining and drinking > restaurant > mexican restaurant > taco restaurant,1
565950c4498e7593b4b6f863,La Rana de Oro,21.47103146776215,-104.87036794424057,,tepic,nayarit,,,,,MX,2015-11-28,2020-11-23,,,,,,,,['4bf58dd8d48988d151941735'],['Dining and Drinking > Restaurant > Mexican Restaurant > Taco Restaurant'],b'\x00\x00\x00\x00\x01\xc0Z7\xb4\x1b\xc0\x00\x00@5x\x95\x84\xadl\xe1',"{'xmin': -104.87036794424057, 'ymin': 21.47103146776215, 'xmax': -104.87036794424057, 'ymax': 21.47103146776215}",dining and drinking > restaurant > mexican restaurant > taco restaurant,1
574b886e498e44675be19e79,Tacos el aeropuerto,20.744785,-103.404364,,,,,,,,MX,2016-05-30,2021-08-15,,,,,,,,['4bf58dd8d48988d151941735'],['Dining and Drinking > Restaurant > Mexican Restaurant > Taco Restaurant'],b'\x00\x00\x00\x00\x01\xc0Y\xd9\xe1\x19\x8a\xeb\x81@4\xbe\xaa:\xd1\x8d&',"{'xmin': -103.404364, 'ymin': 20.744785, 'xmax': -103.404364, 'ymax': 20.744785}",dining and drinking > restaurant > mexican restaurant > taco restaurant,1
657a6cd338a1424c84c18c23,Tacos Don Vicente,21.176981,-101.65516,,León de los Aldama,Guanajuato,37208,,,,MX,2023-12-14,2023-12-14,,,,,,,,['4bf58dd8d48988d151941735'],['Dining and Drinking > Restaurant > Mexican Restaurant > Taco Restaurant'],b'\x00\x00\x00\x00\x01\xc0Yi\xee$5in@5-N\xa0w\x03m',"{'xmin': -101.65516, 'ymin': 21.176981, 'xmax': -101.65516, 'ymax': 21.176981}",dining and drinking > restaurant > mexican restaurant > taco restaurant,1
4bdd0b038f53d13a6aa9eb8f,Brasitacos,20.699568372471017,-101.34799711188803,Blvd. Ejercito Nacional,Irapuato,GTO,36630,,,,MX,2010-05-02,2020-11-24,,,,,,,,['4bf58dd8d48988d151941735'],['Dining and Drinking > Restaurant > Mexican Restaurant > Taco Restaurant'],b'\x00\x00\x00\x00\x01\xc0YVE\x95\xad\xaaW@4\xb3\x16\xe9\xb1\x147',"{'xmin': -101.34799711188803, 'ymin': 20.699568372471017, 'xmax': -101.34799711188803, 'ymax': 20.699568372471017}",dining and drinking > restaurant > mexican restaurant > taco restaurant,1
5719954d38fa812cd91d7487,"Tacos ""Homero""",19.671911553474068,-101.24174984741572,,,,,,,,MX,2016-04-22,2020-11-24,,,,,,,,['4bf58dd8d48988d151941735'],['Dining and Drinking > Restaurant > Mexican Restaurant > Taco Restaurant'],b'\x00\x00\x00\x00\x01\xc0YOx\xd4Z\x1d\xaa@3\xac\x02eC\xf9\xc6',"{'xmin': -101.24174984741572, 'ymin': 19.671911553474068, 'xmax': -101.24174984741572, 'ymax': 19.671911553474068}",dining and drinking > restaurant > mexican restaurant > taco restaurant,1
511fe1f9e4b027f3762fdbb0,Mily y Rafo,19.683767318725586,-101.17435455322266,,,,,,,,MX,2013-02-16,2021-08-13,,,,,,,,['4bf58dd8d48988d151941735'],['Dining and Drinking > Restaurant > Mexican Restaurant > Taco Restaurant'],b'\x00\x00\x00\x00\x01\xc0YK(\xa0\x00\x00\x00@3\xaf\x0b`\x00\x00\x00',"{'xmin': -101.17435455322266, 'ymin': 19.683767318725586, 'xmax': -101.17435455322266, 'ymax': 19.683767318725586}",dining and drinking > restaurant > mexican restaurant > taco restaurant,1
5321248b498e48d205899990,Tacos y Gringas De las Americas,21.866681904913776,-102.301516742727,,,,,,,,MX,2014-03-13,2021-08-16,,,,,,,,['4bf58dd8d48988d151941735'],['Dining and Drinking > Restaurant > Mexican Restaurant > Taco Restaurant'],b'\x00\x00\x00\x00\x01\xc0Y\x93L\x0c\xe1M_@5\xdd\xde\xdd\x85\xa3\xc0',"{'xmin': -102.301516742727, 'ymin': 21.866681904913776, 'xmax': -102.301516742727, 'ymax': 21.866681904913776}",dining and drinking > restaurant > mexican restaurant > taco restaurant,1
52dd2ef5498e410fb5a5e24f,Tacos Tilla,20.673632,-103.369983,López Cotilla,Guadalajara,Jalisco,,,,,MX,2014-01-20,2021-08-12,,,,,,,,['4bf58dd8d48988d151941735'],['Dining and Drinking > Restaurant > Mexican Restaurant > Taco Restaurant'],b'\x00\x00\x00\x00\x01\xc0Y\xd7\xad\xcd-D\xdd@4\xacs%\x91\x8a\x01',"{'xmin': -103.369983, 'ymin': 20.673632, 'xmax': -103.369983, 'ymax': 20.673632}",dining and drinking > restaurant > mexican restaurant > taco restaurant,1
5051482ae4b0f63fd2897cf1,Tacos y Tortas El Güero,22.13496516314199,-100.98545556149004,,,,,,,,MX,2012-09-13,2021-08-17,,,,,,,,['4bf58dd8d48988d151941735'],['Dining and Drinking > Restaurant > Mexican Restaurant > Taco Restaurant'],"b'\x00\x00\x00\x00\x01\xc0Y?\x11\xb44\x10\xb5@6""\x8d\x13\xb1\xcbN'","{'xmin': -100.98545556149004, 'ymin': 22.13496516314199, 'xmax': -100.98545556149004, 'ymax': 22.13496516314199}",dining and drinking > restaurant > mexican restaurant > taco restaurant,1
4f0e5057e4b09cff00be71cf,Tacos don sitio,20.628136412027963,-103.25771034124868,,,,,,,,MX,2012-01-12,2021-08-13,,,,,,,,['4bf58dd8d48988d151941735'],['Dining and Drinking > Restaurant > Mexican Restaurant > Taco Restaurant'],b'\x00\x00\x00\x00\x01\xc0Y\xd0~S\x83\xe0C@4\xa0\xcd\x8cC\x16>',"{'xmin': -103.25771034124868, 'ymin': 20.628136412027963, 'xmax': -103.25771034124868, 'ymax': 20.628136412027963}",dining and drinking > restaurant > mexican restaurant > taco restaurant,1
53cb44df498ee4f4fb4bfe0e,Tacos El Barritas,20.543577460447974,-100.80510395066663,,,,,,,,MX,2014-07-20,2021-08-12,,,,,,,,['4bf58dd8d48988d151941735'],['Dining and Drinking > Restaurant > Mexican Restaurant > Taco Restaurant'],"b""\x00\x00\x00\x00\x01\xc0Y3\x86\xd2\xb8\x7f\x97@4\x8b'\xe4ww\x7f""","{'xmin': -100.80510395066663, 'ymin': 20.543577460447974, 'xmax': -100.80510395066663, 'ymax': 20.543577460447974}",dining and drinking > restaurant > mexican restaurant > taco restaurant,1
5b1aa5c9f96b2c002c259671,Tacos El Ticus,20.513668,-100.955566,,Colonia la Fortaleza,GTO,,,,,MX,2018-06-08,2020-11-22,,,,,,,,['4bf58dd8d48988d151941735'],['Dining and Drinking > Restaurant > Mexican Restaurant > Taco Restaurant'],"b""\x00\x00\x00\x00\x01\xc0Y='\xfeK\xca\xda@4\x83\x7f\xbe\xfd\x00q""","{'xmin': -100.955566, 'ymin': 20.513668, 'xmax': -100.955566, 'ymax': 20.513668}",dining and drinking > restaurant > mexican restaurant > taco restaurant,1
517c94b9498e982bb499aff6,Tacos PASE,20.702444076538086,-101.36576080322266,,,,,,,,MX,2013-04-28,2021-08-15,,,,,,,,['4bf58dd8d48988d151941735'],['Dining and Drinking > Restaurant > Mexican Restaurant > Taco Restaurant'],b'\x00\x00\x00\x00\x01\xc0YWh\xa0\x00\x00\x00@4\xb3\xd3`\x00\x00\x00',"{'xmin': -101.36576080322266, 'ymin': 20.702444076538086, 'xmax': -101.36576080322266, 'ymax': 20.702444076538086}",dining and drinking > restaurant > mexican restaurant > taco restaurant,1
50aef627e4b045752aa4ae5c,Taqueria el Canelo,21.01652073776781,-101.27282776558474,Pueblito De Rocha 27,Guanajuato,Guanajuato,,,,,MX,2012-11-23,2023-12-20,,473 119 7964,,,,,,['4bf58dd8d48988d151941735'],['Dining and Drinking > Restaurant > Mexican Restaurant > Taco Restaurant'],b'\x00\x00\x00\x00\x01\xc0YQv\x02\x96\xa8$@5\x04:\xb3\xfck%',"{'xmin': -101.27282776558474, 'ymin': 21.01652073776781, 'xmax': -101.27282776558474, 'ymax': 21.01652073776781}",dining and drinking > restaurant > mexican restaurant > taco restaurant,1
526d355611d2781c03c1142a,Tortas Mary,20.732687,-103.337514,Lazaro Cardenas 4779,Guadalajaa,Jalusco,,,,,MX,2013-10-27,2021-08-14,,,,,,,,['4bf58dd8d48988d151941735'],['Dining and Drinking > Restaurant > Mexican Restaurant > Taco Restaurant'],b'\x00\x00\x00\x00\x01\xc0Y\xd5\x99\xd4Q\xfcL@4\xbb\x91`\x0f4P',"{'xmin': -103.337514, 'ymin': 20.732687, 'xmax': -103.337514, 'ymax': 20.732687}",dining and drinking > restaurant > mexican restaurant > taco restaurant,1
5342cf16498e92faafd6e604,Almuerzos Jerez,21.10382991485647,-101.64125446321106,,,,,,,,MX,2014-04-07,2021-08-16,,,,,,,,['4bf58dd8d48988d151941735'],['Dining and Drinking > Restaurant > Mexican Restaurant > Taco Restaurant'],b'\x00\x00\x00\x00\x01\xc0Yi\nP(\xf9\xf4@5\x1a\x94\x98\xe8\xa7\xae',"{'xmin': -101.64125446321106, 'ymin': 21.10382991485647, 'xmax': -101.64125446321106, 'ymax': 21.10382991485647}",dining and drinking > restaurant > mexican restaurant > taco restaurant,1
6413c78bfa17c93ad330c336,Tacos El Japo,20.912993,-100.746491,,San Miguel de Allende,Guanajuato,37700,,,,MX,2023-03-17,2023-03-17,,,,,,,,['4bf58dd8d48988d151941735'],['Dining and Drinking > Restaurant > Mexican Restaurant > Taco Restaurant'],b'\x00\x00\x00\x00\x01\xc0Y/\xc6\x82/\xf0\x89@4\xe9\xb9\xe8\xc4z\x18',"{'xmin': -100.746491, 'ymin': 20.912993, 'xmax': -100.746491, 'ymax': 20.912993}",dining and drinking > restaurant > mexican restaurant > taco restaurant,1
5df562b880f31500073df658,Tacos De Birria “La Sinaloense”,21.47333,-104.870305,102 Avenida Xalisco,Tepic,NAY,63195,,,,MX,2019-12-14,2023-09-13,,,,,,,,['4bf58dd8d48988d151941735'],['Dining and Drinking > Restaurant > Mexican Restaurant > Taco Restaurant'],"b'\x00\x00\x00\x00\x01\xc0Z7\xb3\x13\xbe""\xe6@5y,\'\xa677'","{'xmin': -104.870305, 'ymin': 21.47333, 'xmax': -104.870305, 'ymax': 21.47333}",dining and drinking > restaurant > mexican restaurant > taco restaurant,1
5115b5dfe4b06314388e62b7,Tacos De Pancho,21.019921073294594,-101.42292238782508,Calle Palma,Silao,Guanajuato,36130,,,,MX,2013-02-09,2020-11-23,,,,,,,,['4bf58dd8d48988d151941735'],['Dining and Drinking > Restaurant > Mexican Restaurant > Taco Restaurant'],b'\x00\x00\x00\x00\x01\xc0Y[\x11)\x10\x1d\x1e@5\x05\x19\x8c&M/',"{'xmin': -101.42292238782508, 'ymin': 21.019921073294594, 'xmax': -101.42292238782508, 'ymax': 21.019921073294594}",dining and drinking > restaurant > mexican restaurant > taco restaurant,1
4ebc1ca3e5faf7ab65a40ec6,Quesadillas Las Inditas,21.082718194931104,-101.6511082649231,Parques del sur,Leon,Gto,,,,,MX,2011-11-10,2020-11-25,,,,,,,,['4bf58dd8d48988d151941735'],['Dining and Drinking > Restaurant > Mexican Restaurant > Taco Restaurant'],b'\x00\x00\x00\x00\x01\xc0Yi\xab\xc2\x00\x00\x00@5\x15-\x05\x06\x03d',"{'xmin': -101.6511082649231, 'ymin': 21.082718194931104, 'xmax': -101.6511082649231, 'ymax': 21.082718194931104}",dining and drinking > restaurant > mexican restaurant > taco restaurant,1
5311ffca498eadeec58e718b,tacos de birria el chino,20.73497103209837,-103.3946947941563,,,,,,,,MX,2014-03-01,2021-08-12,,,,,,,,['4bf58dd8d48988d151941735'],['Dining and Drinking > Restaurant > Mexican Restaurant > Taco Restaurant'],"b""\x00\x00\x00\x00\x01\xc0Y\xd9B\xad\xf43`@4\xbc'\x0f\xc2^\xaf""","{'xmin': -103.3946947941563, 'ymin': 20.73497103209837, 'xmax': -103.3946947941563, 'ymax': 20.73497103209837}",dining and drinking > restaurant > mexican restaurant > taco restaurant,1
5153b373e4b06d4253fdf273,Tacos El Machin 2.0,20.66022355085956,-105.23587442473688,Calle Preparatoria 135,Puerto Vallarta,Jalisco,,,,,MX,2013-03-28,2020-11-25,,,,,,,,['4bf58dd8d48988d151941735'],['Dining and Drinking > Restaurant > Mexican Restaurant > Taco Restaurant'],b'\x00\x00\x00\x00\x01\xc0ZO\x18\x91\x0b\rK@4\xa9\x04i\x1e\xfd\xa5',"{'xmin': -105.23587442473688, 'ymin': 20.66022355085956, 'xmax': -105.23587442473688, 'ymax': 20.66022355085956}",dining and drinking > restaurant > mexican restaurant > taco restaurant,1
4d37b0143ffba143d90e5556,Arrieros Mary Paz,20.655562734011088,-105.23556312751391,Universo,Puerto Vallarta,Jalisco,,,,,MX,2011-01-20,2023-12-21,,322 000 0000,,,,,,['4bf58dd8d48988d151941735'],['Dining and Drinking > Restaurant > Mexican Restaurant > Taco Restaurant'],b'\x00\x00\x00\x00\x01\xc0ZO\x13w^45@4\xa7\xd2\xf5\x97\r\xd1',"{'xmin': -105.23556312751391, 'ymin': 20.655562734011088, 'xmax': -105.23556312751391, 'ymax': 20.655562734011088}",dining and drinking > restaurant > mexican restaurant > taco restaurant,1
4eadf8c6e300f9b9197ee7c3,Tacos Furber,20.68199740525929,-101.35891400144399,Blvd. Lázaro Cárdenas 439,Irapuato,GTO,,,,,MX,2011-10-31,2023-12-20,,462 627 2777,,,,,,['4bf58dd8d48988d151941735'],['Dining and Drinking > Restaurant > Mexican Restaurant > Taco Restaurant'],b'\x00\x00\x00\x00\x01\xc0YV\xf8rn\x91\xd2@4\xae\x97a\xc7\x8b\xa6',"{'xmin': -101.35891400144399, 'ymin': 20.68199740525929, 'xmax': -101.35891400144399, 'ymax': 20.68199740525929}",dining and drinking > restaurant > mexican restaurant > taco restaurant,1
4e5e91a962e12101204052c9,Gorditas Las Cazuelas,20.730615,-103.421856,,Zapopan,Jalisco,,,,,MX,2011-08-31,2020-11-23,,,,,,,,['4bf58dd8d48988d151941735'],['Dining and Drinking > Restaurant > Mexican Restaurant > Taco Restaurant'],b'\x00\x00\x00\x00\x01\xc0Y\xda\xff\xb0N\xe7\xc5@4\xbb\t\x95\xaa\xf7\x90',"{'xmin': -103.421856, 'ymin': 20.730615, 'xmax': -103.421856, 'ymax': 20.730615}",dining and drinking > restaurant > mexican restaurant > taco restaurant,1
5bd5e076603d2a002c215214,El Rey Del Puerco,21.481752,-104.88832,Río Suchiate,Tepic,Nayarit,63198,,,,MX,2018-10-28,2020-11-23,,,,,,,,['4bf58dd8d48988d151941735'],['Dining and Drinking > Restaurant > Mexican Restaurant > Taco Restaurant'],b'\x00\x00\x00\x00\x01\xc0Z8\xda<!\x18~@5{T\x19\\\xc8X',"{'xmin': -104.88832, 'ymin': 21.481752, 'xmax': -104.88832, 'ymax': 21.481752}",dining and drinking > restaurant > mexican restaurant > taco restaurant,1
4c985360b6ee236a0e66a7a7,Los Primos,22.171289,-101.003968,,San Luis Potosí,San Luis Potosí,,,,,MX,2010-09-21,2020-11-24,,,,,,,,['4bf58dd8d48988d151941735'],['Dining and Drinking > Restaurant > Mexican Restaurant > Taco Restaurant'],b'\x00\x00\x00\x00\x01\xc0Y@A\x02\xff\x8e\xc1@6+\xd9\x98\x8d* ',"{'xmin': -101.003968, 'ymin': 22.171289, 'xmax': -101.003968, 'ymax': 22.171289}",dining and drinking > restaurant > mexican restaurant > taco restaurant,1
5b42459e2b274a002c2f6ac7,Loncheria El Mono,21.95638,-102.30881,Prol. Ignacio Zaragoza,,Aguascalientes,,,,,MX,2018-07-08,2021-08-11,,,,,,,,['4bf58dd8d48988d151941735'],['Dining and Drinking > Restaurant > Mexican Restaurant > Taco Restaurant'],b'\x00\x00\x00\x00\x01\xc0Y\x93\xc3\x8b\x04\xab`@5\xf4\xd5Q\xd6\x8ci',"{'xmin': -102.30881, 'ymin': 21.95638, 'xmax': -102.30881, 'ymax': 21.95638}",dining and drinking > restaurant > mexican restaurant > taco restaurant,1
5a7fb9c069e77b4a8a650e7e,Autenticos Tacos charcos,22.095435,-100.878135,Julian de los Reyes,San Luis Potosí,S.L.P.,78421,,,,MX,2018-02-11,2020-11-21,,,,,,,,['4bf58dd8d48988d151941735'],['Dining and Drinking > Restaurant > Mexican Restaurant > Taco Restaurant'],b'\x00\x00\x00\x00\x01\xc0Y83]$\x9eE@6\x18nm\x9b\xe4\xcd',"{'xmin': -100.878135, 'ymin': 22.095435, 'xmax': -100.878135, 'ymax': 22.095435}",dining and drinking > restaurant > mexican restaurant > taco restaurant,1
52bba96b498ebe1f10472866,Taquería Zempoaltepetl,21.092846933500258,-101.65148454121076,,,,,,,,MX,2013-12-26,2021-08-13,,,,,,,,['4bf58dd8d48988d151941735'],['Dining and Drinking > Restaurant > Mexican Restaurant > Taco Restaurant'],b'\x00\x00\x00\x00\x01\xc0Yi\xb1\xec7\x96c@5\x17\xc4\xd1\x0e\xea\xe1',"{'xmin': -101.65148454121076, 'ymin': 21.092846933500258, 'xmax': -101.65148454121076, 'ymax': 21.092846933500258}",dining and drinking > restaurant > mexican restaurant > taco restaurant,1
4fe678c9e4b04318c4247622,Asadero El Cachanilla,31.023313354069888,-114.83527846491215,,,,,,,,MX,2012-06-24,2021-08-13,,,,,,,,['4bf58dd8d48988d151941735'],['Dining and Drinking > Restaurant > Mexican Restaurant > Taco Restaurant'],b'\x00\x00\x00\x00\x01\xc0\\\xb5u3\xcevs@?\x05\xf7\xdd-JM',"{'xmin': -114.83527846491215, 'ymin': 31.023313354069888, 'xmax': -114.83527846491215, 'ymax': 31.023313354069888}",dining and drinking > restaurant > mexican restaurant > taco restaurant,1
4cdaeac7930af04d3cc18797,Tacos al vapor  Don Dany,20.663568345900718,-103.40349915377892,12 de Diciembre,Guadalajara,,,,,,MX,2010-11-10,2020-11-30,,,,,,,,['4bf58dd8d48988d151941735'],['Dining and Drinking > Restaurant > Mexican Restaurant > Taco Restaurant'],b'\x00\x00\x00\x00\x01\xc0Y\xd9\xd2\xee\x1d\\m@4\xa9\xdf\x9dxM\xed',"{'xmin': -103.40349915377892, 'ymin': 20.663568345900718, 'xmax': -103.40349915377892, 'ymax': 20.663568345900718}",dining and drinking > restaurant > mexican restaurant > taco restaurant,1
4f2d7e85e4b0124ab886fffe,Tacos De Barbacoa El Chino,20.916445,-100.740352,Puente De Umaran,San Miguel De Allende,Guanajuato,,,,,MX,2012-02-04,2020-11-26,,,,,,,,['4bf58dd8d48988d151941735'],['Dining and Drinking > Restaurant > Mexican Restaurant > Taco Restaurant'],b'\x00\x00\x00\x00\x01\xc0Y/a\xedZ\xe1\xce@4\xea\x9c#\xb7\x95-',"{'xmin': -100.740352, 'ymin': 20.916445, 'xmax': -100.740352, 'ymax': 20.916445}",dining and drinking > restaurant > mexican restaurant > taco restaurant,1
52c8a06a11d2d004dc211a6c,Tacos El Mongo,20.337354,-102.027367,,,,,,,,MX,2014-01-04,2021-08-13,,,,,,,,['4bf58dd8d48988d151941735'],['Dining and Drinking > Restaurant > Mexican Restaurant > Taco Restaurant'],"b'\x00\x00\x00\x00\x01\xc0Y\x81\xc0a\x84\x7fV@4V\\\xd4\xed,\xbf'","{'xmin': -102.027367, 'ymin': 20.337354, 'xmax': -102.027367, 'ymax': 20.337354}",dining and drinking > restaurant > mexican restaurant > taco restaurant,1
56d4ab6bcd10b98f50d38789,La Antojeria,21.880940200388125,-102.28202401460597,,,,,,,,MX,2016-02-29,2021-08-17,,,,,,,,['4bf58dd8d48988d151941735'],['Dining and Drinking > Restaurant > Mexican Restaurant > Taco Restaurant'],b'\x00\x00\x00\x00\x01\xc0Y\x92\x0c\xaes\xda\xd5@5\xe1\x85L\x06f\x10',"{'xmin': -102.28202401460597, 'ymin': 21.880940200388125, 'xmax': -102.28202401460597, 'ymax': 21.880940200388125}",dining and drinking > restaurant > mexican restaurant > taco restaurant,1
4f7ff720e4b0b2237b9ffce7,Tacos Fuente Olimpica,20.685143551970974,-103.33789232289035,Calzada Independencia,Guadalajara,Jalisco,,,,,MX,2012-04-07,2021-08-17,,,,,,,,['4bf58dd8d48988d151941735' '4bf58dd8d48988d1c1941735'],"['Dining and Drinking > Restaurant > Mexican Restaurant > Taco Restaurant'
 'Dining and Drinking > Restaurant > Mexican Restaurant']",b'\x00\x00\x00\x00\x01\xc0Y\xd5\xa0\x07\x1f\x18\x8c@4\xafe\x91\\\xc7\xd6',"{'xmin': -103.33789232289035, 'ymin': 20.685143551970974, 'xmax': -103.33789232289035, 'ymax': 20.685143551970974}","dining and drinking > restaurant > mexican restaurant > taco restaurant, dining and drinking > restaurant > mexican restaurant",1
50075c1fe4b0eb87483c4f86,Tacos Don Simón,21.88720771654251,-102.28599830887114,,,,,,,,MX,2012-07-19,2021-08-16,,,,,,,,['4bf58dd8d48988d151941735'],['Dining and Drinking > Restaurant > Mexican Restaurant > Taco Restaurant'],b'\x00\x00\x00\x00\x01\xc0Y\x92M\xcb\xd9\xd4\x06@5\xe3 \x0b\x7fO\x15',"{'xmin': -102.28599830887114, 'ymin': 21.88720771654251, 'xmax': -102.28599830887114, 'ymax': 21.88720771654251}",dining and drinking > restaurant > mexican restaurant > taco restaurant,1
4e829168be7b92ebc87aa239,Arandinos Tacos,20.74559377172681,-103.3954531864648,Av. De La Mancha,Zapopan,JAL,45130,,,,MX,2011-09-28,2020-11-24,,,,,,,,['4bf58dd8d48988d151941735'],['Dining and Drinking > Restaurant > Mexican Restaurant > Taco Restaurant'],b'\x00\x00\x00\x00\x01\xc0Y\xd9O\x1a\xe1\xbd\xc8@4\xbe\xdf;\xc1\xaa\xfe',"{'xmin': -103.3954531864648, 'ymin': 20.74559377172681, 'xmax': -103.3954531864648, 'ymax': 20.74559377172681}",dining and drinking > restaurant > mexican restaurant > taco restaurant,1
a995c771b84b4b531454d678,Sandy´s Cafe,21.442522,-104.902584,619 Loc 5 y 6,Mérida,Yucatán,97217,,,,MX,2010-11-04,2023-12-06,,999 987 3639,,,,,,['4bf58dd8d48988d151941735' '4bf58dd8d48988d1bd941735'],"['Dining and Drinking > Restaurant > Mexican Restaurant > Taco Restaurant'
 'Dining and Drinking > Restaurant > Salad Restaurant']",b'\x00\x00\x00\x00\x01\xc0Z9\xc3\xef\xaey%@5qI\x1f-\xc2\xb1',"{'xmin': -104.902584, 'ymin': 21.442522, 'xmax': -104.902584, 'ymax': 21.442522}","dining and drinking > restaurant > mexican restaurant > taco restaurant, dining and drinking > restaurant > salad restaurant",1
575034c6498eb29e1dfcf542,Canastopolis,19.676653,-101.189749,J. J. Tablada 318 C,Morelia,Michoacán,,,,,MX,2016-06-02,2020-11-24,,,,,,,,['4bf58dd8d48988d151941735'],['Dining and Drinking > Restaurant > Mexican Restaurant > Taco Restaurant'],b'\x00\x00\x00\x00\x01\xc0YL$\xd8\xfd\\\xb8@3\xad9!\x89\xbd\x84',"{'xmin': -101.189749, 'ymin': 19.676653, 'xmax': -101.189749, 'ymax': 19.676653}",dining and drinking > restaurant > mexican restaurant > taco restaurant,1
4f1e1cdae4b03f8d84abf42e,El Tragadero,19.774437410119337,-104.36672151088715,Borbón,Autlán de Navarro,Jalisco,48900,,,,MX,2012-01-24,2023-12-21,,317 387 1066,,,,,,['4bf58dd8d48988d151941735'],['Dining and Drinking > Restaurant > Mexican Restaurant > Taco Restaurant'],b'\x00\x00\x00\x00\x01\xc0Z\x17x]\x80\x00\x00@3\xc6A\x87\xb5B\xf1',"{'xmin': -104.36672151088715, 'ymin': 19.774437410119337, 'xmax': -104.36672151088715, 'ymax': 19.774437410119337}",dining and drinking > restaurant > mexican restaurant > taco restaurant,1
5691ecf6498e94af9bac23bc,100% Sirloin,20.663334906021365,-103.43108640611159,,,,,,,,MX,2016-01-10,2021-08-15,,,,,,,,['4bf58dd8d48988d151941735'],['Dining and Drinking > Restaurant > Mexican Restaurant > Taco Restaurant'],b'\x00\x00\x00\x00\x01\xc0Y\xdb\x96\xebo\xff\xf7@4\xa9\xd0P\xff\xa81',"{'xmin': -103.43108640611159, 'ymin': 20.663334906021365, 'xmax': -103.43108640611159, 'ymax': 20.663334906021365}",dining and drinking > restaurant > mexican restaurant > taco restaurant,1
5149d224e4b080e75aeb936c,Tacos El Morro,20.644703,-100.984677,,,,,,,,MX,2013-03-20,2021-08-14,,,,,,,,['4bf58dd8d48988d151941735'],['Dining and Drinking > Restaurant > Mexican Restaurant > Taco Restaurant'],b'\x00\x00\x00\x00\x01\xc0Y?\x04\xf2\xae\x07\xe6@4\xa5\x0bA|\xa2\x12',"{'xmin': -100.984677, 'ymin': 20.644703, 'xmax': -100.984677, 'ymax': 20.644703}",dining and drinking > restaurant > mexican restaurant > taco restaurant,1
593973c33af98813c7c118e2,Tacos Al Vapor Oscar,20.68714,-103.35279,Calle Mezquitan,Guadalajara,Jalisco,44200,,,,MX,2017-06-08,2021-08-14,,,,,,,,['4bf58dd8d48988d151941735'],['Dining and Drinking > Restaurant > Mexican Restaurant > Taco Restaurant'],b'\x00\x00\x00\x00\x01\xc0Y\xd6\x94\x1c\x82\x16\xc6@4\xaf\xe8h3\xc6\x00',"{'xmin': -103.35279, 'ymin': 20.68714, 'xmax': -103.35279, 'ymax': 20.68714}",dining and drinking > restaurant > mexican restaurant > taco restaurant,1
4f6ff60ce4b0e6e003ef5338,Los Tacos Mas Ricos De Tesistan,20.797247958724554,-103.47779678517554,,,,,,,,MX,2012-03-26,2021-08-13,,,,,,,,['4bf58dd8d48988d151941735'],['Dining and Drinking > Restaurant > Mexican Restaurant > Taco Restaurant'],b'\x00\x00\x00\x00\x01\xc0Y\xde\x948\xf7\x9d\xa0@4\xcc\x18q5\x86T',"{'xmin': -103.47779678517554, 'ymin': 20.797247958724554, 'xmax': -103.47779678517554, 'ymax': 20.797247958724554}",dining and drinking > restaurant > mexican restaurant > taco restaurant,1
4f2ed2f5e4b00ef1a6868358,tacos los compayes,20.69828057509632,-103.3323930114957,"Circ. División del Norte, Guadalajara, JAL",Guadalajara,Jalisco,,,,,MX,2012-02-05,2021-08-12,,,,,,,,['4bf58dd8d48988d151941735'],['Dining and Drinking > Restaurant > Mexican Restaurant > Taco Restaurant'],b'\x00\x00\x00\x00\x01\xc0Y\xd5E\xedVr\xc0@4\xb2\xc2\x84\tx\x84',"{'xmin': -103.3323930114957, 'ymin': 20.69828057509632, 'xmax': -103.3323930114957, 'ymax': 20.69828057509632}",dining and drinking > restaurant > mexican restaurant > taco restaurant,1
525eb67b11d2e8a5011fb4db,Huaraches El Derramadero,20.13540754837764,-101.1885952644308,Pipila 90,Moroleón,Guanajuato,38800,,,,MX,2013-10-16,2020-11-30,,,,,,,,['4bf58dd8d48988d151941735'],['Dining and Drinking > Restaurant > Mexican Restaurant > Taco Restaurant'],"b'\x00\x00\x00\x00\x01\xc0YL\x11\xf1\xdf:J@4""\xaa\x11\xaf\xe9\xdb'","{'xmin': -101.1885952644308, 'ymin': 20.13540754837764, 'xmax': -101.1885952644308, 'ymax': 20.13540754837764}",dining and drinking > restaurant > mexican restaurant > taco restaurant,1
568c949e498e6c3873d7ab13,Tacos Los Pioneros,19.262333,-103.712174,,Colima,Colima,,,,,MX,2016-01-06,2020-11-25,,,,,,,,['4bf58dd8d48988d151941735'],['Dining and Drinking > Restaurant > Mexican Restaurant > Taco Restaurant'],b'\x00\x00\x00\x00\x01\xc0Y\xed\x94BA\xc3\xf0@3C(Ag\xa9]',"{'xmin': -103.712174, 'ymin': 19.262333, 'xmax': -103.712174, 'ymax': 19.262333}",dining and drinking > restaurant > mexican restaurant > taco restaurant,1
5777fa56498eceb3565ee837,Tacos Taqueshi,20.526678,-100.837135,,,,,,,,MX,2016-07-02,2021-08-12,,,,,,,,['4bf58dd8d48988d151941735'],['Dining and Drinking > Restaurant > Mexican Restaurant > Taco Restaurant'],b'\x00\x00\x00\x00\x01\xc0Y5\x93\x9e\xad\xd5\x91@4\x86\xd4^\x91\x85\xcf',"{'xmin': -100.837135, 'ymin': 20.526678, 'xmax': -100.837135, 'ymax': 20.526678}",dining and drinking > restaurant > mexican restaurant > taco restaurant,1
5bf8f78565211f002c59511d,Tacos El 5,20.645721,-103.29799,Lopez De Gomara,Guadalajara,JAL,44860,,,,MX,2018-11-24,2021-08-11,,,,,,,,['4bf58dd8d48988d151941735'],['Dining and Drinking > Restaurant > Mexican Restaurant > Taco Restaurant'],"b'\x00\x00\x00\x00\x01\xc0Y\xd3\x12D\xa6"">@4\xa5M\xf8\xb1W&'","{'xmin': -103.29799, 'ymin': 20.645721, 'xmax': -103.29799, 'ymax': 20.645721}",dining and drinking > restaurant > mexican restaurant > taco restaurant,1
5ab510c5b3c9615ea2ff24e1,El Jacuzzi,20.730227,-103.384384,,Zapopan,Jalisco,45150,,,,MX,2018-03-23,2020-11-22,,,,,,,,['4bf58dd8d48988d151941735'],['Dining and Drinking > Restaurant > Mexican Restaurant > Taco Restaurant'],b'\x00\x00\x00\x00\x01\xc0Y\xd8\x99\xbfYF\xc3@4\xba\xf0(\x1b\xa7\xfc',"{'xmin': -103.384384, 'ymin': 20.730227, 'xmax': -103.384384, 'ymax': 20.730227}",dining and drinking > restaurant > mexican restaurant > taco restaurant,1
4ef5c8934fc6f26c25e6de1e,Tacos El Roger La Glorieta,20.697672191735553,-103.29443633706117,Av. artesanos 1755,Guadalajara,Jalisco,,,,,MX,2011-12-24,2021-08-12,,,,,,,,['4bf58dd8d48988d151941735'],['Dining and Drinking > Restaurant > Mexican Restaurant > Taco Restaurant'],b'\x00\x00\x00\x00\x01\xc0Y\xd2\xd8\x0b\x81\x9b\xa2@4\xb2\x9a\xa5\x0e\xd55',"{'xmin': -103.29443633706117, 'ymin': 20.697672191735553, 'xmax': -103.29443633706117, 'ymax': 20.697672191735553}",dining and drinking > restaurant > mexican restaurant > taco restaurant,1
58e665263ef0f6390dc56ed3,"Tacos ""El Amigo""",20.451065,-101.53862,Guerrero Poniente,Abasolo,Guanajuato,36970,,,,MX,2017-04-06,2020-11-25,,,,,,,,['4bf58dd8d48988d151941735'],['Dining and Drinking > Restaurant > Mexican Restaurant > Taco Restaurant'],b'\x00\x00\x00\x00\x01\xc0Ybx\xc0\x05>-@4sx\xfe\xef^\xc8',"{'xmin': -101.53862, 'ymin': 20.451065, 'xmax': -101.53862, 'ymax': 20.451065}",dining and drinking > restaurant > mexican restaurant > taco restaurant,1
4d3397deb6093704e51f03e0,Sonora´s Meat,20.654894172510428,-105.22827183552981,Av. Prisciliano Sanchez #540,Puerto Vallarta,Jalisco,48315,,,,MX,2011-01-17,2020-11-23,,322 232 8563,http://sonorameat.com,,289160583613.0,,,['4bf58dd8d48988d1cc941735' '4bf58dd8d48988d151941735'],"['Dining and Drinking > Restaurant > Steakhouse'
 'Dining and Drinking > Restaurant > Mexican Restaurant > Taco Restaurant']",b'\x00\x00\x00\x00\x01\xc0ZN\x9c\x01y\x0c\xb3@4\xa7\xa7$\xfdE\xf5',"{'xmin': -105.22827183552981, 'ymin': 20.654894172510428, 'xmax': -105.22827183552981, 'ymax': 20.654894172510428}","dining and drinking > restaurant > steakhouse, dining and drinking > restaurant > mexican restaurant > taco restaurant",1
5549b527498e5b5c7d56942f,Tacos Palenque,21.878040313720703,-102.3028793334961,,,,,,,,MX,2015-05-06,2021-08-10,,,,,,,,['4bf58dd8d48988d151941735'],['Dining and Drinking > Restaurant > Mexican Restaurant > Taco Restaurant'],b'\x00\x00\x00\x00\x01\xc0Y\x93b`\x00\x00\x00@5\xe0\xc7@\x00\x00\x00',"{'xmin': -102.3028793334961, 'ymin': 21.878040313720703, 'xmax': -102.3028793334961, 'ymax': 21.878040313720703}",dining and drinking > restaurant > mexican restaurant > taco restaurant,1
4e3a0dbb1495c19cfbbff331,Taquería El Alteño,20.527539480900142,-100.8438462767347,Real del Seminario,Celaya,Guanajuato,,,,,MX,2011-08-04,2020-11-23,,,,,,,,['4bf58dd8d48988d151941735'],['Dining and Drinking > Restaurant > Mexican Restaurant > Taco Restaurant'],b'\x00\x00\x00\x00\x01\xc0Y6\x01\x93\xd0[R@4\x87\x0c\xd3\xd1\xd0\x9f',"{'xmin': -100.8438462767347, 'ymin': 20.527539480900142, 'xmax': -100.8438462767347, 'ymax': 20.527539480900142}",dining and drinking > restaurant > mexican restaurant > taco restaurant,1
4cd036077f56a143f093cca6,Tacos Gera Barbacoa,20.72377519371744,-103.39537218460737,Eva Briseño 1,Zapopan,Jalisco,45000,,,,MX,2010-11-02,2020-11-22,,,,,,,,['4bf58dd8d48988d151941735'],['Dining and Drinking > Restaurant > Mexican Restaurant > Taco Restaurant'],"b'\x00\x00\x00\x00\x01\xc0Y\xd9M\xc7""\xa8\xc0@4\xb9IT\xc2\xac\''","{'xmin': -103.39537218460737, 'ymin': 20.72377519371744, 'xmax': -103.39537218460737, 'ymax': 20.72377519371744}",dining and drinking > restaurant > mexican restaurant > taco restaurant,1
52473acc11d27ab52e7a0261,La Fragua,22.14246338884073,-101.0228800499128,,San Luis Potosí,SLP,,,,,MX,2013-09-28,2024-01-03,,444 811 3961,http://www.lafraguasteaktaco.com.mx,,,,,['4bf58dd8d48988d151941735' '4bf58dd8d48988d1c1941735'],"['Dining and Drinking > Restaurant > Mexican Restaurant > Taco Restaurant'
 'Dining and Drinking > Restaurant > Mexican Restaurant']",b'\x00\x00\x00\x00\x01\xc0YAv\xdd\xe2\x86\xce@6$x{\x0b\xf2\xc2',"{'xmin': -101.0228800499128, 'ymin': 22.14246338884073, 'xmax': -101.0228800499128, 'ymax': 22.14246338884073}","dining and drinking > restaurant > mexican restaurant > taco restaurant, dining and drinking > restaurant > mexican restaurant",1
4e54607a45dd5c591f49d471,Pueblo Grande,19.282220113716225,-103.72848960706555,Tercer Anillo Periférico,Colima,COL,,,,,MX,2011-08-24,2020-11-20,,,,,,,,['4bf58dd8d48988d151941735'],['Dining and Drinking > Restaurant > Mexican Restaurant > Taco Restaurant'],b'\x00\x00\x00\x00\x01\xc0Y\xee\x9f\x92\xdft\xa3@3H?\x93\xce\xafA',"{'xmin': -103.72848960706555, 'ymin': 19.282220113716225, 'xmax': -103.72848960706555, 'ymax': 19.282220113716225}",dining and drinking > restaurant > mexican restaurant > taco restaurant,1
50b43901e4b046c09ec75e20,Tacos El Cebollón,21.09708298161261,-101.65193793549436,Blvd Torres Landa,,,,,,,MX,2012-11-27,2021-08-14,,,,,,,,['4bf58dd8d48988d151941735'],['Dining and Drinking > Restaurant > Mexican Restaurant > Taco Restaurant'],"b""\x00\x00\x00\x00\x01\xc0Yi\xb9Y\xe3\xfe\x15@5\x18\xdan'\x06:""","{'xmin': -101.65193793549436, 'ymin': 21.09708298161261, 'xmax': -101.65193793549436, 'ymax': 21.09708298161261}",dining and drinking > restaurant > mexican restaurant > taco restaurant,1
a0b5cd82e1cf4fd7690096ad,Tacos al Vapor - Sucursal 1,20.733906,-103.399692,Avenida Ila Camacho 354,Guadalajara,Jalisco,45147,,,,MX,2013-04-05,2023-12-06,,33 1505 2096,,,,,,['4bf58dd8d48988d151941735'],['Dining and Drinking > Restaurant > Mexican Restaurant > Taco Restaurant'],b'\x00\x00\x00\x00\x01\xc0Y\xd9\x94\x8d\xc1\x1eC@4\xbb\xe1C|V\x93',"{'xmin': -103.399692, 'ymin': 20.733906, 'xmax': -103.399692, 'ymax': 20.733906}",dining and drinking > restaurant > mexican restaurant > taco restaurant,1
52f6f5f2498eb273981afb19,Taquería Los Primos,20.706384827148522,-103.34209873997835,,Guadalajara,,,,,,MX,2014-02-09,2021-08-14,,,,,,,,['4bf58dd8d48988d151941735'],['Dining and Drinking > Restaurant > Mexican Restaurant > Taco Restaurant'],b'\x00\x00\x00\x00\x01\xc0Y\xd5\xe4\xf2\x1d\rn@4\xb4\xd5\xa2\xd2\xfeW',"{'xmin': -103.34209873997835, 'ymin': 20.706384827148522, 'xmax': -103.34209873997835, 'ymax': 20.706384827148522}",dining and drinking > restaurant > mexican restaurant > taco restaurant,1
5b1429b56eda02002c157922,Tacos Hnos. Guerrero,20.940983,-101.262216,,Guanajuato,GTO,36263,,,,MX,2018-06-03,2020-11-22,,,,,,,,['4bf58dd8d48988d151941735'],['Dining and Drinking > Restaurant > Mexican Restaurant > Taco Restaurant'],b'\x00\x00\x00\x00\x01\xc0YP\xc8%\x9e\x1f:@4\xf0\xe4C\x0b\x17\x8b',"{'xmin': -101.262216, 'ymin': 20.940983, 'xmax': -101.262216, 'ymax': 20.940983}",dining and drinking > restaurant > mexican restaurant > taco restaurant,1
4f4479d4e4b0a28181b2e2af,Tacos Los Morales,20.65854912001876,-103.43765757740019,Av. Guadalupe,,,,,,,MX,2012-02-22,2021-08-16,,,,,,,,['4bf58dd8d48988d151941735'],['Dining and Drinking > Restaurant > Mexican Restaurant > Taco Restaurant'],b'\x00\x00\x00\x00\x01\xc0Y\xdc\x02\x94\xedq\xf2@4\xa8\x96\xac\xd5JG',"{'xmin': -103.43765757740019, 'ymin': 20.65854912001876, 'xmax': -103.43765757740019, 'ymax': 20.65854912001876}",dining and drinking > restaurant > mexican restaurant > taco restaurant,1
55286d47498ea4c61d05d846,Los Tacos de Checo,22.143620019015653,-101.02619529011389,,,,,,,,MX,2015-04-11,2021-08-14,,,,,,,,['4bf58dd8d48988d151941735'],['Dining and Drinking > Restaurant > Mexican Restaurant > Taco Restaurant'],b'\x00\x00\x00\x00\x01\xc0YA\xad/\x02\x96L@6$\xc4H\x14\xb9\x1f',"{'xmin': -101.02619529011389, 'ymin': 22.143620019015653, 'xmax': -101.02619529011389, 'ymax': 22.143620019015653}",dining and drinking > restaurant > mexican restaurant > taco restaurant,1
4e481aa9aeb70e74f4aabfb1,"Tacos ""El Dorado""",20.70343148669724,-103.29251312671124,Joaquin Amaro,Guadalajara,Jalisco,,,,,MX,2011-08-14,2023-12-20,,373 699 2255,,,,,,['4bf58dd8d48988d151941735'],['Dining and Drinking > Restaurant > Mexican Restaurant > Taco Restaurant'],b'\x00\x00\x00\x00\x01\xc0Y\xd2\xb8\x88\xfa8\x08@4\xb4\x14\x15\xfeW`',"{'xmin': -103.29251312671124, 'ymin': 20.70343148669724, 'xmax': -103.29251312671124, 'ymax': 20.70343148669724}",dining and drinking > restaurant > mexican restaurant > taco restaurant,1
5456b4b1498ec012db8b5f95,Los Paragüitas,20.67786282025183,-103.372657900295,Bernardo de Balbuena 100,Guadalajara,Jalisco,,,,,MX,2014-11-02,2021-08-11,2019-10-10,,,,,,,['4bf58dd8d48988d151941735'],['Dining and Drinking > Restaurant > Mexican Restaurant > Taco Restaurant'],"b""\x00\x00\x00\x00\x01\xc0Y\xd7\xd9\xa0\x85\x97<@4\xad\x88j\xf4'\xeb""","{'xmin': -103.372657900295, 'ymin': 20.67786282025183, 'xmax': -103.372657900295, 'ymax': 20.67786282025183}",dining and drinking > restaurant > mexican restaurant > taco restaurant,1
640cc97838f5b11d4f2f64c3,Barbacoa El Chilas,20.719087,-103.460907,,Zapopan,JAL,45019,,,,MX,2023-03-11,2023-09-13,,,,,,,,['4bf58dd8d48988d151941735'],['Dining and Drinking > Restaurant > Mexican Restaurant > Taco Restaurant'],b'\x00\x00\x00\x00\x01\xc0Y\xdd\x7f\x80\x12\xdf\xd7@4\xb8\x16\x15\xeb\xfa\x8f',"{'xmin': -103.460907, 'ymin': 20.719087, 'xmax': -103.460907, 'ymax': 20.719087}",dining and drinking > restaurant > mexican restaurant > taco restaurant,1
5249062611d2f26558809d4f,Taqueria Fide,19.235122680664062,-103.73892974853516,Florencio Villareal 532,Colima,,,,,,MX,2013-09-30,2020-11-30,,,,,,,,['4bf58dd8d48988d151941735'],['Dining and Drinking > Restaurant > Mexican Restaurant > Taco Restaurant'],b'\x00\x00\x00\x00\x01\xc0Y\xefJ\xa0\x00\x00\x00@3<1\x00\x00\x00\x00',"{'xmin': -103.73892974853516, 'ymin': 19.235122680664062, 'xmax': -103.73892974853516, 'ymax': 19.235122680664062}",dining and drinking > restaurant > mexican restaurant > taco restaurant,1
4f2588b3e4b06176456ea704,Birria Carrillo,20.639908392157103,-103.31061849256145,Obregón,Tlaquepaque,Jalisco,,,,,MX,2012-01-29,2020-11-24,,,,,,,,['4bf58dd8d48988d151941735'],['Dining and Drinking > Restaurant > Mexican Restaurant > Taco Restaurant'],"b'\x00\x00\x00\x00\x01\xc0Y\xd3\xe1,b\xc5d@4\xa3\xd1\tP\xc0.'","{'xmin': -103.31061849256145, 'ymin': 20.639908392157103, 'xmax': -103.31061849256145, 'ymax': 20.639908392157103}",dining and drinking > restaurant > mexican restaurant > taco restaurant,1
5df3b26006144d00083029fb,Tacos Y Lonches Alex,20.652586,-103.283676,Maria Uribe,Guadalajara,JAL,44820,,,,MX,2019-12-13,2021-08-13,,,,,,,,['4bf58dd8d48988d151941735'],['Dining and Drinking > Restaurant > Mexican Restaurant > Taco Restaurant'],"b""\x00\x00\x00\x00\x01\xc0Y\xd2'\xbfa\xaa?@4\xa7\x0f\xe0G\xd3\xd4""","{'xmin': -103.283676, 'ymin': 20.652586, 'xmax': -103.283676, 'ymax': 20.652586}",dining and drinking > restaurant > mexican restaurant > taco restaurant,1
4ef9f34d469012b8c32590aa,Tacos Y Quesadillas El Galán,21.11970067107558,-101.66302450534202,Polar 106,León,Gto.,,,,,MX,2011-12-27,2020-11-24,,,,,,,,['4bf58dd8d48988d1c1941735' '4bf58dd8d48988d151941735'],"['Dining and Drinking > Restaurant > Mexican Restaurant'
 'Dining and Drinking > Restaurant > Mexican Restaurant > Taco Restaurant']",b'\x00\x00\x00\x00\x01\xc0Yjn\xfeU\xb8\xff@5\x1e\xa4\xb4\x03\x941',"{'xmin': -101.66302450534202, 'ymin': 21.11970067107558, 'xmax': -101.66302450534202, 'ymax': 21.11970067107558}","dining and drinking > restaurant > mexican restaurant, dining and drinking > restaurant > mexican restaurant > taco restaurant",1
527b259911d25b1820fda72f,ponchitos tacos,20.700632636323494,-105.24573398398839,Revolución #286,Las Juntas,jalisco,48291,,,,MX,2013-11-07,2020-11-23,,,,,,,,['4bf58dd8d48988d151941735'],['Dining and Drinking > Restaurant > Mexican Restaurant > Taco Restaurant'],b'\x00\x00\x00\x00\x01\xc0ZO\xba\x1b\x08/\xbd@4\xb3\\\xa9\x13\x85\t',"{'xmin': -105.24573398398839, 'ymin': 20.700632636323494, 'xmax': -105.24573398398839, 'ymax': 20.700632636323494}",dining and drinking > restaurant > mexican restaurant > taco restaurant,1
5376d29d498ed6adca50a0d4,La Valentina Taquería,20.608861115750024,-103.35816755301872,Tierra de Tules 178 B,Tlaquepaque,Jalisco,44990,,,,MX,2014-05-17,2020-11-30,,33 3359 4031,,,,,,['4bf58dd8d48988d151941735'],['Dining and Drinking > Restaurant > Mexican Restaurant > Taco Restaurant'],b'\x00\x00\x00\x00\x01\xc0Y\xd6\xec7\x99\xad\n@4\x9b\xdeRs\xf3\xd2',"{'xmin': -103.35816755301872, 'ymin': 20.608861115750024, 'xmax': -103.35816755301872, 'ymax': 20.608861115750024}",dining and drinking > restaurant > mexican restaurant > taco restaurant,1
51ca5a4a498e0d8ebca13ffe,Tacos Y Carnes Asadas Martin,20.680029,-101.351447,,,,,,,,MX,2013-06-26,2021-08-16,,,,,,,,['4bf58dd8d48988d151941735'],['Dining and Drinking > Restaurant > Mexican Restaurant > Taco Restaurant'],b'\x00\x00\x00\x00\x01\xc0YV~\x1b\x8e\xd1\xbf@4\xae\x16akT\xe3',"{'xmin': -101.351447, 'ymin': 20.680029, 'xmax': -101.351447, 'ymax': 20.680029}",dining and drinking > restaurant > mexican restaurant > taco restaurant,1
4d86a2115ad3a093bd6dfdfd,La Cura Ahogadas,20.485616816903566,-100.9675618090745,latino 110,Cortazar,Guanajuato,,,,,MX,2011-03-21,2023-12-21,,411 100 3421,,,,,,['4bf58dd8d48988d151941735'],['Dining and Drinking > Restaurant > Mexican Restaurant > Taco Restaurant'],b'\x00\x00\x00\x00\x01\xc0Y=\xec\x88]\xb5Y@4|Qb:\xfd\n',"{'xmin': -100.9675618090745, 'ymin': 20.485616816903566, 'xmax': -100.9675618090745, 'ymax': 20.485616816903566}",dining and drinking > restaurant > mexican restaurant > taco restaurant,1
50ee2cd8e4b01c4a880d4f91,Tacos El Becerro,21.146672,-101.658088,,,,,,,,MX,2013-01-10,2021-08-13,,,,,,,,['4bf58dd8d48988d151941735'],['Dining and Drinking > Restaurant > Mexican Restaurant > Taco Restaurant'],b'\x00\x00\x00\x00\x01\xc0Yj\x1e\x1d!x\xf7@5%\x8cK\xd3=)',"{'xmin': -101.658088, 'ymin': 21.146672, 'xmax': -101.658088, 'ymax': 21.146672}",dining and drinking > restaurant > mexican restaurant > taco restaurant,1
51eb60aa498e7efb9f23cd1a,Tacos Chivas,21.132779,-101.667361,,,,,,,,MX,2013-07-21,2021-08-13,,,,,,,,['4bf58dd8d48988d151941735'],['Dining and Drinking > Restaurant > Mexican Restaurant > Taco Restaurant'],b'\x00\x00\x00\x00\x01\xc0Yj\xb6\n\xe9h\x0e@5!\xfd\xcd\xf6\x98x',"{'xmin': -101.667361, 'ymin': 21.132779, 'xmax': -101.667361, 'ymax': 21.132779}",dining and drinking > restaurant > mexican restaurant > taco restaurant,1
54ec05bd498e861e2714eedc,el rinconcito de goya,20.687584720553197,-103.3912478310659,Eulogio Parra,,,,,,,MX,2015-02-24,2021-08-17,,,,,,,,['4bf58dd8d48988d151941735'],['Dining and Drinking > Restaurant > Mexican Restaurant > Taco Restaurant'],b'\x00\x00\x00\x00\x01\xc0Y\xd9\n4W\xc3\xc6@4\xb0\x05\x8d`\x01Z',"{'xmin': -103.3912478310659, 'ymin': 20.687584720553197, 'xmax': -103.3912478310659, 'ymax': 20.687584720553197}",dining and drinking > restaurant > mexican restaurant > taco restaurant,1
5b120e641755620039e6a2fe,Tacos Mugroxi,20.905161,-100.720795,,San Miguel de Allende,GTO,37748,,,,MX,2018-06-02,2020-11-23,,,,,,,,['4bf58dd8d48988d151941735'],['Dining and Drinking > Restaurant > Mexican Restaurant > Taco Restaurant'],b'\x00\x00\x00\x00\x01\xc0Y.!\x81Z\x07\xb3@4\xe7\xb8\xa1\x9c\x9dZ',"{'xmin': -100.720795, 'ymin': 20.905161, 'xmax': -100.720795, 'ymax': 20.905161}",dining and drinking > restaurant > mexican restaurant > taco restaurant,1
51d763f2498e1a112b3cd30d,Tacos FAUSTO,21.5112,-104.8862,zaragoza #250 Col. Centro,Tepic,Nayarit,63000,,,,MX,2013-07-06,2020-11-22,,,,,,,,['4bf58dd8d48988d151941735'],['Dining and Drinking > Restaurant > Mexican Restaurant > Taco Restaurant'],b'\x00\x00\x00\x00\x01\xc0Z8\xb7\x804m\xc6@5\x82\xde\x00\xd1\xb7\x17',"{'xmin': -104.8862, 'ymin': 21.5112, 'xmax': -104.8862, 'ymax': 21.5112}",dining and drinking > restaurant > mexican restaurant > taco restaurant,1
5b82d82e356b49002c9a22b2,Taqueria Diego,20.667194,-100.753096,,Comonfort,GTO,38210,,,,MX,2018-08-26,2020-11-24,,,,,,,,['4bf58dd8d48988d151941735'],['Dining and Drinking > Restaurant > Mexican Restaurant > Taco Restaurant'],b'\x00\x00\x00\x00\x01\xc0Y02\xb9\x90\xaf\xe6@4\xaa\xcd9\xda\x16a',"{'xmin': -100.753096, 'ymin': 20.667194, 'xmax': -100.753096, 'ymax': 20.667194}",dining and drinking > restaurant > mexican restaurant > taco restaurant,1
513628a0e4b0f0a0de059c92,Tacos De La Cueva,20.719166,-103.386502,,,,,,,,MX,2013-03-05,2021-08-14,,,,,,,,['4bf58dd8d48988d151941735'],['Dining and Drinking > Restaurant > Mexican Restaurant > Taco Restaurant'],b'\x00\x00\x00\x00\x01\xc0Y\xd8\xbcr\xe2u\xab@4\xb8\x1bCRe(',"{'xmin': -103.386502, 'ymin': 20.719166, 'xmax': -103.386502, 'ymax': 20.719166}",dining and drinking > restaurant > mexican restaurant > taco restaurant,1
579b768e498e7f917619e5ee,Tacos Patty,20.625296,-103.28745,,,,,,,,MX,2016-07-29,2021-08-16,,,,,,,,['4bf58dd8d48988d151941735'],['Dining and Drinking > Restaurant > Mexican Restaurant > Taco Restaurant'],b'\x00\x00\x00\x00\x01\xc0Y\xd2e\x94\xafO\x0e@4\xa0\x13f\x0eQ\xd2',"{'xmin': -103.28745, 'ymin': 20.625296, 'xmax': -103.28745, 'ymax': 20.625296}",dining and drinking > restaurant > mexican restaurant > taco restaurant,1
51512122e4b07357ffccf2f2,QuesaTacos,19.682266559185873,-101.22416865032035,Leonardo Bravo,Morelia,Michoacán,58190,,,,MX,2013-03-26,2020-11-23,,,,,,,,['4bf58dd8d48988d151941735'],['Dining and Drinking > Restaurant > Mexican Restaurant > Taco Restaurant'],b'\x00\x00\x00\x00\x01\xc0YNX\xc7wz\x85@3\xae\xa9\x05n\xdb\x97',"{'xmin': -101.22416865032035, 'ymin': 19.682266559185873, 'xmax': -101.22416865032035, 'ymax': 19.682266559185873}",dining and drinking > restaurant > mexican restaurant > taco restaurant,1
5047b663e4b00168eaaf524e,Tortas De Pichon,22.153154,-100.978476,,,,,,,,MX,2012-09-05,2021-08-14,,,,,,,,['4bf58dd8d48988d151941735'],['Dining and Drinking > Restaurant > Mexican Restaurant > Taco Restaurant'],"b""\x00\x00\x00\x00\x01\xc0Y>\x9fY\xcc\xfa\xf0@6'5\x19\xbd@h""","{'xmin': -100.978476, 'ymin': 22.153154, 'xmax': -100.978476, 'ymax': 22.153154}",dining and drinking > restaurant > mexican restaurant > taco restaurant,1
4d4a4367f53c8cfaae382147,Tacos El Amigazo Nacho,21.79166426193238,-102.27777598080263,Paseo de La Cruz 604,Aguascalientes,AGS,,,,,MX,2011-02-03,2020-11-17,,,,,,,,['4bf58dd8d48988d1cb941735' '4bf58dd8d48988d151941735'],"['Dining and Drinking > Food Truck'
 'Dining and Drinking > Restaurant > Mexican Restaurant > Taco Restaurant']",b'\x00\x00\x00\x00\x01\xc0Y\x91\xc7\x14\xe8JX@5\xca\xaa\x82Ri[',"{'xmin': -102.27777598080263, 'ymin': 21.79166426193238, 'xmax': -102.27777598080263, 'ymax': 21.79166426193238}","dining and drinking > food truck, dining and drinking > restaurant > mexican restaurant > taco restaurant",1
4fcbae61e4b0ac2447d6a0cb,"""Los Güero's"" Carnitas y Pollos",21.044138678897912,-101.56493722864559,Carr. a Santa Ana del Conde,León,Guanajuato,,,,,MX,2012-06-03,2020-11-30,,,,,,,,['4bf58dd8d48988d1c1941735' '4bf58dd8d48988d151941735'],"['Dining and Drinking > Restaurant > Mexican Restaurant'
 'Dining and Drinking > Restaurant > Mexican Restaurant > Taco Restaurant']","b""\x00\x00\x00\x00\x01\xc0Yd'\xeezT\xd8@5\x0bL\xac&Z\xed""","{'xmin': -101.56493722864559, 'ymin': 21.044138678897912, 'xmax': -101.56493722864559, 'ymax': 21.044138678897912}","dining and drinking > restaurant > mexican restaurant, dining and drinking > restaurant > mexican restaurant > taco restaurant",1
572ee2e6498eea62670ce492,Taqueria al Pastor,20.633524,-103.386738,Isla Raza 2239,,,,,,,MX,2016-05-08,2021-08-11,,,,,,,,['4bf58dd8d48988d151941735'],['Dining and Drinking > Restaurant > Mexican Restaurant > Taco Restaurant'],b'\x00\x00\x00\x00\x01\xc0Y\xd8\xc0P\xbd\x87\xb5@4\xa2.\xa0\xfd;*',"{'xmin': -103.386738, 'ymin': 20.633524, 'xmax': -103.386738, 'ymax': 20.633524}",dining and drinking > restaurant > mexican restaurant > taco restaurant,1
4bde39eae75c0f473967c703,Tacos Toño,21.879580577549483,-102.30996217019063,Talamantes 509,Aguascalientes,AGS,,,,,MX,2010-05-03,2023-12-21,,449 191 2699,,,,,,['4bf58dd8d48988d151941735' '4bf58dd8d48988d1cb941735'],"['Dining and Drinking > Restaurant > Mexican Restaurant > Taco Restaurant'
 'Dining and Drinking > Food Truck']","b'\x00\x00\x00\x00\x01\xc0Y\x93\xd6k\x91\xfd\xd2@5\xe1,1V\xc5\x96'","{'xmin': -102.30996217019063, 'ymin': 21.879580577549483, 'xmax': -102.30996217019063, 'ymax': 21.879580577549483}","dining and drinking > restaurant > mexican restaurant > taco restaurant, dining and drinking > food truck",1
4d14c2f8e190721efbf00921,"Tacos al vapor ""El Güero""",20.57112574967293,-101.19937103959255,Guadalupe Victoria,Salamanca,Guanajuato,36700,,,,MX,2010-12-24,2020-11-30,,,,,,,,['4bf58dd8d48988d1cb941735' '4bf58dd8d48988d151941735'],"['Dining and Drinking > Food Truck'
 'Dining and Drinking > Restaurant > Mexican Restaurant > Taco Restaurant']",b'\x00\x00\x00\x00\x01\xc0YL\xc2~\xbf\xb4s@4\x925L\x10\xbf\xac',"{'xmin': -101.19937103959255, 'ymin': 20.57112574967293, 'xmax': -101.19937103959255, 'ymax': 20.57112574967293}","dining and drinking > food truck, dining and drinking > restaurant > mexican restaurant > taco restaurant",1
50ebb1bee4b0c95e433bed51,Tacos El Bigotes,21.523897751597996,-102.2274994356607,,,,,,,,MX,2013-01-08,2021-08-15,,,,,,,,['4bf58dd8d48988d151941735'],['Dining and Drinking > Restaurant > Mexican Restaurant > Taco Restaurant'],b'\x00\x00\x00\x00\x01\xc0Y\x8e\x8fY\xcb\x01[@5\x86\x1e)\xbd\x8f\xb3',"{'xmin': -102.2274994356607, 'ymin': 21.523897751597996, 'xmax': -102.2274994356607, 'ymax': 21.523897751597996}",dining and drinking > restaurant > mexican restaurant > taco restaurant,1
52def109498ed8a3d41daa41,Taquería El Perico de Apatzingan,19.682513648236895,-101.1811332512053,,,,,,,,MX,2014-01-21,2021-08-12,,,,,,,,['4bf58dd8d48988d151941735'],['Dining and Drinking > Restaurant > Mexican Restaurant > Taco Restaurant'],b'\x00\x00\x00\x00\x01\xc0YK\x97\xaf\xeb\x89F@3\xae\xb96\xe6@I',"{'xmin': -101.1811332512053, 'ymin': 19.682513648236895, 'xmax': -101.1811332512053, 'ymax': 19.682513648236895}",dining and drinking > restaurant > mexican restaurant > taco restaurant,1
5f54678410e74b2b1fc7af6e,La Ache,21.101749,-101.672298,1101 Calle Río Escondido,León,GTO,37480,,,,MX,2020-09-06,2020-11-26,,,,,,,,['4bf58dd8d48988d151941735'],['Dining and Drinking > Restaurant > Mexican Restaurant > Taco Restaurant'],b'\x00\x00\x00\x00\x01\xc0Yk\x06\xee0\xca\xa3@5\x1a\x0c8\xf3f\x95',"{'xmin': -101.672298, 'ymin': 21.101749, 'xmax': -101.672298, 'ymax': 21.101749}",dining and drinking > restaurant > mexican restaurant > taco restaurant,1
515fa913e4b0eb9b22717f8c,Los Huaraches,21.02901840209961,-102.40815734863281,,,,,,,,MX,2013-04-06,2021-08-13,,,,,,,,['4bf58dd8d48988d151941735'],['Dining and Drinking > Restaurant > Mexican Restaurant > Taco Restaurant'],b'\x00\x00\x00\x00\x01\xc0Y\x9a\x1f@\x00\x00\x00@5\x07m\xc0\x00\x00\x00',"{'xmin': -102.40815734863281, 'ymin': 21.02901840209961, 'xmax': -102.40815734863281, 'ymax': 21.02901840209961}",dining and drinking > restaurant > mexican restaurant > taco restaurant,1
50425ccbe4b01c1809b37bf7,"Taqueri ""Los Sangrones""",20.754035935390537,-103.4425380537085,,,,,,,,MX,2012-09-01,2021-08-14,,,,,,,,['4bf58dd8d48988d151941735'],['Dining and Drinking > Restaurant > Mexican Restaurant > Taco Restaurant'],b'\x00\x00\x00\x00\x01\xc0Y\xdcR\x8b \xfaw@4\xc1\x08\x7f\xc2\x82\xd9',"{'xmin': -103.4425380537085, 'ymin': 20.754035935390537, 'xmax': -103.4425380537085, 'ymax': 20.754035935390537}",dining and drinking > restaurant > mexican restaurant > taco restaurant,1
427c7ebb7ede48faa9a1fc31,Vic Taco,20.681441,-102.194154,Sn Ignacio 21,Santiago de Querétaro,Querétaro,,,,,MX,2014-11-13,2023-12-06,,442 216 1192,,,,,,['4bf58dd8d48988d151941735'],['Dining and Drinking > Restaurant > Mexican Restaurant > Taco Restaurant'],"b""\x00\x00\x00\x00\x01\xc0Y\x8cm\x04\xe6\x18\xce@4\xaer\xea\xd9'N""","{'xmin': -102.194154, 'ymin': 20.681441, 'xmax': -102.194154, 'ymax': 20.681441}",dining and drinking > restaurant > mexican restaurant > taco restaurant,1
50534c10e4b07f063977e0be,Tacos Don George,20.623659,-103.327175,,,,,,,,MX,2012-09-14,2021-08-11,,,,,,,,['4bf58dd8d48988d151941735'],['Dining and Drinking > Restaurant > Mexican Restaurant > Taco Restaurant'],"b""\x00\x00\x00\x00\x01\xc0Y\xd4\xf0oiDg@4\x9f\xa8\x1d\xc0\xdb'""","{'xmin': -103.327175, 'ymin': 20.623659, 'xmax': -103.327175, 'ymax': 20.623659}",dining and drinking > restaurant > mexican restaurant > taco restaurant,1
50832445e4b05e9134ffcaa1,Carnes Asadas Moy,19.884262,-103.600104,,,,,,,,MX,2012-10-20,2021-08-15,,,,,,,,['4bf58dd8d48988d151941735'],['Dining and Drinking > Restaurant > Mexican Restaurant > Taco Restaurant'],b'\x00\x00\x00\x00\x01\xc0Y\xe6h\x1a\x9b\x8c\xb9@3\xe2^\xfe\x93\x18v',"{'xmin': -103.600104, 'ymin': 19.884262, 'xmax': -103.600104, 'ymax': 19.884262}",dining and drinking > restaurant > mexican restaurant > taco restaurant,1
5d33bfc155ea5b000869b890,Taqueria La Más Querida,20.73177,-103.38544,,Zapopan,Jalisco,,,,,MX,2019-07-21,2020-11-25,,,,,,,,['4bf58dd8d48988d151941735'],['Dining and Drinking > Restaurant > Mexican Restaurant > Taco Restaurant'],b'\x00\x00\x00\x00\x01\xc0Y\xd8\xab\x0c\x88\xa4\x7f@4\xbbUGZ1\xa5',"{'xmin': -103.38544, 'ymin': 20.73177, 'xmax': -103.38544, 'ymax': 20.73177}",dining and drinking > restaurant > mexican restaurant > taco restaurant,1
5aa9e427b5461808481c601c,Tacos Rojos Doña Cuca,22.150923,-100.97245,Alameda,San Luis Potosí,S.L.P.,78000,,,,MX,2018-03-15,2020-11-23,,,,,,,,['4bf58dd8d48988d151941735'],['Dining and Drinking > Restaurant > Mexican Restaurant > Taco Restaurant'],b'\x00\x00\x00\x00\x01\xc0Y><\x9e\xec\xbf\xb1@6&\xa2\xe3\xc56\xd6',"{'xmin': -100.97245, 'ymin': 22.150923, 'xmax': -100.97245, 'ymax': 22.150923}",dining and drinking > restaurant > mexican restaurant > taco restaurant,1
4d4388ec7e2e5481430d578f,Majayote Tacos Salads & Grill,20.621144,-105.229061,,,,,,,,MX,2011-01-29,2021-08-14,,,,,,,,"['4bf58dd8d48988d151941735' '4bf58dd8d48988d1cc941735'
 '4bf58dd8d48988d1bd941735']","['Dining and Drinking > Restaurant > Mexican Restaurant > Taco Restaurant'
 'Dining and Drinking > Restaurant > Steakhouse'
 'Dining and Drinking > Restaurant > Salad Restaurant']",b'\x00\x00\x00\x00\x01\xc0ZN\xa8\xefw\xf2\x80@4\x9f\x03K\x0e\x1bL',"{'xmin': -105.229061, 'ymin': 20.621144, 'xmax': -105.229061, 'ymax': 20.621144}","dining and drinking > restaurant > mexican restaurant > taco restaurant, dining and drinking > restaurant > steakhouse, dining and drinking > restaurant > salad restaurant",1
4fc57af6e4b090c5c6ee764a,Tacos El Muchachon,20.731051657305702,-103.36748602586816,,,,,,,,MX,2012-05-30,2023-12-21,,373 672 1626,,,,,,['4bf58dd8d48988d151941735'],['Dining and Drinking > Restaurant > Mexican Restaurant > Taco Restaurant'],b'\x00\x00\x00\x00\x01\xc0Y\xd7\x84\xe4\x1b\xb5\xcf@4\xbb&3\x8f\xd0\x89',"{'xmin': -103.36748602586816, 'ymin': 20.731051657305702, 'xmax': -103.36748602586816, 'ymax': 20.731051657305702}",dining and drinking > restaurant > mexican restaurant > taco restaurant,1
58c36a76fb9d896ae4066750,Tacos Las Trancas,21.02873,-101.858345,,San Francisco del Rincón,Guanajuato,36300,,,,MX,2017-03-11,2020-11-30,,,,,,,,['4bf58dd8d48988d151941735'],['Dining and Drinking > Restaurant > Mexican Restaurant > Taco Restaurant'],b'\x00\x00\x00\x00\x01\xc0Yv\xef\x1f\xdd\xeb\xd9@5\x07Z\xd9jj\x01',"{'xmin': -101.858345, 'ymin': 21.02873, 'xmax': -101.858345, 'ymax': 21.02873}",dining and drinking > restaurant > mexican restaurant > taco restaurant,1
59974d9e83e38014d8d8ceda,Barbakoa & Chamelita Fish,20.68464,-103.357172,Juan Alvarez #950,Guadalajara,JAL,44200,,,,MX,2017-08-18,2021-08-15,,,,,,,,['4bf58dd8d48988d151941735'],['Dining and Drinking > Restaurant > Mexican Restaurant > Taco Restaurant'],b'\x00\x00\x00\x00\x01\xc0Y\xd6\xdb\xe7\xf2\xc3\x01@4\xafD\x91)\x88\x90',"{'xmin': -103.357172, 'ymin': 20.68464, 'xmax': -103.357172, 'ymax': 20.68464}",dining and drinking > restaurant > mexican restaurant > taco restaurant,1
5259eab311d2cf38fd755d6a,tacos al vapor Sra Hilda,20.725719451904297,-103.38092803955078,,,,,,,,MX,2013-10-13,2021-08-13,,,,,,,,['4bf58dd8d48988d151941735'],['Dining and Drinking > Restaurant > Mexican Restaurant > Taco Restaurant'],b'\x00\x00\x00\x00\x01\xc0Y\xd8a \x00\x00\x00@4\xb9\xc8\xc0\x00\x00\x00',"{'xmin': -103.38092803955078, 'ymin': 20.725719451904297, 'xmax': -103.38092803955078, 'ymax': 20.725719451904297}",dining and drinking > restaurant > mexican restaurant > taco restaurant,1
60858b0516e6540d9a06cbf9,"Molcajete - Asada, Costras Y Más",19.686034,-101.325076,,Morelia,MICH,58330,,,,MX,2021-04-25,2021-04-25,,,,,,,,['4bf58dd8d48988d151941735'],['Dining and Drinking > Restaurant > Mexican Restaurant > Taco Restaurant'],b'\x00\x00\x00\x00\x01\xc0YT\xce\x0b\x91-\xba@3\xaf\x9f\xec\x99\xf1\xae',"{'xmin': -101.325076, 'ymin': 19.686034, 'xmax': -101.325076, 'ymax': 19.686034}",dining and drinking > restaurant > mexican restaurant > taco restaurant,1
50105bc6e4b0dbaf8fc48d4c,Tacos San Miguel,20.734023,-103.35089,,,,,,,,MX,2012-07-25,2021-08-11,,,,,,,,['4bf58dd8d48988d151941735'],['Dining and Drinking > Restaurant > Mexican Restaurant > Taco Restaurant'],b'\x00\x00\x00\x00\x01\xc0Y\xd6t\xfbT\x9f\x95@4\xbb\xe8\xeek\x83\x06',"{'xmin': -103.35089, 'ymin': 20.734023, 'xmax': -103.35089, 'ymax': 20.734023}",dining and drinking > restaurant > mexican restaurant > taco restaurant,1
65230ba173f52a7b4f275878,Los Compios,20.568743,-103.451805,,Los Gavilanes,Jalisco,45640,,,,MX,2023-10-08,2023-10-08,,,,,,,,['4bf58dd8d48988d151941735'],['Dining and Drinking > Restaurant > Mexican Restaurant > Taco Restaurant'],b'\x00\x00\x00\x00\x01\xc0Y\xdc\xea_\x84\xca\xd5@4\x91\x99$(\xd45',"{'xmin': -103.451805, 'ymin': 20.568743, 'xmax': -103.451805, 'ymax': 20.568743}",dining and drinking > restaurant > mexican restaurant > taco restaurant,1
59d6db93a0215b5780375422,Tacos Embajadoras,21.010685,-101.249763,,Guanajuato,GTO,36001,,,,MX,2017-10-06,2020-11-23,,,,,,,,['4bf58dd8d48988d151941735'],['Dining and Drinking > Restaurant > Mexican Restaurant > Taco Restaurant'],b'\x00\x00\x00\x00\x01\xc0YO\xfc\x1d\xf30\x0e@5\x02\xbc@\x8d\x8e\xc9',"{'xmin': -101.249763, 'ymin': 21.010685, 'xmax': -101.249763, 'ymax': 21.010685}",dining and drinking > restaurant > mexican restaurant > taco restaurant,1
565deaa4498e1e36a7ad8129,La Barbacha,20.618769474456244,-103.4227057339283,,,,,,,,MX,2015-12-01,2021-08-16,,,,,,,,['4bf58dd8d48988d151941735'],['Dining and Drinking > Restaurant > Mexican Restaurant > Taco Restaurant'],b'\x00\x00\x00\x00\x01\xc0Y\xdb\r\x9cY\xc3p@4\x9eg\xad \x8d|',"{'xmin': -103.4227057339283, 'ymin': 20.618769474456244, 'xmax': -103.4227057339283, 'ymax': 20.618769474456244}",dining and drinking > restaurant > mexican restaurant > taco restaurant,1
4db0f581fa8ca4b3e9ee1f79,Taqueria Taguion Ayutla,21.117892020663998,-101.66830402428488,,,,,,,,MX,2011-04-22,2021-08-11,,,,,,,,['4bf58dd8d48988d151941735'],['Dining and Drinking > Restaurant > Mexican Restaurant > Taco Restaurant'],b'\x00\x00\x00\x00\x01\xc0Yj\xc5~>\x05\xae@5\x1e.+\xe56\x13',"{'xmin': -101.66830402428488, 'ymin': 21.117892020663998, 'xmax': -101.66830402428488, 'ymax': 21.117892020663998}",dining and drinking > restaurant > mexican restaurant > taco restaurant,1
4f9ce7a3e4b0e5be401af2a8,The Good Taco,20.610811,-105.234258,,,,,,,,MX,2012-04-29,2021-08-14,,,,,,,,['4bf58dd8d48988d151941735'],['Dining and Drinking > Restaurant > Mexican Restaurant > Taco Restaurant'],b'\x00\x00\x00\x00\x01\xc0ZN\xfe\x15D4\xe3@4\x9c^\x1c\x15\t}',"{'xmin': -105.234258, 'ymin': 20.610811, 'xmax': -105.234258, 'ymax': 20.610811}",dining and drinking > restaurant > mexican restaurant > taco restaurant,1
557641db498edb3ccb16c04c,La Texana,19.261202861764776,-103.70575781870855,,,,,,,,MX,2015-06-09,2021-08-15,,,,,,,,['4bf58dd8d48988d151941735'],['Dining and Drinking > Restaurant > Mexican Restaurant > Taco Restaurant'],"b'\x00\x00\x00\x00\x01\xc0Y\xed+""\xd7\x8f\xf8@3B\xde0\xd4\xe6\xbd'","{'xmin': -103.70575781870855, 'ymin': 19.261202861764776, 'xmax': -103.70575781870855, 'ymax': 19.261202861764776}",dining and drinking > restaurant > mexican restaurant > taco restaurant,1
572ac8b6498ef728a0d9239c,Tacos El Arandense,21.114677,-101.68208,,,,,,,,MX,2016-05-05,2021-08-14,,,,,,,,['4bf58dd8d48988d151941735'],['Dining and Drinking > Restaurant > Mexican Restaurant > Taco Restaurant'],b'\x00\x00\x00\x00\x01\xc0Yk\xa72\xdfP]@5\x1d[x\xcc\x9ax',"{'xmin': -101.68208, 'ymin': 21.114677, 'xmax': -101.68208, 'ymax': 21.114677}",dining and drinking > restaurant > mexican restaurant > taco restaurant,1
4e7c90e5483b7168dfdd47bd,Quesadillas UNIVA,20.656484615829733,-103.41551064409441,,,,,,,,MX,2011-09-23,2021-08-11,,,,,,,,['4bf58dd8d48988d151941735' '4bf58dd8d48988d1c1941735'],"['Dining and Drinking > Restaurant > Mexican Restaurant > Taco Restaurant'
 'Dining and Drinking > Restaurant > Mexican Restaurant']",b'\x00\x00\x00\x00\x01\xc0Y\xda\x97\xb9\xf4\xe1\xa0@4\xa8\x0f`3P\xda',"{'xmin': -103.41551064409441, 'ymin': 20.656484615829733, 'xmax': -103.41551064409441, 'ymax': 20.656484615829733}","dining and drinking > restaurant > mexican restaurant > taco restaurant, dining and drinking > restaurant > mexican restaurant",1
52b0d6a7498e10a178b9075c,Tacos del primo,19.693464279174805,-101.1756820678711,,,,,,,,MX,2013-12-17,2021-08-14,2014-05-25,,,,,,,['4bf58dd8d48988d151941735'],['Dining and Drinking > Restaurant > Mexican Restaurant > Taco Restaurant'],b'\x00\x00\x00\x00\x01\xc0YK>`\x00\x00\x00@3\xb1\x86\xe0\x00\x00\x00',"{'xmin': -101.1756820678711, 'ymin': 19.693464279174805, 'xmax': -101.1756820678711, 'ymax': 19.693464279174805}",dining and drinking > restaurant > mexican restaurant > taco restaurant,1
4cd22401f6378cfa9827c0d6,Las Mentadas,19.273969871834964,-103.7340389048242,,,,,,,,MX,2010-11-04,2021-08-17,,,,,,,,['4bf58dd8d48988d151941735'],['Dining and Drinking > Restaurant > Mexican Restaurant > Taco Restaurant'],"b'\x00\x00\x00\x00\x01\xc0Y\xee\xfa~P\x8d\x8b@3F""\xe3\xb7\x9e\xd8'","{'xmin': -103.7340389048242, 'ymin': 19.273969871834964, 'xmax': -103.7340389048242, 'ymax': 19.273969871834964}",dining and drinking > restaurant > mexican restaurant > taco restaurant,1
4e85df75b634ae3cdbbd7150,Tacos de Carnitas El Chaparro,20.632647975011547,-105.22603727609714,Berlin esq Francisco Villa,Puerto Vallarta,Jalisco,48310,,,,MX,2011-09-30,2020-11-26,,,,,,,,['4bf58dd8d48988d151941735'],['Dining and Drinking > Restaurant > Mexican Restaurant > Taco Restaurant'],b'\x00\x00\x00\x00\x01\xc0ZNwe\r \xe8@4\xa1\xf57\xba\x8e#',"{'xmin': -105.22603727609714, 'ymin': 20.632647975011547, 'xmax': -105.22603727609714, 'ymax': 20.632647975011547}",dining and drinking > restaurant > mexican restaurant > taco restaurant,1
4d201e9e2eb1f04de7acedc1,Los Reyes Del Taco,21.105993619049965,-101.66732883391347,González Bocanegra,León,GTO,,,,,MX,2011-01-02,2023-12-21,,477 139 3903,,,,,,['4bf58dd8d48988d151941735'],['Dining and Drinking > Restaurant > Mexican Restaurant > Taco Restaurant'],"b'\x00\x00\x00\x00\x01\xc0Yj\xb5\x83\xffU\x84@5\x1b""e\xd7g\x7f'","{'xmin': -101.66732883391347, 'ymin': 21.105993619049965, 'xmax': -101.66732883391347, 'ymax': 21.105993619049965}",dining and drinking > restaurant > mexican restaurant > taco restaurant,1
60fc9c92a5281a692024a0cb,La Taquería,21.90934,-102.32878,,Pocitos,Aguascalientes,20328,,,,MX,2021-07-24,2022-04-22,,,,,,,,['4bf58dd8d48988d151941735'],['Dining and Drinking > Restaurant > Mexican Restaurant > Taco Restaurant'],b'\x00\x00\x00\x00\x01\xc0Y\x95\n\xbbD\xe5\x0c@5\xe8\xca\x81\x98\xf1\xd4',"{'xmin': -102.32878, 'ymin': 21.90934, 'xmax': -102.32878, 'ymax': 21.90934}",dining and drinking > restaurant > mexican restaurant > taco restaurant,1
52a9257f11d2829bb1d4e1e0,Tacos de Tazmania,20.727634528234937,-103.39070056023127,La Villa Esquina Sn,Zapópan,Jalisco,45100,,,,MX,2013-12-12,2021-08-16,,,,,,,,['4bf58dd8d48988d151941735'],['Dining and Drinking > Restaurant > Mexican Restaurant > Taco Restaurant'],b'\x00\x00\x00\x00\x01\xc0Y\xd9\x01<\xec.8@4\xbaFA\xa65\x9e',"{'xmin': -103.39070056023127, 'ymin': 20.727634528234937, 'xmax': -103.39070056023127, 'ymax': 20.727634528234937}",dining and drinking > restaurant > mexican restaurant > taco restaurant,1
4f5cd4e1e4b04fe10f133403,Birria Los Angeles,21.131009775422413,-101.64532545923966,Blvd. Francisco Villa,León,Guanajuato,,,,,MX,2012-03-11,2020-11-24,,,,,,,,['4bf58dd8d48988d151941735'],['Dining and Drinking > Restaurant > Mexican Restaurant > Taco Restaurant'],"b""\x00\x00\x00\x00\x01\xc0YiM\x03'\xady@5!\x89\xdbL\xe5D""","{'xmin': -101.64532545923966, 'ymin': 21.131009775422413, 'xmax': -101.64532545923966, 'ymax': 21.131009775422413}",dining and drinking > restaurant > mexican restaurant > taco restaurant,1
4fd76b3ee4b07c890639bd8d,"Gorditas ""Doña Ofe""",21.867718193663453,-102.31289420022053,,,,,,,,MX,2012-06-12,2021-08-17,,,,,,,,['4bf58dd8d48988d151941735'],['Dining and Drinking > Restaurant > Mexican Restaurant > Taco Restaurant'],"b'\x00\x00\x00\x00\x01\xc0Y\x94\x06ueC\x89@5\xde""\xc7\x8f\xed\xc1'","{'xmin': -102.31289420022053, 'ymin': 21.867718193663453, 'xmax': -102.31289420022053, 'ymax': 21.867718193663453}",dining and drinking > restaurant > mexican restaurant > taco restaurant,1
4d443577befe236a0f3df2e2,Los Weros Barbacoa,20.659209796731055,-103.4129902356813,,Zapopan,,,,,,MX,2011-01-29,2020-11-26,,,,,,,,['4bf58dd8d48988d151941735'],['Dining and Drinking > Restaurant > Mexican Restaurant > Taco Restaurant'],b'\x00\x00\x00\x00\x01\xc0Y\xdann\x98\xf4c@4\xa8\xc1\xf9&)\xa6',"{'xmin': -103.4129902356813, 'ymin': 20.659209796731055, 'xmax': -103.4129902356813, 'ymax': 20.659209796731055}",dining and drinking > restaurant > mexican restaurant > taco restaurant,1
53b4b84b498e8b9d6600c1fd,Tacos El Tejao,20.65840946988639,-101.3521780519448,,,,,,,,MX,2014-07-03,2021-08-12,,,,,,,,['4bf58dd8d48988d151941735'],['Dining and Drinking > Restaurant > Mexican Restaurant > Taco Restaurant'],b'\x00\x00\x00\x00\x01\xc0YV\x8a\x15\xcf\xde4@4\xa8\x8d\x85\xe4\x89\xeb',"{'xmin': -101.3521780519448, 'ymin': 20.65840946988639, 'xmax': -101.3521780519448, 'ymax': 20.65840946988639}",dining and drinking > restaurant > mexican restaurant > taco restaurant,1
65c1806cdb9be44bac29cede,Tacos La Purisima,21.882208,-102.28387,,Aguascalientes,Aguascalientes,20259,,,,MX,2024-02-06,2024-02-06,,,,,,,,['4bf58dd8d48988d151941735'],['Dining and Drinking > Restaurant > Mexican Restaurant > Taco Restaurant'],"b'\x00\x00\x00\x00\x01\xc0Y\x92*\xed\x13\x941@5\xe1\xd8b,E\x02'","{'xmin': -102.28387, 'ymin': 21.882208, 'xmax': -102.28387, 'ymax': 21.882208}",dining and drinking > restaurant > mexican restaurant > taco restaurant,1
4c6be8776d390f476cb30b9a,Quesadillas San Cristobal,20.979687061908177,-101.70174193824546,Carretera Leon Cueramaro km 13,San Francisco del Rincon,Gt,36440,,,,MX,2010-08-18,2020-11-22,,,,,,,,['4bf58dd8d48988d151941735'],['Dining and Drinking > Restaurant > Mexican Restaurant > Taco Restaurant'],b'\x00\x00\x00\x00\x01\xc0Yl\xe9W\x04\xbf\xbd@4\xfa\xcc\xc5s5\xbf',"{'xmin': -101.70174193824546, 'ymin': 20.979687061908177, 'xmax': -101.70174193824546, 'ymax': 20.979687061908177}",dining and drinking > restaurant > mexican restaurant > taco restaurant,1
65e38d8d6eecea12494b165d,Tacos De Cabeza Doan,19.133068,-104.34262,Avenida de las Rosas,Manzanillo,Colima,28864,,,,MX,2024-03-02,2024-03-02,,,,,,,,['4bf58dd8d48988d151941735'],['Dining and Drinking > Restaurant > Mexican Restaurant > Taco Restaurant'],"b'\x00\x00\x00\x00\x01\xc0Z\x15\xed|o\xbd\'@3""\x10\xbe\x94$\xe6'","{'xmin': -104.34262, 'ymin': 19.133068, 'xmax': -104.34262, 'ymax': 19.133068}",dining and drinking > restaurant > mexican restaurant > taco restaurant,1
5021a53de4b02b10e01bb1d1,Tacos El Negro,20.73447427017409,-103.34072827542379,Gelatao,,,,,,,MX,2012-08-07,2021-08-16,,,,,,,,['4bf58dd8d48988d151941735'],['Dining and Drinking > Restaurant > Mexican Restaurant > Taco Restaurant'],b'\x00\x00\x00\x00\x01\xc0Y\xd5\xce}\xf7\xf1!@4\xbc\x06\x81z&\xb4',"{'xmin': -103.34072827542379, 'ymin': 20.73447427017409, 'xmax': -103.34072827542379, 'ymax': 20.73447427017409}",dining and drinking > restaurant > mexican restaurant > taco restaurant,1
5b02fd64419a9e002cc9ea1e,Tacos Max,20.75346,-101.334282,Camino al Tecnológico ITESI,Irapuato,GTO,36824,,,,MX,2018-05-21,2020-11-23,,,,,,,,['4bf58dd8d48988d151941735'],['Dining and Drinking > Restaurant > Mexican Restaurant > Taco Restaurant'],b'\x00\x00\x00\x00\x01\xc0YUd\xe0Ti\x0e@4\xc0\xe2\xc1*\xd8\x1b',"{'xmin': -101.334282, 'ymin': 20.75346, 'xmax': -101.334282, 'ymax': 20.75346}",dining and drinking > restaurant > mexican restaurant > taco restaurant,1
5288f6ae11d2f357edebb639,La Casa de Lolita,19.143930010328752,-96.12305339554179,Alejandro Molina 8,Boca Del Río,,,,,,MX,2013-11-17,2020-11-23,,,,,,,,['4bf58dd8d48988d151941735'],['Dining and Drinking > Restaurant > Mexican Restaurant > Taco Restaurant'],b'\x00\x00\x00\x00\x01\xc0X\x07\xe0\x1bY`\xe1@3$\xd8\x98\xdfFb',"{'xmin': -96.12305339554179, 'ymin': 19.143930010328752, 'xmax': -96.12305339554179, 'ymax': 19.143930010328752}",dining and drinking > restaurant > mexican restaurant > taco restaurant,1
56c33cddcd104fc3674f00c2,Tacos al Vapor Las Vías,20.553678,-103.360043,,,,,,,,MX,2016-02-16,2020-11-24,,,,,,,,['4bf58dd8d48988d151941735'],['Dining and Drinking > Restaurant > Mexican Restaurant > Taco Restaurant'],b'\x00\x00\x00\x00\x01\xc0Y\xd7\n\xf1\xcb\x89\xd7@4\x8d\xbd\xd7f\x83\xc3',"{'xmin': -103.360043, 'ymin': 20.553678, 'xmax': -103.360043, 'ymax': 20.553678}",dining and drinking > restaurant > mexican restaurant > taco restaurant,1
5698733d498e3255b9373a00,Taco Tako,18.343954,-99.548296,,,,,,,,MX,2016-01-15,2021-08-16,,,,,,,,['4bf58dd8d48988d151941735'],['Dining and Drinking > Restaurant > Mexican Restaurant > Taco Restaurant'],b'\x00\x00\x00\x00\x01\xc0X\xe3\x17H\x1b!\xc4@2X\r^\x8dT\x11',"{'xmin': -99.548296, 'ymin': 18.343954, 'xmax': -99.548296, 'ymax': 18.343954}",dining and drinking > restaurant > mexican restaurant > taco restaurant,1
4e31b960d164fd324ab82170,El Rey Del Pollo,19.286541,-99.221163,,Ciudad de México,Distrito Federal,,,,,MX,2011-07-28,2020-11-23,,,,,,,,['4bf58dd8d48988d151941735'],['Dining and Drinking > Restaurant > Mexican Restaurant > Taco Restaurant'],"b""\x00\x00\x00\x00\x01\xc0X\xce'\x88\xdb\x05u@3IZ\xc0?\xf6\x90""","{'xmin': -99.221163, 'ymin': 19.286541, 'xmax': -99.221163, 'ymax': 19.286541}",dining and drinking > restaurant > mexican restaurant > taco restaurant,1
4fbfb2f0e4b0b469de21f4c8,Gran Taco II,19.705299,-101.22503,,,,,,,,MX,2012-05-25,2021-08-11,,,,,,,,['4bf58dd8d48988d151941735'],['Dining and Drinking > Restaurant > Mexican Restaurant > Taco Restaurant'],b'\x00\x00\x00\x00\x01\xc0YNf\xe4:\xa7\x9c@3\xb4\x8ey\xaa\xe6\xc9',"{'xmin': -101.22503, 'ymin': 19.705299, 'xmax': -101.22503, 'ymax': 19.705299}",dining and drinking > restaurant > mexican restaurant > taco restaurant,1
547bb91a498e3f57700bc960,"tacos ""Doña Toña""",19.250745,-99.06008,,,,,,,,MX,2014-12-01,2021-08-13,,,,,,,,['4bf58dd8d48988d151941735'],['Dining and Drinking > Restaurant > Mexican Restaurant > Taco Restaurant'],b'\x00\x00\x00\x00\x01\xc0X\xc3\xd8Y\xc8\xc92@3@0\xd3\x06\xa2\xb1',"{'xmin': -99.06008, 'ymin': 19.250745, 'xmax': -99.06008, 'ymax': 19.250745}",dining and drinking > restaurant > mexican restaurant > taco restaurant,1
5bcc9de1780eee002b06ccee,Barbacoa,17.190686,-96.771579,Calle Unión,San Agustín Etla,OAX,68247,,,,MX,2018-10-21,2020-11-25,,,,,,,,['4bf58dd8d48988d151941735'],['Dining and Drinking > Restaurant > Mexican Restaurant > Taco Restaurant'],b'\x00\x00\x00\x00\x01\xc0X1a\x8c\xe2\xd1\xf2@10\xd0\xcc5\xce\x18',"{'xmin': -96.771579, 'ymin': 17.190686, 'xmax': -96.771579, 'ymax': 17.190686}",dining and drinking > restaurant > mexican restaurant > taco restaurant,1
5605636a498ee7b98104bfe9,Taqueria echale mi Chuy,20.541286512057287,-103.36202008346143,,,,,,,,MX,2015-09-25,2020-11-23,,,,,,,,['4bf58dd8d48988d151941735'],['Dining and Drinking > Restaurant > Mexican Restaurant > Taco Restaurant'],b'\x00\x00\x00\x00\x01\xc0Y\xd7+VH\xbd\x92@4\x8a\x91\xc0\xbb\rM',"{'xmin': -103.36202008346143, 'ymin': 20.541286512057287, 'xmax': -103.36202008346143, 'ymax': 20.541286512057287}",dining and drinking > restaurant > mexican restaurant > taco restaurant,1
503951d1e4b049dedb42358e,Tortas Manolo,19.179148,-96.133712,,,,,,,,MX,2012-08-25,2021-08-13,,,,,,,,['4bf58dd8d48988d151941735'],['Dining and Drinking > Restaurant > Mexican Restaurant > Taco Restaurant'],b'\x00\x00\x00\x00\x01\xc0X\x08\x8e\xbc\xc6\xc5L@3-\xdc\xa4\xb1$\xd1',"{'xmin': -96.133712, 'ymin': 19.179148, 'xmax': -96.133712, 'ymax': 19.179148}",dining and drinking > restaurant > mexican restaurant > taco restaurant,1
51a22e49498e55761e9bb5fc,Tacos Del Gordo,19.295507,-99.185685,Santa Teresa,,,,,,,MX,2013-05-26,2021-08-11,,,,,,,,['4bf58dd8d48988d151941735'],['Dining and Drinking > Restaurant > Mexican Restaurant > Taco Restaurant'],b'\x00\x00\x00\x00\x01\xc0X\xcb\xe2CV\x96\xe6@3K\xa6X\xc4\xbd4',"{'xmin': -99.185685, 'ymin': 19.295507, 'xmax': -99.185685, 'ymax': 19.295507}",dining and drinking > restaurant > mexican restaurant > taco restaurant,1
5019e7d7e4b081336a7cca6f,Taqueria Mirrey,19.310345856161227,-99.22358504808142,,,,,,,,MX,2012-08-02,2021-08-12,,,,,,,,['4bf58dd8d48988d1c1941735' '4bf58dd8d48988d151941735'],"['Dining and Drinking > Restaurant > Mexican Restaurant'
 'Dining and Drinking > Restaurant > Mexican Restaurant > Taco Restaurant']",b'\x00\x00\x00\x00\x01\xc0X\xceO7\xa9X\x98@3Or\xd3v\xa9^',"{'xmin': -99.22358504808142, 'ymin': 19.310345856161227, 'xmax': -99.22358504808142, 'ymax': 19.310345856161227}","dining and drinking > restaurant > mexican restaurant, dining and drinking > restaurant > mexican restaurant > taco restaurant",1
56a05a0b498e177b64cb1663,Taquería García,17.061653,-96.74596,"Avenida Montoya #131, Col. Casa Blanca",Oaxaca,Oaxaca,,,,,MX,2016-01-21,2020-11-24,,,,,,,,['4bf58dd8d48988d151941735'],['Dining and Drinking > Restaurant > Mexican Restaurant > Taco Restaurant'],b'\x00\x00\x00\x00\x01\xc0X/\xbd\xcf\x03\x07\xf2@1\x0f\xc8}\xb2\xb3F',"{'xmin': -96.74596, 'ymin': 17.061653, 'xmax': -96.74596, 'ymax': 17.061653}",dining and drinking > restaurant > mexican restaurant > taco restaurant,1
4fb29318e4b0e1e96936375c,El Saboreo,19.15723424662696,-96.13099843570885,Díaz Mirón,Boca del Río,Veracruz,,,,,MX,2012-05-15,2020-11-20,,,,,,,,['4bf58dd8d48988d151941735'],['Dining and Drinking > Restaurant > Mexican Restaurant > Taco Restaurant'],b'\x00\x00\x00\x00\x01\xc0X\x08bGCL\x96@3(@\x80\xeb\x12\xf1',"{'xmin': -96.13099843570885, 'ymin': 19.15723424662696, 'xmax': -96.13099843570885, 'ymax': 19.15723424662696}",dining and drinking > restaurant > mexican restaurant > taco restaurant,1
4dbe1dab5da3ff58ec739a37,Tacos de Sabi,16.204622075750198,-95.19334877722379,Colonia Petrolera,Salina Cruz,Oaxaca,,,,,MX,2011-05-02,2020-11-24,,,,,,,,['4bf58dd8d48988d151941735'],['Dining and Drinking > Restaurant > Mexican Restaurant > Taco Restaurant'],b'\x00\x00\x00\x00\x01\xc0W\xcc_\xd3\x8c\xb9u@04b\x1c\xc3c\x01',"{'xmin': -95.19334877722379, 'ymin': 16.204622075750198, 'xmax': -95.19334877722379, 'ymax': 16.204622075750198}",dining and drinking > restaurant > mexican restaurant > taco restaurant,1
543178a7498e34ea4af3f310,tacos el tapatio,20.55440403983214,-103.304554498539,Av. Solidaridad Iberoamericana 8502,El Salto,jalisco,,,,,MX,2014-10-05,2020-11-21,,,,,,,,['4bf58dd8d48988d151941735'],['Dining and Drinking > Restaurant > Mexican Restaurant > Taco Restaurant'],b'\x00\x00\x00\x00\x01\xc0Y\xd3}\xd2&\xc4\xc8@4\x8d\xedlS\xd9m',"{'xmin': -103.304554498539, 'ymin': 20.55440403983214, 'xmax': -103.304554498539, 'ymax': 20.55440403983214}",dining and drinking > restaurant > mexican restaurant > taco restaurant,1
5116f268e4b00c195f350fe2,Taqueria Dos Hnos,16.091799,-93.754481,,Tonalá,Chiapas,,,,,MX,2013-02-10,2020-11-24,,,,,,,,['4bf58dd8d48988d151941735'],['Dining and Drinking > Restaurant > Mexican Restaurant > Taco Restaurant'],b'\x00\x00\x00\x00\x01\xc0WpIj\xad\x1d\x04@0\x17\x80#\xa6\xce6',"{'xmin': -93.754481, 'ymin': 16.091799, 'xmax': -93.754481, 'ymax': 16.091799}",dining and drinking > restaurant > mexican restaurant > taco restaurant,1
56ab9d0f498e65c91dc5de6d,Tacos Thelma,19.975222,-102.28698,Virrey De Mendoza #203,Zamora,Michoacán,59680,,,,MX,2016-01-29,2020-11-22,,,,,,,,['4bf58dd8d48988d151941735'],['Dining and Drinking > Restaurant > Mexican Restaurant > Taco Restaurant'],b'\x00\x00\x00\x00\x01\xc0Y\x92]\xe1\\\xa6\xca@3\xf9\xa8&$V\xf7',"{'xmin': -102.28698, 'ymin': 19.975222, 'xmax': -102.28698, 'ymax': 19.975222}",dining and drinking > restaurant > mexican restaurant > taco restaurant,1
539b767b498e606f9b3a16f1,Tacos Arabes Mustafa,17.53970323511315,-99.49581278243639,,,,,,,,MX,2014-06-13,2021-08-12,,,,,,,,['4bf58dd8d48988d151941735'],['Dining and Drinking > Restaurant > Mexican Restaurant > Taco Restaurant'],b'\x00\x00\x00\x00\x01\xc0X\xdf\xbbe\x89`2@1\x8a)\xfd\xc0[<',"{'xmin': -99.49581278243639, 'ymin': 17.53970323511315, 'xmax': -99.49581278243639, 'ymax': 17.53970323511315}",dining and drinking > restaurant > mexican restaurant > taco restaurant,1
534b4287498e7cadf0b92251,tacos ultra picosos,16.85694694519043,-99.81668853759766,,,,,,,,MX,2014-04-14,2021-08-12,,,,,,,,['4bf58dd8d48988d151941735'],['Dining and Drinking > Restaurant > Mexican Restaurant > Taco Restaurant'],b'\x00\x00\x00\x00\x01\xc0X\xf4D\xa0\x00\x00\x00@0\xdb`\xe0\x00\x00\x00',"{'xmin': -99.81668853759766, 'ymin': 16.85694694519043, 'xmax': -99.81668853759766, 'ymax': 16.85694694519043}",dining and drinking > restaurant > mexican restaurant > taco restaurant,1
5342d5ff498e6256f41c3acc,Las cazuelitas,16.86241681962501,-99.88422146448787,José Luis Curiel,,Guerrero,,,,,MX,2014-04-07,2021-08-13,,,,,,,,['4bf58dd8d48988d151941735'],['Dining and Drinking > Restaurant > Mexican Restaurant > Taco Restaurant'],b'\x00\x00\x00\x00\x01\xc0X\xf8\x97\x15\xa0\x19b@0\xdc\xc7YC\xcfL',"{'xmin': -99.88422146448787, 'ymin': 16.86241681962501, 'xmax': -99.88422146448787, 'ymax': 16.86241681962501}",dining and drinking > restaurant > mexican restaurant > taco restaurant,1
4d973e0cc19fb60c79159165,La Barbacoa,19.275140179243802,-99.14228314930587,Esmeralda 897,Xochimilco,Distrito Federal,,,,,MX,2011-04-02,2020-11-24,,,,,,,,['4bf58dd8d48988d151941735'],['Dining and Drinking > Restaurant > Mexican Restaurant > Taco Restaurant'],b'\x00\x00\x00\x00\x01\xc0X\xc9\x1b*\xc8B\x99@3Fo\x967\xaa\xef',"{'xmin': -99.14228314930587, 'ymin': 19.275140179243802, 'xmax': -99.14228314930587, 'ymax': 19.275140179243802}",dining and drinking > restaurant > mexican restaurant > taco restaurant,1
5a445c024420d839f20e232e,Tacos Leonor,20.579588,-103.123968,,Zapotlanejo,JAL,,,,,MX,2017-12-28,2020-11-30,,,,,,,,['4bf58dd8d48988d151941735' '4bf58dd8d48988d1c1941735'],"['Dining and Drinking > Restaurant > Mexican Restaurant > Taco Restaurant'
 'Dining and Drinking > Restaurant > Mexican Restaurant']","b""\x00\x00\x00\x00\x01\xc0Y\xc7\xef\x17zp\t@4\x94_\xe1\x11'p""","{'xmin': -103.123968, 'ymin': 20.579588, 'xmax': -103.123968, 'ymax': 20.579588}","dining and drinking > restaurant > mexican restaurant > taco restaurant, dining and drinking > restaurant > mexican restaurant",1
623b53f3683a06063b52f45b,La Lechuza,16.866087,-96.784993,Avenida Benito Juarez,Zimatlán de Álvarez,OAX,71200,,,,MX,2022-03-23,2022-03-23,,,,,,,,['4bf58dd8d48988d151941735'],['Dining and Drinking > Restaurant > Mexican Restaurant > Taco Restaurant'],b'\x00\x00\x00\x00\x01\xc0X2=SG\xa5\xb1@0\xdd\xb7\xe0\xac}\xa2',"{'xmin': -96.784993, 'ymin': 16.866087, 'xmax': -96.784993, 'ymax': 16.866087}",dining and drinking > restaurant > mexican restaurant > taco restaurant,1
56358737498e7e66a4faecce,Doña Diabla,19.113712980602386,-96.14877109447433,,,,,,,,MX,2015-11-01,2020-11-23,,,,,,,,['4bf58dd8d48988d151941735'],['Dining and Drinking > Restaurant > Mexican Restaurant > Taco Restaurant'],b'\x00\x00\x00\x00\x01\xc0X\t\x85w2V\xdf@3\x1d\x1cK<\xd1d',"{'xmin': -96.14877109447433, 'ymin': 19.113712980602386, 'xmax': -96.14877109447433, 'ymax': 19.113712980602386}",dining and drinking > restaurant > mexican restaurant > taco restaurant,1
59c6f2907918717eb3b1f4d9,Tacos Pepe,19.206552,-96.186268,,Veracruz,VER,91809,,,,MX,2017-09-23,2020-11-22,,,,,,,,['4bf58dd8d48988d151941735'],['Dining and Drinking > Restaurant > Mexican Restaurant > Taco Restaurant'],b'\x00\x00\x00\x00\x01\xc0X\x0b\xeb\xd0\x9e\x12\xa5@34\xe0\x97\x84\xecc',"{'xmin': -96.186268, 'ymin': 19.206552, 'xmax': -96.186268, 'ymax': 19.206552}",dining and drinking > restaurant > mexican restaurant > taco restaurant,1
540fb87f498ee5ad16ede63b,Taqueria el Güero,19.306364059448242,-99.07494354248047,,,,,,,,MX,2014-09-10,2021-08-15,,,,,,,,['4bf58dd8d48988d151941735'],['Dining and Drinking > Restaurant > Mexican Restaurant > Taco Restaurant'],b'\x00\x00\x00\x00\x01\xc0X\xc4\xcb\xe0\x00\x00\x00@3Nm\xe0\x00\x00\x00',"{'xmin': -99.07494354248047, 'ymin': 19.306364059448242, 'xmax': -99.07494354248047, 'ymax': 19.306364059448242}",dining and drinking > restaurant > mexican restaurant > taco restaurant,1
51d70acb498ec8340616b085,Taqueria La Rana,18.795019563727838,-99.20107076308265,,,,,,,,MX,2013-07-05,2020-11-23,,,,,,,,['4bf58dd8d48988d151941735'],['Dining and Drinking > Restaurant > Mexican Restaurant > Taco Restaurant'],b'\x00\x00\x00\x00\x01\xc0X\xcc\xdeW\xe7\xe7\xcb@2\xcb\x86f\xf1\xe4)',"{'xmin': -99.20107076308265, 'ymin': 18.795019563727838, 'xmax': -99.20107076308265, 'ymax': 18.795019563727838}",dining and drinking > restaurant > mexican restaurant > taco restaurant,1
61f8949732f2f20e9d807d88,Los Taquitos De La Carmen,19.31958,-99.107475,,Ciudad de México,Ciudad de México,04910,,,,MX,2022-02-01,2022-02-01,,,,,,,,['4bf58dd8d48988d151941735'],['Dining and Drinking > Restaurant > Mexican Restaurant > Taco Restaurant'],b'\x00\x00\x00\x00\x01\xc0X\xc6\xe0\xde\xd2\x88\xce@3Q\xcf\xfe\xb0t\xa7',"{'xmin': -99.107475, 'ymin': 19.31958, 'xmax': -99.107475, 'ymax': 19.31958}",dining and drinking > restaurant > mexican restaurant > taco restaurant,1
52bbaf51498eb9260fa7608d,Taquería El Túnel,18.93855895255457,-99.24017017694777,,,,,,,,MX,2013-12-26,2021-08-12,,,,,,,,['4bf58dd8d48988d151941735'],['Dining and Drinking > Restaurant > Mexican Restaurant > Taco Restaurant'],b'\x00\x00\x00\x00\x01\xc0X\xcf^\xf2\xbb\xdd\xc6@2\xf0EfF\x97\x03',"{'xmin': -99.24017017694777, 'ymin': 18.93855895255457, 'xmax': -99.24017017694777, 'ymax': 18.93855895255457}",dining and drinking > restaurant > mexican restaurant > taco restaurant,1
4f8cf743e4b01d92a6aa3b98,Tacos El Pirata,19.29861971898916,-99.59210694029143,,,,,,,,MX,2012-04-17,2021-08-14,,,,,,,,['4bf58dd8d48988d151941735'],['Dining and Drinking > Restaurant > Mexican Restaurant > Taco Restaurant'],b'\x00\x00\x00\x00\x01\xc0X\xe5\xe5\x14\x82\x12S@3LrW\x86\xff\xc8',"{'xmin': -99.59210694029143, 'ymin': 19.29861971898916, 'xmax': -99.59210694029143, 'ymax': 19.29861971898916}",dining and drinking > restaurant > mexican restaurant > taco restaurant,1
4f902ca7e4b0f6229aaa0b85,Ricos Tacos De Guisado Lety,17.666241,-101.586962,,,,,,,,MX,2012-04-19,2021-08-13,,,,,,,,['4bf58dd8d48988d151941735'],['Dining and Drinking > Restaurant > Mexican Restaurant > Taco Restaurant'],b'\x00\x00\x00\x00\x01\xc0Ye\x90\xc9\x10\x7f\xaa@1\xaa\x8e\xc5*A\x1c',"{'xmin': -101.586962, 'ymin': 17.666241, 'xmax': -101.586962, 'ymax': 17.666241}",dining and drinking > restaurant > mexican restaurant > taco restaurant,1
56f1c7ffcd10dd27cdc95d6d,tacos El pachuco,16.85856,-99.901043,,,,,,,,MX,2016-03-22,2021-08-14,,,,,,,,['4bf58dd8d48988d151941735'],['Dining and Drinking > Restaurant > Mexican Restaurant > Taco Restaurant'],b'\x00\x00\x00\x00\x01\xc0X\xf9\xaa\xb0BR\x8b@0\xdb\xca\x96\x91\xa7]',"{'xmin': -99.901043, 'ymin': 16.85856, 'xmax': -99.901043, 'ymax': 16.85856}",dining and drinking > restaurant > mexican restaurant > taco restaurant,1
590224a4aa6c95608ba934a2,Tacos El Campeon ll,19.284227,-99.651809,Juan Alvarez 403,Toluca de Lerdo,Edomex,50090,,,,MX,2017-04-27,2020-11-24,,,,,,,,['4bf58dd8d48988d151941735'],['Dining and Drinking > Restaurant > Mexican Restaurant > Taco Restaurant'],b'\x00\x00\x00\x00\x01\xc0X\xe9\xb7=\x18\x8fC@3H\xc3\x19\xc5\xa3\xe4',"{'xmin': -99.651809, 'ymin': 19.284227, 'xmax': -99.651809, 'ymax': 19.284227}",dining and drinking > restaurant > mexican restaurant > taco restaurant,1
530d6522498e812ed869279c,"Tacos  ""Los Poblanos""",19.274062554569294,-99.17280429577846,,,,,,,,MX,2014-02-26,2021-08-13,,,,,,,,['4bf58dd8d48988d151941735'],['Dining and Drinking > Restaurant > Mexican Restaurant > Taco Restaurant'],b'\x00\x00\x00\x00\x01\xc0X\xcb\x0f9\xbf\xbe\x84@3F(\xf6\xac\xee\xef',"{'xmin': -99.17280429577846, 'ymin': 19.274062554569294, 'xmax': -99.17280429577846, 'ymax': 19.274062554569294}",dining and drinking > restaurant > mexican restaurant > taco restaurant,1
57243199498e3be9c7213657,"Tacos ""El Compita""",18.626348,-99.321982,,,,,,,,MX,2016-04-30,2021-08-10,,,,,,,,['4bf58dd8d48988d151941735'],['Dining and Drinking > Restaurant > Mexican Restaurant > Taco Restaurant'],b'\x00\x00\x00\x00\x01\xc0X\xd4\x9bZc\xf9\xa5@2\xa0XW\xaf\xea>',"{'xmin': -99.321982, 'ymin': 18.626348, 'xmax': -99.321982, 'ymax': 18.626348}",dining and drinking > restaurant > mexican restaurant > taco restaurant,1
582ffb19f84085380e042d35,Taqueria El Tacuchin Arabé,19.279185,-99.654779,Calle: Juan Aldama Esq: gral Venustiano Carranza,Toluca,De México,50130,,,,MX,2016-11-19,2020-11-23,,,,,,,,['4bf58dd8d48988d151941735'],['Dining and Drinking > Restaurant > Mexican Restaurant > Taco Restaurant'],b'\x00\x00\x00\x00\x01\xc0X\xe9\xe7\xe6-\xc6\xe3@3Gx\xab\x0c\x88\xa4',"{'xmin': -99.654779, 'ymin': 19.279185, 'xmax': -99.654779, 'ymax': 19.279185}",dining and drinking > restaurant > mexican restaurant > taco restaurant,1
5f7bd9f0dd53a8329a8e55f7,Taquerias El Periferico,19.336683,-99.12078,,Ciudad de México,Ciudad de México,04420,,,,MX,2020-10-06,2020-11-23,,,,,,,,['4bf58dd8d48988d151941735'],['Dining and Drinking > Restaurant > Mexican Restaurant > Taco Restaurant'],b'\x00\x00\x00\x00\x01\xc0X\xc7\xba\xdc\t\x80\xb2@3V0\xdbj\x1e\x82',"{'xmin': -99.12078, 'ymin': 19.336683, 'xmax': -99.12078, 'ymax': 19.336683}",dining and drinking > restaurant > mexican restaurant > taco restaurant,1
4fb6882ce4b014d752d01d9b,Tacos De Cecina (Chuchos),19.319270795431727,-99.0880214729181,,,,,,,,MX,2012-05-18,2021-08-11,,,,,,,,['4bf58dd8d48988d151941735'],['Dining and Drinking > Restaurant > Mexican Restaurant > Taco Restaurant'],b'\x00\x00\x00\x00\x01\xc0X\xc5\xa2$\xd0\xe1\xdb@3Q\xbb\xbb\x18\xf2z',"{'xmin': -99.0880214729181, 'ymin': 19.319270795431727, 'xmax': -99.0880214729181, 'ymax': 19.319270795431727}",dining and drinking > restaurant > mexican restaurant > taco restaurant,1
4e0feb117d8b4d5613cdccb6,Sairaf,18.898733,-96.944833,,Córdoba,Veracruz-Llave,,,,,MX,2011-07-03,2020-11-25,,,,,,,,['4bf58dd8d48988d151941735'],['Dining and Drinking > Restaurant > Mexican Restaurant > Taco Restaurant'],b'\x00\x00\x00\x00\x01\xc0X<x$\xd4\xcb\x9f@2\xe6\x13]\xaa\xd6\x02',"{'xmin': -96.944833, 'ymin': 18.898733, 'xmax': -96.944833, 'ymax': 18.898733}",dining and drinking > restaurant > mexican restaurant > taco restaurant,1
594e8df57247500558e52e62,El Dos Tacos,19.720287,-101.193579,,Morelia,MICH,58117,,,,MX,2017-06-24,2020-11-23,,,,,,,,['4bf58dd8d48988d151941735'],['Dining and Drinking > Restaurant > Mexican Restaurant > Taco Restaurant'],"b'\x00\x00\x00\x00\x01\xc0YLc\x99,\x8cP@3\xb8d\xba\x94\xbb\xe4'","{'xmin': -101.193579, 'ymin': 19.720287, 'xmax': -101.193579, 'ymax': 19.720287}",dining and drinking > restaurant > mexican restaurant > taco restaurant,1
5a62be75d1a402482004f768,Asadero Quinteros,20.546581,-103.36594,,Tlajomulco de Zúñiga,JAL,45654,,,,MX,2018-01-20,2020-11-25,,,,,,,,['4bf58dd8d48988d151941735'],['Dining and Drinking > Restaurant > Mexican Restaurant > Taco Restaurant'],b'\x00\x00\x00\x00\x01\xc0Y\xd7k\x8f\x9b\x13\x16@4\x8b\xec\xbb\x7f\x9do',"{'xmin': -103.36594, 'ymin': 20.546581, 'xmax': -103.36594, 'ymax': 20.546581}",dining and drinking > restaurant > mexican restaurant > taco restaurant,1
5928857fe679bc1e30a532f2,Antojitos Elena,16.2333,-93.2688,2da poniente sur,Villaflores,Chiapas,30478,,,,MX,2017-05-26,2020-11-25,,,,,,,,['4bf58dd8d48988d151941735'],['Dining and Drinking > Restaurant > Mexican Restaurant > Taco Restaurant'],b'\x00\x00\x00\x00\x01\xc0WQ4\x04\xeaJ\x8c@0;\xb9\x8c~($',"{'xmin': -93.2688, 'ymin': 16.2333, 'xmax': -93.2688, 'ymax': 16.2333}",dining and drinking > restaurant > mexican restaurant > taco restaurant,1
58a4d2e426a4075f242213bc,La Costras De Carranza,19.27927898645119,-99.6603879042972,,,,,,,,MX,2017-02-15,2021-08-15,,,,,,,,['4bf58dd8d48988d151941735'],['Dining and Drinking > Restaurant > Mexican Restaurant > Taco Restaurant'],b'\x00\x00\x00\x00\x01\xc0X\xeaC\xcb\xa0\xe8Y@3G~\xd3\xe1D\x94',"{'xmin': -99.6603879042972, 'ymin': 19.27927898645119, 'xmax': -99.6603879042972, 'ymax': 19.27927898645119}",dining and drinking > restaurant > mexican restaurant > taco restaurant,1
570ec468498ebf77bd85129b,"Antojitos Mexicanos ""Las Tías""",17.53997635718343,-101.2719058020579,,,,,,,,MX,2016-04-13,2021-08-11,,,,,,,,['4bf58dd8d48988d151941735'],['Dining and Drinking > Restaurant > Mexican Restaurant > Taco Restaurant'],b'\x00\x00\x00\x00\x01\xc0YQf\xe7\x97\xdb\x9b@1\x8a;\xe3\xfa\xb7O',"{'xmin': -101.2719058020579, 'ymin': 17.53997635718343, 'xmax': -101.2719058020579, 'ymax': 17.53997635718343}",dining and drinking > restaurant > mexican restaurant > taco restaurant,1
50398abae4b0bce9173555df,"Taqueria ""La Sombra""",19.20770181423142,-102.58810263185237,,,,,,,,MX,2012-08-26,2021-08-13,,,,,,,,['4bf58dd8d48988d151941735'],['Dining and Drinking > Restaurant > Mexican Restaurant > Taco Restaurant'],b'\x00\x00\x00\x00\x01\xc0Y\xa5\xa3y8\x9f\xd6@35+\xf23q\x9e',"{'xmin': -102.58810263185237, 'ymin': 19.20770181423142, 'xmax': -102.58810263185237, 'ymax': 19.20770181423142}",dining and drinking > restaurant > mexican restaurant > taco restaurant,1
523f189f498ea7e0027a7dd7,Carnitas Estilo Tejeria,19.150313,-96.116708,,,,,,,,MX,2013-09-22,2020-11-25,,,,,,,,['4bf58dd8d48988d151941735'],['Dining and Drinking > Restaurant > Mexican Restaurant > Taco Restaurant'],b'\x00\x00\x00\x00\x01\xc0X\x07x$\xd4\xcb\x9f@3&z\xe9\xab)\xe5',"{'xmin': -96.116708, 'ymin': 19.150313, 'xmax': -96.116708, 'ymax': 19.150313}",dining and drinking > restaurant > mexican restaurant > taco restaurant,1
54721447498e8876c288b1a7,"Barbacoa del ""Deivid""",19.32930040422914,-99.05710079926311,Barullo Maldonado Mz. 84 lote 5,Iztapalapa,Distrito Federal,,,,,MX,2014-11-23,2020-11-26,,,,,,,,['4bf58dd8d48988d151941735'],['Dining and Drinking > Restaurant > Mexican Restaurant > Taco Restaurant'],b'\x00\x00\x00\x00\x01\xc0X\xc3\xa7\x8a\x1cZF@3TM\x08\x02\xb9G',"{'xmin': -99.05710079926311, 'ymin': 19.32930040422914, 'xmax': -99.05710079926311, 'ymax': 19.32930040422914}",dining and drinking > restaurant > mexican restaurant > taco restaurant,1
51edfc98498ed5eba0ba32b4,Las Margaritas Taqueria,17.074229599071792,-96.7110919176177,,,,,,,,MX,2013-07-23,2021-08-12,,,,,,,,['4bf58dd8d48988d151941735'],['Dining and Drinking > Restaurant > Mexican Restaurant > Taco Restaurant'],b'\x00\x00\x00\x00\x01\xc0X-\x82\x87\xac\xa7\x8c@1\x13\x00\xb6\x04h\x96',"{'xmin': -96.7110919176177, 'ymin': 17.074229599071792, 'xmax': -96.7110919176177, 'ymax': 17.074229599071792}",dining and drinking > restaurant > mexican restaurant > taco restaurant,1
57d48e56498e55c54fec4074,Taqueria Ivan,19.408665,-102.05111,,,,,,,,MX,2016-09-10,2021-08-14,,,,,,,,['4bf58dd8d48988d151941735'],['Dining and Drinking > Restaurant > Mexican Restaurant > Taco Restaurant'],b'\x00\x00\x00\x00\x01\xc0Y\x83Eb\xe0\x9f\xe8@3h\x9eD\xfa\x05\x14',"{'xmin': -102.05111, 'ymin': 19.408665, 'xmax': -102.05111, 'ymax': 19.408665}",dining and drinking > restaurant > mexican restaurant > taco restaurant,1
557790e4498e848114fd1116,Nortaco,16.186205,-95.197564,,,,,,,,MX,2015-06-10,2021-08-12,,,,,,,,['4bf58dd8d48988d151941735'],['Dining and Drinking > Restaurant > Mexican Restaurant > Taco Restaurant'],b'\x00\x00\x00\x00\x01\xc0W\xcc\xa4\xe3y\xb7|@0/\xab!\x81Z\x08',"{'xmin': -95.197564, 'ymin': 16.186205, 'xmax': -95.197564, 'ymax': 16.186205}",dining and drinking > restaurant > mexican restaurant > taco restaurant,1
5bd3c659d41bb7002cd91ce3,Qué ¡Chulada! Taqueria,19.239122,-99.58139,,Colonia Llano Grande,,52148,,,,MX,2018-10-27,2020-11-25,,,,,,,,['4bf58dd8d48988d151941735'],['Dining and Drinking > Restaurant > Mexican Restaurant > Taco Restaurant'],"b'\x00\x00\x00\x00\x01\xc0X\xe55~g\x0e,@3=7\x19q\xc1\r'","{'xmin': -99.58139, 'ymin': 19.239122, 'xmax': -99.58139, 'ymax': 19.239122}",dining and drinking > restaurant > mexican restaurant > taco restaurant,1
56058323498e62a8fd9a410a,La Cecina De Yecapixcla,19.686714819949348,-101.14311549084071,,,,,,,,MX,2015-09-25,2021-08-14,,,,,,,,['4bf58dd8d48988d151941735'],['Dining and Drinking > Restaurant > Mexican Restaurant > Taco Restaurant'],b'\x00\x00\x00\x00\x01\xc0YI(\xcd\xe0-\x8f@3\xaf\xcc\x8a\xdd\\i',"{'xmin': -101.14311549084071, 'ymin': 19.686714819949348, 'xmax': -101.14311549084071, 'ymax': 19.686714819949348}",dining and drinking > restaurant > mexican restaurant > taco restaurant,1
4fb562c4e4b09a973757810f,carnitas el vale,19.28259197847327,-99.57382154734272,Tecnologico,Metepec,mexico,,,,,MX,2012-05-17,2020-11-22,,,,,,,,['4bf58dd8d48988d151941735'],['Dining and Drinking > Restaurant > Mexican Restaurant > Taco Restaurant'],b'\x00\x00\x00\x00\x01\xc0X\xe4\xb9~\x02\xe4\xef@3HW\xf2\xa9\xa7\x96',"{'xmin': -99.57382154734272, 'ymin': 19.28259197847327, 'xmax': -99.57382154734272, 'ymax': 19.28259197847327}",dining and drinking > restaurant > mexican restaurant > taco restaurant,1
4e36de03b3adaade0530f9ca,Tacos de Barbacoa de la Güera,16.863875902740713,-99.89675897479836,Mercado de la Progreso,Acapulco,GRO,39350,,,,MX,2011-08-01,2020-11-25,,,,,,,,['4bf58dd8d48988d151941735'],['Dining and Drinking > Restaurant > Mexican Restaurant > Taco Restaurant'],b'\x00\x00\x00\x00\x01\xc0X\xf9d\x7f\xc1I\xd2@0\xdd&\xf8\x9e\x12\xe7',"{'xmin': -99.89675897479836, 'ymin': 16.863875902740713, 'xmax': -99.89675897479836, 'ymax': 16.863875902740713}",dining and drinking > restaurant > mexican restaurant > taco restaurant,1
4f844207e4b01630772115d2,Tacos Suaves Pablito,19.979632678723107,-102.29173635200604,Pino Suárez Sur,"Zamora, MICH",,,,,,MX,2012-04-10,2020-11-24,,,,,,,,['4bf58dd8d48988d151941735'],['Dining and Drinking > Restaurant > Mexican Restaurant > Taco Restaurant'],b'\x00\x00\x00\x00\x01\xc0Y\x92\xab\xce\xf2\xba\xe6@3\xfa\xc95\r5h',"{'xmin': -102.29173635200604, 'ymin': 19.979632678723107, 'xmax': -102.29173635200604, 'ymax': 19.979632678723107}",dining and drinking > restaurant > mexican restaurant > taco restaurant,1
53742bb1498e78be20dd27e0,Circus Tacos,17.071619033813477,-96.7244873046875,,,,,,,,MX,2014-05-15,2021-08-12,,,,,,,,['4bf58dd8d48988d151941735'],['Dining and Drinking > Restaurant > Mexican Restaurant > Taco Restaurant'],b'\x00\x00\x00\x00\x01\xc0X.^\x00\x00\x00\x00@1\x12U\xa0\x00\x00\x00',"{'xmin': -96.7244873046875, 'ymin': 17.071619033813477, 'xmax': -96.7244873046875, 'ymax': 17.071619033813477}",dining and drinking > restaurant > mexican restaurant > taco restaurant,1
53276f39498e39e312260997,El Pastorcito,19.2961,-99.0378,,,,,,,,MX,2014-03-17,2021-08-12,,,,,,,,['4bf58dd8d48988d151941735'],['Dining and Drinking > Restaurant > Mexican Restaurant > Taco Restaurant'],b'\x00\x00\x00\x00\x01\xc0X\xc2kP\xb0\xf2|@3K\xcd5\xa8Xy',"{'xmin': -99.0378, 'ymin': 19.2961, 'xmax': -99.0378, 'ymax': 19.2961}",dining and drinking > restaurant > mexican restaurant > taco restaurant,1
4d40c6733fb4ba7acce08925,Los de Pescado,19.68840896803294,-101.15771837556464,Av. Enrique Ramírez Miguel No. 1000 Loc 308,Morelia,"Michoacan, México",58270,,,,MX,2011-01-27,2020-11-30,,998 185 5548,,,,,,['4bf58dd8d48988d151941735'],['Dining and Drinking > Restaurant > Mexican Restaurant > Taco Restaurant'],b'\x00\x00\x00\x00\x01\xc0YJ\x18\x0e\xd0A\xd1@3\xb0;\x91\xf3\xf9\x7f',"{'xmin': -101.15771837556464, 'ymin': 19.68840896803294, 'xmax': -101.15771837556464, 'ymax': 19.68840896803294}",dining and drinking > restaurant > mexican restaurant > taco restaurant,1
508c7e5ae4b02ba9b203736b,Taqueria La Parrilla Suiza,19.27987,-99.676655,,,,,,,,MX,2012-10-28,2021-08-14,,,,,,,,['4bf58dd8d48988d151941735'],['Dining and Drinking > Restaurant > Mexican Restaurant > Taco Restaurant'],b'\x00\x00\x00\x00\x01\xc0X\xebNP\xc5\xeb1@3G\xa5\x8fq!\xab',"{'xmin': -99.676655, 'ymin': 19.27987, 'xmax': -99.676655, 'ymax': 19.27987}",dining and drinking > restaurant > mexican restaurant > taco restaurant,1
