fsq_place_id,name,latitude,longitude,address,locality,region,postcode,admin_region,post_town,po_box,country,date_created,date_refreshed,date_closed,tel,website,email,facebook_id,instagram,twitter,fsq_category_ids,fsq_category_labels,geom,bbox,labels_str,taco_restaurant
4ebb4c51dab41f33bea9ca5b,Tacos San Cosme,32.51819470299362,-117.01629740200788,Agua Caliente,Tijuana,Baja California,,,,,MX,2011-11-10,2023-12-20,,664 686 3576,,,,,,['4bf58dd8d48988d151941735'],['Dining and Drinking > Restaurant > Mexican Restaurant > Taco Restaurant'],b'\x00\x00\x00\x00\x01\xc0]A\x0b\x04B(\x8d@@BT4;(\xb5',"{'xmin': -117.01629740200788, 'ymin': 32.51819470299362, 'xmax': -117.01629740200788, 'ymax': 32.51819470299362}",dining and drinking > restaurant > mexican restaurant > taco restaurant,1
64c2894909d43424f1b9cdc7,El Dorado,32.498898,-116.985214,,Tijuana,Baja California,22195,,,,MX,2023-07-27,2023-07-27,,,,,,,,['4bf58dd8d48988d151941735'],['Dining and Drinking > Restaurant > Mexican Restaurant > Taco Restaurant'],b'\x00\x00\x00\x00\x01\xc0]?\r\xbf\x05c\xed@@?\xdb\xe3\xc1\x05\x18',"{'xmin': -116.985214, 'ymin': 32.498898, 'xmax': -116.985214, 'ymax': 32.498898}",dining and drinking > restaurant > mexican restaurant > taco restaurant,1
5b37cd8075dcb7002cdf8754,Birria El Cimarrón,32.651245,-115.43271,,Mexicali,Baja California,21240,,,,MX,2018-06-30,2020-11-25,,,,,,,,['4bf58dd8d48988d151941735'],['Dining and Drinking > Restaurant > Mexican Restaurant > Taco Restaurant'],b'\x00\x00\x00\x00\x01\xc0\\\xdb\xb1\x85H\xa9\xbd@@S[\xff\x04W~',"{'xmin': -115.43271, 'ymin': 32.651245, 'xmax': -115.43271, 'ymax': 32.651245}",dining and drinking > restaurant > mexican restaurant > taco restaurant,1
4d014943e0c5a1cd8b4076ae,Las Ahumaderas Tacos El Paisa,32.519547510423955,-117.02058491906658,Guillermo Prieto 9770,Tijuana,Baja California,,,,,MX,2010-12-09,2020-11-24,,,,,,,,['4bf58dd8d48988d151941735'],['Dining and Drinking > Restaurant > Mexican Restaurant > Taco Restaurant'],b'\x00\x00\x00\x00\x01\xc0]AQCh\x8b\xa2@@B\x80\x88f\xfe\x9b',"{'xmin': -117.02058491906658, 'ymin': 32.519547510423955, 'xmax': -117.02058491906658, 'ymax': 32.519547510423955}",dining and drinking > restaurant > mexican restaurant > taco restaurant,1
5e49cc0117ec92000794bbe3,Tacos Del Valle,32.100628,-116.564543,,Francisco Zarco,BC,22750,,,,MX,2020-02-16,2020-11-22,,,,,,,,['4bf58dd8d48988d151941735'],['Dining and Drinking > Restaurant > Mexican Restaurant > Taco Restaurant'],b'\x00\x00\x00\x00\x01\xc0]$!x\xf6\x8b\xe3@@\x0c\xe1`\xd8\x87\xec',"{'xmin': -116.564543, 'ymin': 32.100628, 'xmax': -116.564543, 'ymax': 32.100628}",dining and drinking > restaurant > mexican restaurant > taco restaurant,1
504e2f12e4b08a5d47a52bb1,gorditas durango,32.45039934664975,-114.76510812742617,Tlaxcala,San Luis Río Colorado,sonora,,,,,MX,2012-09-10,2020-11-25,,,,,,,,['4bf58dd8d48988d151941735'],['Dining and Drinking > Restaurant > Mexican Restaurant > Taco Restaurant'],b'\x00\x00\x00\x00\x01\xc0\\\xb0\xf7\x88\x14L\xc0@@9\xa6\xaf\x90\x00\x0f',"{'xmin': -114.76510812742617, 'ymin': 32.45039934664975, 'xmax': -114.76510812742617, 'ymax': 32.45039934664975}",dining and drinking > restaurant > mexican restaurant > taco restaurant,1
4d0fd22fd21db60c83542618,Tacos Meche's,32.65959703993349,-115.43533025867269,Rio Mocorito,Mexicali,BC,,,,,MX,2010-12-20,2023-12-20,,686 905 1553,,,,,,['4bf58dd8d48988d151941735'],['Dining and Drinking > Restaurant > Mexican Restaurant > Taco Restaurant'],b'\x00\x00\x00\x00\x01\xc0\\\xdb\xdcsq\xfdW@@Tm\xad\x01\x86\xc0',"{'xmin': -115.43533025867269, 'ymin': 32.65959703993349, 'xmax': -115.43533025867269, 'ymax': 32.65959703993349}",dining and drinking > restaurant > mexican restaurant > taco restaurant,1
4ebb568b6c25b8c5f9f54b50,Tacos El Fogón,32.57910887741414,-115.47118925130029,,,,,,,,MX,2011-11-10,2021-08-16,2013-03-29,,,,,,,['4bf58dd8d48988d151941735'],['Dining and Drinking > Restaurant > Mexican Restaurant > Taco Restaurant'],"b""\x00\x00\x00\x00\x01\xc0\\\xde'\xf6\xf6#\xef@@J =\\\xa8\x94""","{'xmin': -115.47118925130029, 'ymin': 32.57910887741414, 'xmax': -115.47118925130029, 'ymax': 32.57910887741414}",dining and drinking > restaurant > mexican restaurant > taco restaurant,1
54c2120c498e896848863cf3,Tacos Los  Famosos,32.51806374723491,-117.01232557981629,Abelardo L. Rodriguez #10,Zona Rio Tijuana,BC,22020,,,,MX,2015-01-23,2020-11-30,,,,,,,,['4bf58dd8d48988d151941735'],['Dining and Drinking > Restaurant > Mexican Restaurant > Taco Restaurant'],b'\x00\x00\x00\x00\x01\xc0]@\xc9\xf1:\x8d\xc6@@BO\xe9\xb1\xce\xff',"{'xmin': -117.01232557981629, 'ymin': 32.51806374723491, 'xmax': -117.01232557981629, 'ymax': 32.51806374723491}",dining and drinking > restaurant > mexican restaurant > taco restaurant,1
571d827b498ef3d55c817dda,El Cachanilla,31.874807,-116.62803,20 Noviembre Y 10,,,,,,,MX,2016-04-25,2021-08-12,,,,,,,,['4bf58dd8d48988d151941735'],['Dining and Drinking > Restaurant > Mexican Restaurant > Taco Restaurant'],b'\x00\x00\x00\x00\x01\xc0](1\xa4\xbd\xba\n@?\xdf\xf3Y\xffO\xd7',"{'xmin': -116.62803, 'ymin': 31.874807, 'xmax': -116.62803, 'ymax': 31.874807}",dining and drinking > restaurant > mexican restaurant > taco restaurant,1
50c262d7e4b0572e5628e4e1,pescaderia RAMAR,32.50092697143555,-116.8858413696289,,,,,,,,MX,2012-12-07,2021-08-17,,,,,,,,['4bf58dd8d48988d151941735'],['Dining and Drinking > Restaurant > Mexican Restaurant > Taco Restaurant'],b'\x00\x00\x00\x00\x01\xc0]8\xb1\xa0\x00\x00\x00@@@\x1e`\x00\x00\x00',"{'xmin': -116.8858413696289, 'ymin': 32.50092697143555, 'xmax': -116.8858413696289, 'ymax': 32.50092697143555}",dining and drinking > restaurant > mexican restaurant > taco restaurant,1
4e60406345ddda35289dd775,Tacos Memos,32.648326096851754,-115.4348156760142,Montes de Oca 799,Mexicali,BC,21240,,,,MX,2011-09-02,2023-12-19,,686 567 5289,,,,,,['4bf58dd8d48988d151941735'],['Dining and Drinking > Restaurant > Mexican Restaurant > Taco Restaurant'],b'\x00\x00\x00\x00\x01\xc0\\\xdb\xd4\x05!\x119@@R\xfcY{\x8f\x91',"{'xmin': -115.4348156760142, 'ymin': 32.648326096851754, 'xmax': -115.4348156760142, 'ymax': 32.648326096851754}",dining and drinking > restaurant > mexican restaurant > taco restaurant,1
4e00f1ab88776240d3f378cf,"Tacos ""LOS POBLANOS""",32.50423053217364,-116.86257288399594,,Tijuana,Baja California,,,,,MX,2011-06-21,2020-11-22,,,,,,,,['4bf58dd8d48988d151941735'],['Dining and Drinking > Restaurant > Mexican Restaurant > Taco Restaurant'],b'\x00\x00\x00\x00\x01\xc0]74d\xe5\xcbt@@@\x8a\xa0F\xaaL',"{'xmin': -116.86257288399594, 'ymin': 32.50423053217364, 'xmax': -116.86257288399594, 'ymax': 32.50423053217364}",dining and drinking > restaurant > mexican restaurant > taco restaurant,1
5195808a498efc8c2eb627be,Tacos Hugos,32.494432,-117.03817,,,,,,,,MX,2013-05-17,2021-08-17,,,,,,,,['4bf58dd8d48988d151941735'],['Dining and Drinking > Restaurant > Mexican Restaurant > Taco Restaurant'],b'\x00\x00\x00\x00\x01\xc0]Bq`\x95l\r@@?I\x8c;\x0cF',"{'xmin': -117.03817, 'ymin': 32.494432, 'xmax': -117.03817, 'ymax': 32.494432}",dining and drinking > restaurant > mexican restaurant > taco restaurant,1
4fb91a97e4b079befa89cd77,Almuerzos Rosa,21.101567,-101.649118,,,,,,,,MX,2012-05-20,2021-08-15,,,,,,,,['4bf58dd8d48988d151941735'],['Dining and Drinking > Restaurant > Mexican Restaurant > Taco Restaurant'],b'\x00\x00\x00\x00\x01\xc0Yi\x8b&9O\xad@5\x1a\x00K\x7fZS',"{'xmin': -101.649118, 'ymin': 21.101567, 'xmax': -101.649118, 'ymax': 21.101567}",dining and drinking > restaurant > mexican restaurant > taco restaurant,1
573e19af498e5dc489203663,Los Tacos Sin Nombre,20.995823,-101.290738,,,,,,,,MX,2016-05-19,2021-08-13,,,,,,,,['4bf58dd8d48988d151941735'],['Dining and Drinking > Restaurant > Mexican Restaurant > Taco Restaurant'],b'\x00\x00\x00\x00\x01\xc0YR\x9bs\x8em\x16@4\xfe\xeeA\x91\x9a\xc8',"{'xmin': -101.290738, 'ymin': 20.995823, 'xmax': -101.290738, 'ymax': 20.995823}",dining and drinking > restaurant > mexican restaurant > taco restaurant,1
5c9e68200802d4002c9e527a,Taqueria Los Angeles,20.684828,-101.390337,Boulevard A Villas # 2786C,Villas de Irapuato,GTO,36670,,,,MX,2019-03-29,2020-11-22,,,,,,,,['4bf58dd8d48988d151941735'],['Dining and Drinking > Restaurant > Mexican Restaurant > Taco Restaurant'],b'\x00\x00\x00\x00\x01\xc0YX\xfbH\nZ\xcd@4\xafP\xe3Gb\x95',"{'xmin': -101.390337, 'ymin': 20.684828, 'xmax': -101.390337, 'ymax': 20.684828}",dining and drinking > restaurant > mexican restaurant > taco restaurant,1
5abd250ec876c84471e54b85,Renzo Tacos Grill,20.679836,-103.361331,,Guadalajara,JAL,44600,,,,MX,2018-03-29,2021-08-14,,,,,,,,['4bf58dd8d48988d151941735'],['Dining and Drinking > Restaurant > Mexican Restaurant > Taco Restaurant'],b'\x00\x00\x00\x00\x01\xc0Y\xd7 \x0c\x0f\x01\xfc@4\xae\t\xbbj\xa4\xba',"{'xmin': -103.361331, 'ymin': 20.679836, 'xmax': -103.361331, 'ymax': 20.679836}",dining and drinking > restaurant > mexican restaurant > taco restaurant,1
56e247e7498e8f8e6d356cf7,Tacos Charly,20.657117503262715,-103.36993985340992,,,,,,,,MX,2016-03-11,2021-08-11,,,,,,,,['4bf58dd8d48988d151941735'],['Dining and Drinking > Restaurant > Mexican Restaurant > Taco Restaurant'],b'\x00\x00\x00\x00\x01\xc0Y\xd7\xad\x184\xf8}@4\xa88\xdaJ$}',"{'xmin': -103.36993985340992, 'ymin': 20.657117503262715, 'xmax': -103.36993985340992, 'ymax': 20.657117503262715}",dining and drinking > restaurant > mexican restaurant > taco restaurant,1
507a5445e4b0109f35ea97c5,Taquería Mixe,20.662721828289015,-101.35329170598905,,,,,,,,MX,2012-10-14,2021-08-15,,,,,,,,['4bf58dd8d48988d151941735'],['Dining and Drinking > Restaurant > Mexican Restaurant > Taco Restaurant'],b'\x00\x00\x00\x00\x01\xc0YV\x9cT\xd0\xca\xf2@4\xa9\xa8#B\xd8\xbe',"{'xmin': -101.35329170598905, 'ymin': 20.662721828289015, 'xmax': -101.35329170598905, 'ymax': 20.662721828289015}",dining and drinking > restaurant > mexican restaurant > taco restaurant,1
51dad9e2498ea21ef3a583a2,Tacos De Amor (Corazón),20.668899536132812,-103.3455810546875,,Guadalajara,,,,,,MX,2013-07-08,2021-08-16,,,,,,,,['4bf58dd8d48988d151941735'],['Dining and Drinking > Restaurant > Mexican Restaurant > Taco Restaurant'],b'\x00\x00\x00\x00\x01\xc0Y\xd6\x1e\x00\x00\x00\x00@4\xab=\x00\x00\x00\x00',"{'xmin': -103.3455810546875, 'ymin': 20.668899536132812, 'xmax': -103.3455810546875, 'ymax': 20.668899536132812}",dining and drinking > restaurant > mexican restaurant > taco restaurant,1
55b1af1b498e27a286837315,Taqueria El Tlakuache,20.737417221069336,-103.35335540771484,,,,,,,,MX,2015-07-24,2021-08-13,,,,,,,,['4bf58dd8d48988d151941735'],['Dining and Drinking > Restaurant > Mexican Restaurant > Taco Restaurant'],b'\x00\x00\x00\x00\x01\xc0Y\xd6\x9d`\x00\x00\x00@4\xbc\xc7`\x00\x00\x00',"{'xmin': -103.35335540771484, 'ymin': 20.737417221069336, 'xmax': -103.35335540771484, 'ymax': 20.737417221069336}",dining and drinking > restaurant > mexican restaurant > taco restaurant,1
5bfeff0cc8b2fb002c10bb9f,Taquerías Huicho´s,20.633971554712975,-105.22925689816473,Francia 102,Puerto Vallarta,Jalisco,48310,,,,MX,2018-11-28,2020-11-25,,322 120 1476,,,,,,['4bf58dd8d48988d151941735'],['Dining and Drinking > Restaurant > Mexican Restaurant > Taco Restaurant'],b'\x00\x00\x00\x00\x01\xc0ZN\xac%\x1f\xff\xff@4\xa2K\xf5\xb6\x16%',"{'xmin': -105.22925689816473, 'ymin': 20.633971554712975, 'xmax': -105.22925689816473, 'ymax': 20.633971554712975}",dining and drinking > restaurant > mexican restaurant > taco restaurant,1
55a92849498e425a34d019d8,El Kioskito,20.650999493994913,-103.42599585850303,,,,,,,,MX,2015-07-17,2021-08-12,,,,,,,,['4bf58dd8d48988d151941735'],['Dining and Drinking > Restaurant > Mexican Restaurant > Taco Restaurant'],"b'\x00\x00\x00\x00\x01\xc0Y\xdbC\x84""  @4\xa6\xa7\xe7 k\xb3'","{'xmin': -103.42599585850303, 'ymin': 20.650999493994913, 'xmax': -103.42599585850303, 'ymax': 20.650999493994913}",dining and drinking > restaurant > mexican restaurant > taco restaurant,1
5e3ee5552ca8ce0007dcc160,Tacos De Barbacoa La Tapatia,20.664945,-103.326411,Medrano,Guadalajara,JAL,44400,,,,MX,2020-02-08,2021-08-14,,,,,,,,['4bf58dd8d48988d151941735'],['Dining and Drinking > Restaurant > Mexican Restaurant > Taco Restaurant'],b'\x00\x00\x00\x00\x01\xc0Y\xd4\xe3\xea\xf6\x83\x7f@4\xaa9\xd5\xe4\xa3\x83',"{'xmin': -103.326411, 'ymin': 20.664945, 'xmax': -103.326411, 'ymax': 20.664945}",dining and drinking > restaurant > mexican restaurant > taco restaurant,1
50f20ba5e4b054b55bec4cde,Tacos Los Dones,20.677892684936523,-103.36893463134766,Justo Sierra,Guadalajara,Jalisco,44600,,,,MX,2013-01-13,2021-08-11,,,,,,,,['4bf58dd8d48988d151941735'],['Dining and Drinking > Restaurant > Mexican Restaurant > Taco Restaurant'],b'\x00\x00\x00\x00\x01\xc0Y\xd7\x9c\xa0\x00\x00\x00@4\xad\x8a`\x00\x00\x00',"{'xmin': -103.36893463134766, 'ymin': 20.677892684936523, 'xmax': -103.36893463134766, 'ymax': 20.677892684936523}",dining and drinking > restaurant > mexican restaurant > taco restaurant,1
519f09c6498ed8b7c506877f,Tacos En La Esquina De Sta Rita Y 8 De Julio,20.604816664142025,-103.37740880551408,8 De Julio Y Sta. Rita,,,,,,,MX,2013-05-24,2021-08-15,,,,,,,,['4bf58dd8d48988d151941735'],['Dining and Drinking > Restaurant > Mexican Restaurant > Taco Restaurant'],"b""\x00\x00\x00\x00\x01\xc0Y\xd8'wC9\xf2@4\x9a\xd5C\xd0\x90\xd9""","{'xmin': -103.37740880551408, 'ymin': 20.604816664142025, 'xmax': -103.37740880551408, 'ymax': 20.604816664142025}",dining and drinking > restaurant > mexican restaurant > taco restaurant,1
5ba9162d603d2a002cd5ac30,Tacos De Guisados,21.02332,-101.255091,,Guanajuato,GTO,36000,,,,MX,2018-09-24,2020-11-30,,,,,,,,['4bf58dd8d48988d151941735'],['Dining and Drinking > Restaurant > Mexican Restaurant > Taco Restaurant'],b'\x00\x00\x00\x00\x01\xc0YPSi3\xa0@@5\x05\xf8L\xadW\xbc',"{'xmin': -101.255091, 'ymin': 21.02332, 'xmax': -101.255091, 'ymax': 21.02332}",dining and drinking > restaurant > mexican restaurant > taco restaurant,1
4ec7e9440e6158baff0eeeaf,A los Tacos de Guisado,20.642840120952172,-103.41652233022921,Volcán Jorullo,Zapopan,Jalisco,,,,,MX,2011-11-19,2020-11-24,,,,,,,,['4bf58dd8d48988d151941735'],['Dining and Drinking > Restaurant > Mexican Restaurant > Taco Restaurant'],b'\x00\x00\x00\x00\x01\xc0Y\xda\xa8MF\x98\xd8@4\xa4\x91+\x90\x0b\xd8',"{'xmin': -103.41652233022921, 'ymin': 20.642840120952172, 'xmax': -103.41652233022921, 'ymax': 20.642840120952172}",dining and drinking > restaurant > mexican restaurant > taco restaurant,1
52d76d2711d20c9fe9b9865f,El Gran Taco,20.665147965168757,-103.37212859463862,Circunvalación Agustín Yáñez,Guadalajara,jalisco,,,,,MX,2014-01-16,2021-08-15,,,,,,,,['4bf58dd8d48988d151941735'],['Dining and Drinking > Restaurant > Mexican Restaurant > Taco Restaurant'],b'\x00\x00\x00\x00\x01\xc0Y\xd7\xd0\xf4s\xf8G@4\xaaG#\x15f\x98',"{'xmin': -103.37212859463862, 'ymin': 20.665147965168757, 'xmax': -103.37212859463862, 'ymax': 20.665147965168757}",dining and drinking > restaurant > mexican restaurant > taco restaurant,1
57ebf485498ec772341c6531,Tacos De Canasta Sí Señor,21.8555,-102.254715,,Aguascalientes,Aguascalientes,,,,,MX,2016-09-28,2020-11-23,,,,,,,,['4bf58dd8d48988d151941735'],['Dining and Drinking > Restaurant > Mexican Restaurant > Taco Restaurant'],b'\x00\x00\x00\x00\x01\xc0Y\x90M@$\xb3>@5\xdb\x02\x0cI\xba^',"{'xmin': -102.254715, 'ymin': 21.8555, 'xmax': -102.254715, 'ymax': 21.8555}",dining and drinking > restaurant > mexican restaurant > taco restaurant,1
4ec985359a52756c581e8bf7,Tacos Don Chepe,20.705947952486863,-102.33560157572563,Morelos,Arandas,JAL,47180,,,,MX,2011-11-20,2020-11-25,,,,,,,,['4bf58dd8d48988d151941735'],['Dining and Drinking > Restaurant > Mexican Restaurant > Taco Restaurant'],b'\x00\x00\x00\x00\x01\xc0Y\x95z\x7f\x08\x0e\x92@4\xb4\xb9\x01H\x9b\xf7',"{'xmin': -102.33560157572563, 'ymin': 20.705947952486863, 'xmax': -102.33560157572563, 'ymax': 20.705947952486863}",dining and drinking > restaurant > mexican restaurant > taco restaurant,1
4c44ebc5dcd61b8d8d107c56,Pancho's Takos,20.602026742374647,-105.23764281861844,,Puerto Vallarta,Jalisco,,,,,MX,2010-07-20,2024-01-04,,322 222 1693,http://pachostakos.restaurantwebexperts.com,,,,,['4bf58dd8d48988d151941735' '4bf58dd8d48988d1c1941735'],"['Dining and Drinking > Restaurant > Mexican Restaurant > Taco Restaurant'
 'Dining and Drinking > Restaurant > Mexican Restaurant']",b'\x00\x00\x00\x00\x01\xc0ZO5\x8a9\x86\x1c@4\x9a\x1el\xb1\xd1\x08',"{'xmin': -105.23764281861844, 'ymin': 20.602026742374647, 'xmax': -105.23764281861844, 'ymax': 20.602026742374647}","dining and drinking > restaurant > mexican restaurant > taco restaurant, dining and drinking > restaurant > mexican restaurant",1
56393085cd103c411aff56e9,Tacos Pepe's,20.68173278689394,-103.33601353922657,,Guadalajara,,,,,,MX,2015-11-03,2021-08-11,,,,,,,,['4bf58dd8d48988d151941735'],['Dining and Drinking > Restaurant > Mexican Restaurant > Taco Restaurant'],b'\x00\x00\x00\x00\x01\xc0Y\xd5\x81>\xee\x7fr@4\xae\x86\n8R\x06',"{'xmin': -103.33601353922657, 'ymin': 20.68173278689394, 'xmax': -103.33601353922657, 'ymax': 20.68173278689394}",dining and drinking > restaurant > mexican restaurant > taco restaurant,1
51fe8d89498e17b7fd66ab29,La Taquiza,20.383137,-104.823342,Independencia,Talpa De Allende,Jalisco,48200,,,,MX,2013-08-04,2020-11-22,,,,,,,guiatalpa,['4bf58dd8d48988d151941735'],['Dining and Drinking > Restaurant > Mexican Restaurant > Taco Restaurant'],b'\x00\x00\x00\x00\x01\xc0Z4\xb1\xa2\xa4\xdb\x16@4b\x15D4\xe37',"{'xmin': -104.823342, 'ymin': 20.383137, 'xmax': -104.823342, 'ymax': 20.383137}",dining and drinking > restaurant > mexican restaurant > taco restaurant,1
5ba7fd7ac62b49002cee4636,El Puerquito Feliz,20.607217,-105.236952,Agustin Rodriguez,Puerto Vallarta,JAL,48300,,,,MX,2018-09-23,2020-11-25,,,,,,,,['4bf58dd8d48988d151941735'],['Dining and Drinking > Restaurant > Mexican Restaurant > Taco Restaurant'],b'\x00\x00\x00\x00\x01\xc0ZO*8\xb8\xae2@4\x9br\x92\xc4\x93B',"{'xmin': -105.236952, 'ymin': 20.607217, 'xmax': -105.236952, 'ymax': 20.607217}",dining and drinking > restaurant > mexican restaurant > taco restaurant,1
50b246abe4b09dc7a68a5773,El Temazcal,19.391590737118822,-103.70591391598377,,,,,,,,MX,2012-11-25,2020-11-25,,,,,,,,['4bf58dd8d48988d151941735'],['Dining and Drinking > Restaurant > Mexican Restaurant > Taco Restaurant'],b'\x00\x00\x00\x00\x01\xc0Y\xed-\xb1\x8f\xbcC@3d?JaW\x85',"{'xmin': -103.70591391598377, 'ymin': 19.391590737118822, 'xmax': -103.70591391598377, 'ymax': 19.391590737118822}",dining and drinking > restaurant > mexican restaurant > taco restaurant,1
4ec94dfb775bf65c059c1c86,Tacos Munoz,21.902244484173206,-102.29621561711575,,Aguascalientes,Aguascalientes,,,,,MX,2011-11-20,2020-11-23,,,,,,,,['4bf58dd8d48988d151941735'],['Dining and Drinking > Restaurant > Mexican Restaurant > Taco Restaurant'],b'\x00\x00\x00\x00\x01\xc0Y\x92\xf52Y\x04\xe7@5\xe6\xf9~\x98\x853',"{'xmin': -102.29621561711575, 'ymin': 21.902244484173206, 'xmax': -102.29621561711575, 'ymax': 21.902244484173206}",dining and drinking > restaurant > mexican restaurant > taco restaurant,1
56c75043cd104596f91fa1b7,Takazo,20.705580911597554,-103.34551086621062,Félix Palavicini,Guadalajara,jalisco,,,,,MX,2016-02-19,2021-08-13,,,,,,,,['4bf58dd8d48988d151941735'],['Dining and Drinking > Restaurant > Mexican Restaurant > Taco Restaurant'],b'\x00\x00\x00\x00\x01\xc0Y\xd6\x1c\xd9\x9b\xb2b@4\xb4\xa0\xf3[\xfeM',"{'xmin': -103.34551086621062, 'ymin': 20.705580911597554, 'xmax': -103.34551086621062, 'ymax': 20.705580911597554}",dining and drinking > restaurant > mexican restaurant > taco restaurant,1
53911f8a498e4fea487b6234,Cabo Grill,21.15640033344562,-101.69618546962737,Plaza Mayor,León,Guanajuato,37150,,,,MX,2014-06-06,2020-11-26,2018-03-18,477 717 3952,http://ww.cabogrill.com.mx,,551296414980196.0,,cabo_grill,"['4bf58dd8d48988d155941735' '4bf58dd8d48988d151941735'
 '4bf58dd8d48988d1ce941735']","['Dining and Drinking > Restaurant > Gastropub'
 'Dining and Drinking > Restaurant > Mexican Restaurant > Taco Restaurant'
 'Dining and Drinking > Restaurant > Seafood Restaurant']",b'\x00\x00\x00\x00\x01\xc0Yl\x8eM\x7f\xff\xff@5(\t\xda-;\x81',"{'xmin': -101.69618546962737, 'ymin': 21.15640033344562, 'xmax': -101.69618546962737, 'ymax': 21.15640033344562}","dining and drinking > restaurant > gastropub, dining and drinking > restaurant > mexican restaurant > taco restaurant, dining and drinking > restaurant > seafood restaurant",1
4e920299f790648dad796025,Carnes Asadas Al Carbon Leo,20.62373103411322,-103.2864593424261,,Guadalajara,Jalisco,,,,,MX,2011-10-09,2020-11-23,,,,,,,,['4bf58dd8d48988d151941735'],['Dining and Drinking > Restaurant > Mexican Restaurant > Taco Restaurant'],b'\x00\x00\x00\x00\x01\xc0Y\xd2UY\x90\xd6\xa4@4\x9f\xac\xd6I\x04<',"{'xmin': -103.2864593424261, 'ymin': 20.62373103411322, 'xmax': -103.2864593424261, 'ymax': 20.62373103411322}",dining and drinking > restaurant > mexican restaurant > taco restaurant,1
5155374de4b093313cc3eb57,Tacos arandas,20.674301189227677,-101.34859892931486,,,,,,,,MX,2013-03-29,2021-08-11,,,,,,,,['4bf58dd8d48988d151941735'],['Dining and Drinking > Restaurant > Mexican Restaurant > Taco Restaurant'],b'\x00\x00\x00\x00\x01\xc0YVOq\xe24\xfd@4\xac\x9f\x00\xb3c\x04',"{'xmin': -101.34859892931486, 'ymin': 20.674301189227677, 'xmax': -101.34859892931486, 'ymax': 20.674301189227677}",dining and drinking > restaurant > mexican restaurant > taco restaurant,1
5e533638e8f40b0008418390,Taco Garden,21.899617,-102.303557,,Aguascalientes,AGS,20020,,,,MX,2020-02-24,2020-11-26,,,,,,,,['4bf58dd8d48988d151941735'],['Dining and Drinking > Restaurant > Mexican Restaurant > Taco Restaurant'],b'\x00\x00\x00\x00\x01\xc0Y\x93mzV\xde3@5\xe6ML\xb9\xec\xf6',"{'xmin': -102.303557, 'ymin': 21.899617, 'xmax': -102.303557, 'ymax': 21.899617}",dining and drinking > restaurant > mexican restaurant > taco restaurant,1
5726b1e6cd10f80050fab396,Taquería González,21.898657,-102.299053,Av. Convención de 1914 Nte. #804,Aguascalientes,AGS,,,,,MX,2016-05-02,2024-10-05,,,,,,,,['4bf58dd8d48988d151941735'],['Dining and Drinking > Restaurant > Mexican Restaurant > Taco Restaurant'],b'\x00\x00\x00\x00\x01\xc0Y\x93#\xaf1\xb1S@5\xe6\x0eb\x99RL',"{'xmin': -102.299053, 'ymin': 21.898657, 'xmax': -102.299053, 'ymax': 21.898657}",dining and drinking > restaurant > mexican restaurant > taco restaurant,1
4fe21f12e4b0aaff318f1fc9,Taco Fish,20.578086,-101.197372,,,,,,,,MX,2012-06-20,2021-08-11,,,,,,,,['4bf58dd8d48988d151941735'],['Dining and Drinking > Restaurant > Mexican Restaurant > Taco Restaurant'],b'\x00\x00\x00\x00\x01\xc0YL\xa1\xbe+IZ@4\x93\xfdq\xb0F\x84',"{'xmin': -101.197372, 'ymin': 20.578086, 'xmax': -101.197372, 'ymax': 20.578086}",dining and drinking > restaurant > mexican restaurant > taco restaurant,1
5db604e1270fae0007a88f82,Taquiero,20.683303,-101.376582,,Irapuato,GTO,36640,,,,MX,2019-10-27,2020-11-23,,,,,,,,['4bf58dd8d48988d1c1941735' '4bf58dd8d48988d151941735'],"['Dining and Drinking > Restaurant > Mexican Restaurant'
 'Dining and Drinking > Restaurant > Mexican Restaurant > Taco Restaurant']",b'\x00\x00\x00\x00\x01\xc0YX\x19\xebc\x90\xc9@4\xae\xec\xf2\x06B9',"{'xmin': -101.376582, 'ymin': 20.683303, 'xmax': -101.376582, 'ymax': 20.683303}","dining and drinking > restaurant > mexican restaurant, dining and drinking > restaurant > mexican restaurant > taco restaurant",1
5df84e053c510b00088602be,Tacos Dr. Porky,21.4972,-104.89717,,Tepic,Nayarit,63158,,,,MX,2019-12-17,2020-11-23,,,,,,,,['4bf58dd8d48988d151941735'],['Dining and Drinking > Restaurant > Mexican Restaurant > Taco Restaurant'],b'\x00\x00\x00\x00\x01\xc0Z9k;\xb8<\xf3@5\x7fH\x7f\xcb\x92:',"{'xmin': -104.89717, 'ymin': 21.4972, 'xmax': -104.89717, 'ymax': 21.4972}",dining and drinking > restaurant > mexican restaurant > taco restaurant,1
52f2768711d2055a7d5568ce,La Purísima,20.547147696883858,-100.80967689180163,,,,,,,,MX,2014-02-05,2021-08-14,,,,,,,,['4bf58dd8d48988d151941735'],['Dining and Drinking > Restaurant > Mexican Restaurant > Taco Restaurant'],b'\x00\x00\x00\x00\x01\xc0Y3\xd1\xbf\x06\xa7[@4\x8c\x11\xdf\x182\xa9',"{'xmin': -100.80967689180163, 'ymin': 20.547147696883858, 'xmax': -100.80967689180163, 'ymax': 20.547147696883858}",dining and drinking > restaurant > mexican restaurant > taco restaurant,1
4e8e0b58d22d11e244828ab4,Tortas Del Wero,22.128825426451375,-100.99377436449474,,San Luis Potosí,San Luis Potosí,,,,,MX,2011-10-06,2020-11-24,,,,,,,,['4bf58dd8d48988d151941735'],['Dining and Drinking > Restaurant > Mexican Restaurant > Taco Restaurant'],b'\x00\x00\x00\x00\x01\xc0Y?\x99\xff\xca\xc6\xeb@6 \xfa\xb4\x01\x80}',"{'xmin': -100.99377436449474, 'ymin': 22.128825426451375, 'xmax': -100.99377436449474, 'ymax': 22.128825426451375}",dining and drinking > restaurant > mexican restaurant > taco restaurant,1
4e212da888774a43b7679241,Super Tacos Aguilera,20.57447864487283,-101.21106514889335,Morelos,Salamanca,Guanajuato,,,,,MX,2011-07-16,2023-12-20,,464 647 5148,,,,,,['4bf58dd8d48988d151941735'],['Dining and Drinking > Restaurant > Mexican Restaurant > Taco Restaurant'],b'\x00\x00\x00\x00\x01\xc0YM\x82\x17e\xf4\xa1@4\x93\x11\x08O\xfa\xad',"{'xmin': -101.21106514889335, 'ymin': 20.57447864487283, 'xmax': -101.21106514889335, 'ymax': 20.57447864487283}",dining and drinking > restaurant > mexican restaurant > taco restaurant,1
4ca75aebb7106dcbb60967a5,"Barbacoa ""El Hijín""",20.679453425878737,-101.3634536786021,,,,,,,,MX,2010-10-02,2021-08-15,,,,,,,,['4bf58dd8d48988d151941735'],['Dining and Drinking > Restaurant > Mexican Restaurant > Taco Restaurant'],b'\x00\x00\x00\x00\x01\xc0YWB\xd37\xcd>@4\xad\xf0\xa8\xe3M\xe9',"{'xmin': -101.3634536786021, 'ymin': 20.679453425878737, 'xmax': -101.3634536786021, 'ymax': 20.679453425878737}",dining and drinking > restaurant > mexican restaurant > taco restaurant,1
5a518e5f628c834eca7018c8,Los Marquez,21.117388,-101.65123,Totonacas 103 oriente,León,Guanajuato,37270,,,,MX,2018-01-07,2020-11-24,,,,,,,,['4bf58dd8d48988d151941735'],['Dining and Drinking > Restaurant > Mexican Restaurant > Taco Restaurant'],b'\x00\x00\x00\x00\x01\xc0Yi\xad\xc0\x98\x0b$@5\x1e\r#\xd4\xf1^',"{'xmin': -101.65123, 'ymin': 21.117388, 'xmax': -101.65123, 'ymax': 21.117388}",dining and drinking > restaurant > mexican restaurant > taco restaurant,1
5c2fdf6a12f0a9002c3f36d3,Bufetaco,21.856726,-102.30642,Belisario Domínguez,Aguascalientes,Aguascalientes,20288,,,,MX,2019-01-04,2020-11-24,,,,,,,,['4bf58dd8d48988d151941735'],['Dining and Drinking > Restaurant > Mexican Restaurant > Taco Restaurant'],"b""\x00\x00\x00\x00\x01\xc0Y\x93\x9cb\xa1\xb5\xc8@5\xdbRe'\xa2\x05""","{'xmin': -102.30642, 'ymin': 21.856726, 'xmax': -102.30642, 'ymax': 21.856726}",dining and drinking > restaurant > mexican restaurant > taco restaurant,1
576585f5498ea13a2a1d809b,Tacos de barbacoa El Richard,21.872576,-102.270949,,,,,,,,MX,2016-06-18,2021-08-16,,,,,,,,['4bf58dd8d48988d151941735'],['Dining and Drinking > Restaurant > Mexican Restaurant > Taco Restaurant'],b'\x00\x00\x00\x00\x01\xc0Y\x91W:yx\x92@5\xdfa$\x07FE',"{'xmin': -102.270949, 'ymin': 21.872576, 'xmax': -102.270949, 'ymax': 21.872576}",dining and drinking > restaurant > mexican restaurant > taco restaurant,1
532fa816498e4f722dd3e2ef,Ricos tacos Juventino,20.614879608154297,-103.06761932373047,flores magon 25,,,,,,,MX,2014-03-24,2021-08-17,,,,,,,,"['4bf58dd8d48988d151941735' '4bf58dd8d48988d108941735'
 '4bf58dd8d48988d154941735']","['Dining and Drinking > Restaurant > Mexican Restaurant > Taco Restaurant'
 'Dining and Drinking > Restaurant > Dumpling Restaurant'
 'Dining and Drinking > Restaurant > Caribbean Restaurant > Cuban Restaurant']",b'\x00\x00\x00\x00\x01\xc0Y\xc4S\xe0\x00\x00\x00@4\x9dh\xc0\x00\x00\x00',"{'xmin': -103.06761932373047, 'ymin': 20.614879608154297, 'xmax': -103.06761932373047, 'ymax': 20.614879608154297}","dining and drinking > restaurant > mexican restaurant > taco restaurant, dining and drinking > restaurant > dumpling restaurant, dining and drinking > restaurant > caribbean restaurant > cuban restaurant",1
51849e04498e089493423ce2,RT,21.895910880230794,-102.31679131590369,,,,,,,,MX,2013-05-04,2021-08-10,,,,,,,,['4bf58dd8d48988d151941735'],['Dining and Drinking > Restaurant > Mexican Restaurant > Taco Restaurant'],b'\x00\x00\x00\x00\x01\xc0Y\x94FO\x15]\xa4@5\xe5ZjZ\xb8\xca',"{'xmin': -102.31679131590369, 'ymin': 21.895910880230794, 'xmax': -102.31679131590369, 'ymax': 21.895910880230794}",dining and drinking > restaurant > mexican restaurant > taco restaurant,1
4fba5ef4e4b0eabae5f7bb64,Tacos La Cañada,21.15252287739879,-101.72007252729215,,Leon,,,,,,MX,2012-05-21,2020-11-25,,,,,,,,['4bf58dd8d48988d151941735'],['Dining and Drinking > Restaurant > Mexican Restaurant > Taco Restaurant'],"b""\x00\x00\x00\x00\x01\xc0Yn\x15\xab\x14\xdd\xf1@5'\x0b\xbdBQ\xd3""","{'xmin': -101.72007252729215, 'ymin': 21.15252287739879, 'xmax': -101.72007252729215, 'ymax': 21.15252287739879}",dining and drinking > restaurant > mexican restaurant > taco restaurant,1
51203d75e4b027f37923f529,Antojitos Gama,21.010902404785156,-101.248046875,,,,,,,,MX,2013-02-17,2023-12-21,,473 731 0162,,gama@hotmail.com,,,,['4bf58dd8d48988d151941735'],['Dining and Drinking > Restaurant > Mexican Restaurant > Taco Restaurant'],b'\x00\x00\x00\x00\x01\xc0YO\xe0\x00\x00\x00\x00@5\x02\xca\x80\x00\x00\x00',"{'xmin': -101.248046875, 'ymin': 21.010902404785156, 'xmax': -101.248046875, 'ymax': 21.010902404785156}",dining and drinking > restaurant > mexican restaurant > taco restaurant,1
633cede3d10ad952fa823535,Taquería “El Güero”,21.100847,-101.647746,,León,Guanajuato,37530,,,,MX,2022-10-05,2022-10-05,,,,,,,,['4bf58dd8d48988d151941735'],['Dining and Drinking > Restaurant > Mexican Restaurant > Taco Restaurant'],b'\x00\x00\x00\x00\x01\xc0Yit\xab\xa3\x87Y@5\x19\xd1\x1b\xe6\xe6T',"{'xmin': -101.647746, 'ymin': 21.100847, 'xmax': -101.647746, 'ymax': 21.100847}",dining and drinking > restaurant > mexican restaurant > taco restaurant,1
5178a9dfe4b02bca8fae41cf,TAQUERIA ARANDAS,20.679620246993007,-103.42112560117471,,,,,,,,MX,2013-04-25,2021-08-12,,,,,,,,['4bf58dd8d48988d1c1941735' '4bf58dd8d48988d151941735'],"['Dining and Drinking > Restaurant > Mexican Restaurant'
 'Dining and Drinking > Restaurant > Mexican Restaurant > Taco Restaurant']",b'\x00\x00\x00\x00\x01\xc0Y\xda\xf3\xb8\xcb#p@4\xad\xfb\x97\xae\x88\xcf',"{'xmin': -103.42112560117471, 'ymin': 20.679620246993007, 'xmax': -103.42112560117471, 'ymax': 20.679620246993007}","dining and drinking > restaurant > mexican restaurant, dining and drinking > restaurant > mexican restaurant > taco restaurant",1
6573d94e603f0939628968ac,A Takear!,20.517655,-100.790728,,Celaya,Gto.,38080,,,,MX,2023-12-09,2023-12-09,,,,,,,,['4bf58dd8d48988d151941735'],['Dining and Drinking > Restaurant > Mexican Restaurant > Taco Restaurant'],b'\x00\x00\x00\x00\x01\xc0Y2\x9bI\x9d\x02\x04@4\x84\x85\t\xbf\x9cc',"{'xmin': -100.790728, 'ymin': 20.517655, 'xmax': -100.790728, 'ymax': 20.517655}",dining and drinking > restaurant > mexican restaurant > taco restaurant,1
5a26fd36acb00b1283af2cb2,Tacos el Mochi,20.760965516897862,-103.43922972679138,Base aerea 465c,Zapopan,Jalisco,45138,,,,MX,2017-12-05,2020-11-23,,33 1445 4512,,,,,,['4bf58dd8d48988d151941735'],['Dining and Drinking > Restaurant > Mexican Restaurant > Taco Restaurant'],b'\x00\x00\x00\x00\x01\xc0Y\xdc\x1cW\x00\x00\x00@4\xc2\xce\xa2\xd8u\xc6',"{'xmin': -103.43922972679138, 'ymin': 20.760965516897862, 'xmax': -103.43922972679138, 'ymax': 20.760965516897862}",dining and drinking > restaurant > mexican restaurant > taco restaurant,1
5af3bd7089ad46002418edc1,Taquería Los Aza-Eles,29.905941,-112.68433,,Puerto Libertad,Sonora,,,,,MX,2018-05-10,2020-11-30,,,,,,,,['4bf58dd8d48988d151941735'],['Dining and Drinking > Restaurant > Mexican Restaurant > Taco Restaurant'],b'\x00\x00\x00\x00\x01\xc0\\+\xcc\x10\x0ej\xfd@=\xe7\xeb\xbf\xd7\x1b\x04',"{'xmin': -112.68433, 'ymin': 29.905941, 'xmax': -112.68433, 'ymax': 29.905941}",dining and drinking > restaurant > mexican restaurant > taco restaurant,1
5233e39b498e03427ebcf166,Los Camineros,21.101637,-101.640168,,,,,,,,MX,2013-09-14,2021-08-15,,,,,,,,['4bf58dd8d48988d151941735'],['Dining and Drinking > Restaurant > Mexican Restaurant > Taco Restaurant'],b'\x00\x00\x00\x00\x01\xc0Yh\xf8\x833\xfc\x87@5\x1a\x04\xe1\xe7\x10E',"{'xmin': -101.640168, 'ymin': 21.101637, 'xmax': -101.640168, 'ymax': 21.101637}",dining and drinking > restaurant > mexican restaurant > taco restaurant,1
52aa8b96498e00af85fec1f0,takarvon,21.116058773815347,-101.63127951824472,La luz,"Leon, GTO",Guanajuato,37280,,,,MX,2013-12-13,2020-11-25,,,,,,,,['4bf58dd8d48988d151941735'],['Dining and Drinking > Restaurant > Mexican Restaurant > Taco Restaurant'],b'\x00\x00\x00\x00\x01\xc0Yhf\xe25_\xba@5\x1d\xb6\x07\x1d\xf3f',"{'xmin': -101.63127951824472, 'ymin': 21.116058773815347, 'xmax': -101.63127951824472, 'ymax': 21.116058773815347}",dining and drinking > restaurant > mexican restaurant > taco restaurant,1
507786d6e4b0c316860e8c62,Chalo's Taco,20.750910684383896,-103.3687834460353,calzada del vergel 215,zapopan,jalisco,45180,,,,MX,2012-10-12,2020-11-25,,33 3368 0805,,,486465811412989.0,,chalostaco,['4bf58dd8d48988d14e941735' '4bf58dd8d48988d151941735'],"['Dining and Drinking > Restaurant > American Restaurant'
 'Dining and Drinking > Restaurant > Mexican Restaurant > Taco Restaurant']",b'\x00\x00\x00\x00\x01\xc0Y\xd7\x9a%\xe2\x01\xc7@4\xc0;\xae\xbf\xa5T',"{'xmin': -103.3687834460353, 'ymin': 20.750910684383896, 'xmax': -103.3687834460353, 'ymax': 20.750910684383896}","dining and drinking > restaurant > american restaurant, dining and drinking > restaurant > mexican restaurant > taco restaurant",1
504b7230e4b0d1cf33a6fa9a,Los Sopes Del Pueblo,19.675612,-101.189205,,,,,,,,MX,2012-09-08,2021-08-15,,,,,,,,['4bf58dd8d48988d151941735'],['Dining and Drinking > Restaurant > Mexican Restaurant > Taco Restaurant'],b'\x00\x00\x00\x00\x01\xc0YL\x1b\xefI\xcfW@3\xac\xf4\xe8t\xc9\x00',"{'xmin': -101.189205, 'ymin': 19.675612, 'xmax': -101.189205, 'ymax': 19.675612}",dining and drinking > restaurant > mexican restaurant > taco restaurant,1
59ce76d56f706a3692086468,Tacos Don Chuy 2,22.136806,-100.94584,,San Luis Potosí,San Luis Potosí,,,,,MX,2017-09-29,2020-11-30,,,,,,,,['4bf58dd8d48988d151941735'],['Dining and Drinking > Restaurant > Mexican Restaurant > Taco Restaurant'],b'\x00\x00\x00\x00\x01\xc0Y<\x88\xa4~\xcf\xea@6#\x05\xb7\xcf\xe5\x86',"{'xmin': -100.94584, 'ymin': 22.136806, 'xmax': -100.94584, 'ymax': 22.136806}",dining and drinking > restaurant > mexican restaurant > taco restaurant,1
5726cd3c498eb1720f580642,tacos el yayo,20.469978,-101.61785,Estación De Corralejo,,,,,,,MX,2016-05-02,2020-11-25,,,,,,,,['4bf58dd8d48988d151941735'],['Dining and Drinking > Restaurant > Mexican Restaurant > Taco Restaurant'],b'\x00\x00\x00\x00\x01\xc0Yg\x8a\xda\xb9\xf5Z@4xPzk\xd6\xe9',"{'xmin': -101.61785, 'ymin': 20.469978, 'xmax': -101.61785, 'ymax': 20.469978}",dining and drinking > restaurant > mexican restaurant > taco restaurant,1
558216c6498ebf2e892252d0,"Taqueria ""La Cabaña del Pastor""",19.678833370444597,-101.31581658329235,,,,,,,,MX,2015-06-18,2020-11-23,,,,,,,,['4bf58dd8d48988d151941735'],['Dining and Drinking > Restaurant > Mexican Restaurant > Taco Restaurant'],b'\x00\x00\x00\x00\x01\xc0YT6V\xc21\x9b@3\xad\xc8\x06\x15~5',"{'xmin': -101.31581658329235, 'ymin': 19.678833370444597, 'xmax': -101.31581658329235, 'ymax': 19.678833370444597}",dining and drinking > restaurant > mexican restaurant > taco restaurant,1
6169dda221a00f4f8b59490a,Tacos La Ezkina,20.687168,-103.35288,mezquitan 702,Guadalajara,Jalisco,44200,,,,MX,2021-10-15,2021-10-15,,,,,,,,['4bf58dd8d48988d151941735'],['Dining and Drinking > Restaurant > Mexican Restaurant > Taco Restaurant'],b'\x00\x00\x00\x00\x01\xc0Y\xd6\x95\x95\xfe\xdaf@4\xaf\xea=\xf6\xdb\x94',"{'xmin': -103.35288, 'ymin': 20.687168, 'xmax': -103.35288, 'ymax': 20.687168}",dining and drinking > restaurant > mexican restaurant > taco restaurant,1
5144c09ee4b0ab7c8f72da8a,Tacos Paco,20.655643,-103.453196,,,,,,,,MX,2013-03-16,2021-08-15,,,,,,,,['4bf58dd8d48988d151941735'],['Dining and Drinking > Restaurant > Mexican Restaurant > Taco Restaurant'],b'\x00\x00\x00\x00\x01\xc0Y\xdd\x01)\xcb\xabe@4\xa7\xd88:\xd9\xf1',"{'xmin': -103.453196, 'ymin': 20.655643, 'xmax': -103.453196, 'ymax': 20.655643}",dining and drinking > restaurant > mexican restaurant > taco restaurant,1
5b7a305dda2e00002c4408e6,La Jambadería,21.956897,-102.346666,Prol. Iturbide 402,Jesús María,AGS,20926,,,,MX,2018-08-20,2020-11-22,,,,,,,,['4bf58dd8d48988d151941735' '4bf58dd8d48988d16c941735'],"['Dining and Drinking > Restaurant > Mexican Restaurant > Taco Restaurant'
 'Dining and Drinking > Restaurant > Burger Joint']",b'\x00\x00\x00\x00\x01\xc0Y\x96/\xc6\x97(\xa6@5\xf4\xf73\xa8\xa3\xf9',"{'xmin': -102.346666, 'ymin': 21.956897, 'xmax': -102.346666, 'ymax': 21.956897}","dining and drinking > restaurant > mexican restaurant > taco restaurant, dining and drinking > restaurant > burger joint",1
4c6783d8f7a80f473d88a17a,Taquería El Gallito,22.16319612588521,-100.98855777822214,,,,,,,,MX,2010-08-15,2021-08-11,,,,,,,,['4bf58dd8d48988d151941735'],['Dining and Drinking > Restaurant > Mexican Restaurant > Taco Restaurant'],b'\x00\x00\x00\x00\x01\xc0Y?D\x87\xd7\xea\xea@6)\xc78\xa7\x82\xc9',"{'xmin': -100.98855777822214, 'ymin': 22.16319612588521, 'xmax': -100.98855777822214, 'ymax': 22.16319612588521}",dining and drinking > restaurant > mexican restaurant > taco restaurant,1
506f1416e4b0dd0f47d2ce21,"Tacos De Canasta ""El Portal""",20.676235982842122,-103.34706186299101,,Guadalajara,,,,,,MX,2012-10-05,2021-08-16,,,,,,,,['4bf58dd8d48988d151941735'],['Dining and Drinking > Restaurant > Mexican Restaurant > Taco Restaurant'],b'\x00\x00\x00\x00\x01\xc0Y\xd66B\xf5\xcf\x0e@4\xad\x1d\xcd&\xafr',"{'xmin': -103.34706186299101, 'ymin': 20.676235982842122, 'xmax': -103.34706186299101, 'ymax': 20.676235982842122}",dining and drinking > restaurant > mexican restaurant > taco restaurant,1
4dddc77fae60c6eb2a4d0fb1,Flautas de con la Martina,20.693500201111522,-103.29138451325137,,Guadalajara,JAL,,,,,MX,2011-05-26,2021-08-12,,,,,,,,['4bf58dd8d48988d151941735'],['Dining and Drinking > Restaurant > Mexican Restaurant > Taco Restaurant'],b'\x00\x00\x00\x00\x01\xc0Y\xd2\xa6\x0b:\xbeo@4\xb1\x89:\xab\x8b\x1d',"{'xmin': -103.29138451325137, 'ymin': 20.693500201111522, 'xmax': -103.29138451325137, 'ymax': 20.693500201111522}",dining and drinking > restaurant > mexican restaurant > taco restaurant,1
5290d398498e2f2a50b5db68,Taristaco,19.109771728515625,-104.32059478759766,,,,,,,,MX,2013-11-23,2021-08-15,,,,,,,,['4bf58dd8d48988d151941735'],['Dining and Drinking > Restaurant > Mexican Restaurant > Taco Restaurant'],b'\x00\x00\x00\x00\x01\xc0Z\x14\x84\xa0\x00\x00\x00@3\x1c\x1a\x00\x00\x00\x00',"{'xmin': -104.32059478759766, 'ymin': 19.109771728515625, 'xmax': -104.32059478759766, 'ymax': 19.109771728515625}",dining and drinking > restaurant > mexican restaurant > taco restaurant,1
5bc2b1b06bdee6002c0d5151,Tacos De Tripa La Pasión,21.119563,-101.672337,Calle Del Progreso,León,GTO,37000,,,,MX,2018-10-14,2020-11-22,,,,,,,,['4bf58dd8d48988d151941735'],['Dining and Drinking > Restaurant > Mexican Restaurant > Taco Restaurant'],b'\x00\x00\x00\x00\x01\xc0Yk\x07\x91\xc4\xb9\x02@5\x1e\x9b\xaeF\xcf\xc8',"{'xmin': -101.672337, 'ymin': 21.119563, 'xmax': -101.672337, 'ymax': 21.119563}",dining and drinking > restaurant > mexican restaurant > taco restaurant,1
4f493db9e4b0e7e90f91b9d6,Puro Sinaloa Micheladas Y Mariscos,20.626829718741288,-103.4658000572384,,,,,,,,MX,2012-02-25,2021-08-17,,,,,,,,['4bf58dd8d48988d151941735'],['Dining and Drinking > Restaurant > Mexican Restaurant > Taco Restaurant'],"b""\x00\x00\x00\x00\x01\xc0Y\xdd\xcf\xab\x0b\x14\x16@4\xa0w\xe9\x96'\x9b""","{'xmin': -103.4658000572384, 'ymin': 20.626829718741288, 'xmax': -103.4658000572384, 'ymax': 20.626829718741288}",dining and drinking > restaurant > mexican restaurant > taco restaurant,1
4d27f4bfebacb1f7b4bdec4f,Tacos Joaquin,20.654251,-103.42913,,,,,,,,MX,2011-01-08,2021-08-11,,,,,,,,['4bf58dd8d48988d151941735'],['Dining and Drinking > Restaurant > Mexican Restaurant > Taco Restaurant'],b'\x00\x00\x00\x00\x01\xc0Y\xdbv\xdd\xac\xee\xe1@4\xa7|\xfeX`\x13',"{'xmin': -103.42913, 'ymin': 20.654251, 'xmax': -103.42913, 'ymax': 20.654251}",dining and drinking > restaurant > mexican restaurant > taco restaurant,1
52af3f7511d22a86ff1639d5,tacos EL GÜERO,20.67208452345501,-103.27501979177926,,,,,,,,MX,2013-12-16,2021-08-16,,,,,,,,['4bf58dd8d48988d151941735'],['Dining and Drinking > Restaurant > Mexican Restaurant > Taco Restaurant'],b'\x00\x00\x00\x00\x01\xc0Y\xd1\x99\xec\x9c\xdcu@4\xac\r\xbb8c\x13',"{'xmin': -103.27501979177926, 'ymin': 20.67208452345501, 'xmax': -103.27501979177926, 'ymax': 20.67208452345501}",dining and drinking > restaurant > mexican restaurant > taco restaurant,1
50e22d68e4b0a3665929b380,Date tu tako,20.52443666493761,-100.7960909466664,María Dominga 805,Celaya,Guanajuato,38080,,,,MX,2013-01-01,2020-11-30,,461 612 6022,,,,,,['4bf58dd8d48988d151941735'],['Dining and Drinking > Restaurant > Mexican Restaurant > Taco Restaurant'],"b""\x00\x00\x00\x00\x01\xc0Y2\xf3'q$\xba@4\x86A{4\xba\xf8""","{'xmin': -100.7960909466664, 'ymin': 20.52443666493761, 'xmax': -100.7960909466664, 'ymax': 20.52443666493761}",dining and drinking > restaurant > mexican restaurant > taco restaurant,1
4f2d6a8ae4b07ca3152f45a4,Tacos de barbacoa Pedro's,20.673942063382203,-103.2872426860459,Pablo Valdez No. 3327,Guadalajara,Jalisco,,,,,MX,2012-02-04,2021-08-12,,,,,,,,['4bf58dd8d48988d151941735'],['Dining and Drinking > Restaurant > Mexican Restaurant > Taco Restaurant'],b'\x00\x00\x00\x00\x01\xc0Y\xd2b/%\xa5E@4\xac\x87w\x91\xa0\x15',"{'xmin': -103.2872426860459, 'ymin': 20.673942063382203, 'xmax': -103.2872426860459, 'ymax': 20.673942063382203}",dining and drinking > restaurant > mexican restaurant > taco restaurant,1
4f05d90b61af9d3db92bf597,Birria El Refugio,20.727412042405785,-103.42379000367468,Santa Esther 541,"Los Girasoles, Zapopan",Jalisco,45138,,,,MX,2012-01-05,2023-12-19,,33 3685 5325,,,,,,['4bf58dd8d48988d1c1941735' '4bf58dd8d48988d151941735'],"['Dining and Drinking > Restaurant > Mexican Restaurant'
 'Dining and Drinking > Restaurant > Mexican Restaurant > Taco Restaurant']",b'\x00\x00\x00\x00\x01\xc0Y\xdb\x1f`\x1b\x89\xe3@4\xba7\xac\xf4\xd9s',"{'xmin': -103.42379000367468, 'ymin': 20.727412042405785, 'xmax': -103.42379000367468, 'ymax': 20.727412042405785}","dining and drinking > restaurant > mexican restaurant, dining and drinking > restaurant > mexican restaurant > taco restaurant",1
562bb7dc498e02e8accd592c,Taqueria los 2 compadres,20.716006,-103.353735,,,,,,,,MX,2015-10-24,2021-08-15,,,,,,,,['4bf58dd8d48988d151941735'],['Dining and Drinking > Restaurant > Mexican Restaurant > Taco Restaurant'],b'\x00\x00\x00\x00\x01\xc0Y\xd6\xa3\x98 \x1c\xd6@4\xb7L+Q\xbdb',"{'xmin': -103.353735, 'ymin': 20.716006, 'xmax': -103.353735, 'ymax': 20.716006}",dining and drinking > restaurant > mexican restaurant > taco restaurant,1
5647f07a498ebb7b55616552,Tacos Marina,19.055259,-104.292882,,Manzanillo,Colima,,,,,MX,2015-11-15,2020-11-23,,,,,,,,['4bf58dd8d48988d151941735'],['Dining and Drinking > Restaurant > Mexican Restaurant > Taco Restaurant'],b'\x00\x00\x00\x00\x01\xc0Z\x12\xbe\x94$\xe5\x93@3\x0e%t-\xcfF',"{'xmin': -104.292882, 'ymin': 19.055259, 'xmax': -104.292882, 'ymax': 19.055259}",dining and drinking > restaurant > mexican restaurant > taco restaurant,1
4e9f9bb6e5fa13c70e3089f8,Las Pastorelas,20.613469072961216,-103.34984242462876,,Tlaquepaque,Jalisco,,,,,MX,2011-10-20,2021-08-11,,,,,,,,['4bf58dd8d48988d151941735'],['Dining and Drinking > Restaurant > Mexican Restaurant > Taco Restaurant'],"b'\x00\x00\x00\x00\x01\xc0Y\xd6c\xd1{""+@4\x9d\x0cO%y\xd2'","{'xmin': -103.34984242462876, 'ymin': 20.613469072961216, 'xmax': -103.34984242462876, 'ymax': 20.613469072961216}",dining and drinking > restaurant > mexican restaurant > taco restaurant,1
644c9cb896adb857782e8483,Tacos Los Guerrero,21.123827,-101.61777,,León,Guanajuato,,,,,MX,2023-04-29,2023-04-29,,,,,,,,['4bf58dd8d48988d151941735'],['Dining and Drinking > Restaurant > Mexican Restaurant > Taco Restaurant'],b'\x00\x00\x00\x00\x01\xc0Yg\x89\x8b.\x9c\xcb@5\x1f\xb3 S\\\x9e',"{'xmin': -101.61777, 'ymin': 21.123827, 'xmax': -101.61777, 'ymax': 21.123827}",dining and drinking > restaurant > mexican restaurant > taco restaurant,1
52bd0958498eb7566a01c86b,Tacos Reyes,21.022207260131836,-101.86231994628906,Blvrd. Josefa Ortiz De Dominguez,San Francisco Del Rincon,Guanajuato,36300,,,,MX,2013-12-27,2020-11-23,,,,,,,,['4bf58dd8d48988d151941735'],['Dining and Drinking > Restaurant > Mexican Restaurant > Taco Restaurant'],b'\x00\x00\x00\x00\x01\xc0Yw0@\x00\x00\x00@5\x05\xaf`\x00\x00\x00',"{'xmin': -101.86231994628906, 'ymin': 21.022207260131836, 'xmax': -101.86231994628906, 'ymax': 21.022207260131836}",dining and drinking > restaurant > mexican restaurant > taco restaurant,1
4eec1dc49911d70cb64f60f9,Taquería Chepe,20.731920387248636,-103.40744698032549,Periférico,,,,,,,MX,2011-12-17,2021-08-14,,,,,,,,['4bf58dd8d48988d151941735'],['Dining and Drinking > Restaurant > Mexican Restaurant > Taco Restaurant'],"b'\x00\x00\x00\x00\x01\xc0Y\xda\x13\x9c\x7f\xd6\x86@4\xbb_""n\x820'","{'xmin': -103.40744698032549, 'ymin': 20.731920387248636, 'xmax': -103.40744698032549, 'ymax': 20.731920387248636}",dining and drinking > restaurant > mexican restaurant > taco restaurant,1
5355462f498e75e2ecabf807,Quesadillas Doña Mary,21.102436898630636,-101.61215277585596,Ivanovo,León De Los Aldama,Guanajuato,,,,,MX,2014-04-21,2023-12-20,,477 780 6667,,,,,,['4bf58dd8d48988d151941735'],['Dining and Drinking > Restaurant > Mexican Restaurant > Taco Restaurant'],b'\x00\x00\x00\x00\x01\xc0Yg-\x82\xd6\x1d?@5\x1a9M\xf9\x85\xb2',"{'xmin': -101.61215277585596, 'ymin': 21.102436898630636, 'xmax': -101.61215277585596, 'ymax': 21.102436898630636}",dining and drinking > restaurant > mexican restaurant > taco restaurant,1
515f981f498e09c179734d79,"Taquería ""El Chile Volador""",20.623767463683386,-103.24641108512877,Av. Tonaltecas,Tonalá,Jalisco,45400,,,,MX,2013-04-06,2020-11-21,,,,,,,,['4bf58dd8d48988d151941735'],['Dining and Drinking > Restaurant > Mexican Restaurant > Taco Restaurant'],b'\x00\x00\x00\x00\x01\xc0Y\xcf\xc52\xff\xff\xff@4\x9f\xaf9x\xd4:',"{'xmin': -103.24641108512877, 'ymin': 20.623767463683386, 'xmax': -103.24641108512877, 'ymax': 20.623767463683386}",dining and drinking > restaurant > mexican restaurant > taco restaurant,1
5205a1d511d20aea3c6ea263,Tacos Don Beto,20.631428,-103.331018,,,,,,,,MX,2013-08-10,2021-08-15,,,,,,,,['4bf58dd8d48988d151941735'],['Dining and Drinking > Restaurant > Mexican Restaurant > Taco Restaurant'],b'\x00\x00\x00\x00\x01\xc0Y\xd5/f\x1f\x18\xca@4\xa1\xa5C\xf1\xc7X',"{'xmin': -103.331018, 'ymin': 20.631428, 'xmax': -103.331018, 'ymax': 20.631428}",dining and drinking > restaurant > mexican restaurant > taco restaurant,1
58c8ba1237da1d1e92611db6,LUNC ES PV,20.643287,-105.23557,,,,,,,,MX,2017-03-15,2021-08-15,,,,,,,,['4bf58dd8d48988d151941735'],['Dining and Drinking > Restaurant > Mexican Restaurant > Taco Restaurant'],b'\x00\x00\x00\x00\x01\xc0ZO\x13\x941z\xcc@4\xa4\xaet\xf2\xf1$',"{'xmin': -105.23557, 'ymin': 20.643287, 'xmax': -105.23557, 'ymax': 20.643287}",dining and drinking > restaurant > mexican restaurant > taco restaurant,1
54125cb0498ed9af9618ce83,Tacos Feyo,20.660337448120117,-105.22537994384766,Caoba,Puerto Vallarta,Jalisco,,,,,MX,2014-09-12,2020-11-23,,,,,,,,['4bf58dd8d48988d151941735'],['Dining and Drinking > Restaurant > Mexican Restaurant > Taco Restaurant'],b'\x00\x00\x00\x00\x01\xc0ZNl\xa0\x00\x00\x00@4\xa9\x0b\xe0\x00\x00\x00',"{'xmin': -105.22537994384766, 'ymin': 20.660337448120117, 'xmax': -105.22537994384766, 'ymax': 20.660337448120117}",dining and drinking > restaurant > mexican restaurant > taco restaurant,1
52010085498e8dd8795f2cbd,Taqueria Jalisco,21.17236,-101.650136,Perdigón 302 Brisas Del Lago,León,Guanajuato,,,,,MX,2013-08-06,2020-11-23,,,,,,,,['4bf58dd8d48988d151941735'],['Dining and Drinking > Restaurant > Mexican Restaurant > Taco Restaurant'],"b'\x00\x00\x00\x00\x01\xc0Yi\x9b\xd4\x06|\xf2@5,\x1f\xc8\xf3#y'","{'xmin': -101.650136, 'ymin': 21.17236, 'xmax': -101.650136, 'ymax': 21.17236}",dining and drinking > restaurant > mexican restaurant > taco restaurant,1
5155d926e4b0331025672095,Taqueria Las Gueras,20.57751,-101.221173,Blvd Rinconada San Pedro,"Salamanca, GTO",,36740,,,,MX,2013-03-29,2020-11-24,,,,,,,,['4bf58dd8d48988d151941735'],['Dining and Drinking > Restaurant > Mexican Restaurant > Taco Restaurant'],"b""\x00\x00\x00\x00\x01\xc0YN'\xb2\xccp\x86@4\x93\xd7\xb2\x03\x1c\xeb""","{'xmin': -101.221173, 'ymin': 20.57751, 'xmax': -101.221173, 'ymax': 20.57751}",dining and drinking > restaurant > mexican restaurant > taco restaurant,1
52b11d61498eaa11d4e1c797,las chaviz,19.091371423025723,-104.29470179708736,,,,,,,,MX,2013-12-18,2021-08-12,,,,,,,,['4bf58dd8d48988d151941735'],['Dining and Drinking > Restaurant > Mexican Restaurant > Taco Restaurant'],b'\x00\x00\x00\x00\x01\xc0Z\x12\xdcd\xed$\x02@3\x17d\x1e\x19\xaf9',"{'xmin': -104.29470179708736, 'ymin': 19.091371423025723, 'xmax': -104.29470179708736, 'ymax': 19.091371423025723}",dining and drinking > restaurant > mexican restaurant > taco restaurant,1
5141edb3e4b091a083c40be4,Tacos de Ollita,20.7383258403184,-103.31245376595594,Volcán Baguyab,Huentitan El Bajó,Jalisco,,,,,MX,2013-03-14,2021-08-11,,,,,,,,['4bf58dd8d48988d151941735'],['Dining and Drinking > Restaurant > Mexican Restaurant > Taco Restaurant'],b'\x00\x00\x00\x00\x01\xc0Y\xd3\xff>\x14\x92\xbd@4\xbd\x02\xec\x19\xf5\x91',"{'xmin': -103.31245376595594, 'ymin': 20.7383258403184, 'xmax': -103.31245376595594, 'ymax': 20.7383258403184}",dining and drinking > restaurant > mexican restaurant > taco restaurant,1
4c52f1c0384c76b03cf9032b,Tacos de Barbacoa Lalo's,20.677699563043006,-103.42143058776855,A las cumbres,Jalisco,zapopan,45020,,,,MX,2010-07-30,2020-11-24,2017-03-23,,,,,,,['4bf58dd8d48988d1c1941735' '4bf58dd8d48988d151941735'],"['Dining and Drinking > Restaurant > Mexican Restaurant'
 'Dining and Drinking > Restaurant > Mexican Restaurant > Taco Restaurant']",b'\x00\x00\x00\x00\x01\xc0Y\xda\xf8\xb8\x00\x00\x00@4\xad}\xb7\xf3\xc8\x80',"{'xmin': -103.42143058776855, 'ymin': 20.677699563043006, 'xmax': -103.42143058776855, 'ymax': 20.677699563043006}","dining and drinking > restaurant > mexican restaurant, dining and drinking > restaurant > mexican restaurant > taco restaurant",1
591271306f706a592427bac8,Tacos Joss,20.750853,-103.37796,Prolongación Parres Arias,Zapopan,Jalisco,45130,,,,MX,2017-05-10,2020-11-25,,,,,,,,['4bf58dd8d48988d151941735'],['Dining and Drinking > Restaurant > Mexican Restaurant > Taco Restaurant'],b'\x00\x00\x00\x00\x01\xc0Y\xd80\x7f#\xcc\x8e@4\xc07\xe6\xf7\x1a~',"{'xmin': -103.37796, 'ymin': 20.750853, 'xmax': -103.37796, 'ymax': 20.750853}",dining and drinking > restaurant > mexican restaurant > taco restaurant,1
59247d9e95a7224c61709727,Los Chguilines,19.243954,-103.74118,Rodolfo Chávez carrillo,Colima,Colima,,,,,MX,2017-05-23,2020-11-24,,,,,,,,['4bf58dd8d48988d151941735'],['Dining and Drinking > Restaurant > Mexican Restaurant > Taco Restaurant'],b'\x00\x00\x00\x00\x01\xc0Y\xefo~=\x1c\xc1@3>s\xc4\xf3\xbaw',"{'xmin': -103.74118, 'ymin': 19.243954, 'xmax': -103.74118, 'ymax': 19.243954}",dining and drinking > restaurant > mexican restaurant > taco restaurant,1
a3c0110706834d1781d152d5,Tacos Lalo,20.694063,-103.331331,Independencia Norte 1316,Guadalajara,Jalisco,44340,,,,MX,2014-06-03,2024-08-21,,33 3609 7341,,,,,,['4bf58dd8d48988d151941735'],['Dining and Drinking > Restaurant > Mexican Restaurant > Taco Restaurant'],b'\x00\x00\x00\x00\x01\xc0Y\xd54\x86\xf0I\xaa@4\xb1\xae\x1c\xde]\x18',"{'xmin': -103.331331, 'ymin': 20.694063, 'xmax': -103.331331, 'ymax': 20.694063}",dining and drinking > restaurant > mexican restaurant > taco restaurant,1
56c750b7498e0e3b43e2f00d,tacos fily,21.139664,-101.683522,,,,,,,,MX,2016-02-19,2021-08-12,,,,,,,,['4bf58dd8d48988d151941735'],['Dining and Drinking > Restaurant > Mexican Restaurant > Taco Restaurant'],b'\x00\x00\x00\x00\x01\xc0Yk\xbe\xd3\x0f\x06-@5#\xc1\x05\x18m\xb5',"{'xmin': -101.683522, 'ymin': 21.139664, 'xmax': -101.683522, 'ymax': 21.139664}",dining and drinking > restaurant > mexican restaurant > taco restaurant,1
5a126818ea1e443ca229cdae,Tacos Pablito,19.091436,-104.300224,,Manzanillo,Colima,28219,,,,MX,2017-11-20,2020-11-22,,,,,,,,['4bf58dd8d48988d151941735'],['Dining and Drinking > Restaurant > Mexican Restaurant > Taco Restaurant'],b'\x00\x00\x00\x00\x01\xc0Z\x136\xde\xb9^[@3\x17hY\x85\xadT',"{'xmin': -104.300224, 'ymin': 19.091436, 'xmax': -104.300224, 'ymax': 19.091436}",dining and drinking > restaurant > mexican restaurant > taco restaurant,1
4fa00cc3e4b0a379240a4a66,"Tacos ""El Cholo""",21.894438,-102.312239,Pedro García Rojas,,,,,,,MX,2012-05-01,2021-08-15,,,,,,,,['4bf58dd8d48988d151941735'],['Dining and Drinking > Restaurant > Mexican Restaurant > Taco Restaurant'],b'\x00\x00\x00\x00\x01\xc0Y\x93\xfb\xb9IbJ@5\xe4\xf9\xe3\x86L\xb6',"{'xmin': -102.312239, 'ymin': 21.894438, 'xmax': -102.312239, 'ymax': 21.894438}",dining and drinking > restaurant > mexican restaurant > taco restaurant,1
66fce3a6da437455453dcf8f,Mr. Barbas Tacos 100% Sinaloense,20.65042,-103.41963,Av Moctezuma,Zapopan,Jalisco,45054,,,,MX,2024-10-02,2024-10-02,,,,,,,,['4bf58dd8d48988d151941735'],['Dining and Drinking > Restaurant > Mexican Restaurant > Taco Restaurant'],b'\x00\x00\x00\x00\x01\xc0Y\xda\xdb7\xc9\x9a\xe9@4\xa6\x81\xec\xd4\xaa\x11',"{'xmin': -103.41963, 'ymin': 20.65042, 'xmax': -103.41963, 'ymax': 20.65042}",dining and drinking > restaurant > mexican restaurant > taco restaurant,1
4ec33ff2722e5b8e03d40298,Tacos El Cuñado,21.92212196278097,-102.27701298509389,Adoratrices esq. Pozo Bravo,Aguascalientes,Aguascalientes,,,,,MX,2011-11-16,2020-11-26,,,,,,,,['4bf58dd8d48988d151941735'],['Dining and Drinking > Restaurant > Mexican Restaurant > Taco Restaurant'],b'\x00\x00\x00\x00\x01\xc0Y\x91\xba\x94\xab\xe2\xeb@5\xec\x10/Y\x11N',"{'xmin': -102.27701298509389, 'ymin': 21.92212196278097, 'xmax': -102.27701298509389, 'ymax': 21.92212196278097}",dining and drinking > restaurant > mexican restaurant > taco restaurant,1
518bd7e3498e04ef5db707fc,El Banquetazo,21.06095785049694,-101.57680293202377,,León,Guanajuato,,,,,MX,2013-05-09,2020-11-30,,,,,,,,['4bf58dd8d48988d151941735'],['Dining and Drinking > Restaurant > Mexican Restaurant > Taco Restaurant'],b'\x00\x00\x00\x00\x01\xc0Yd\xeaV\xd8Q\xdb@5\x0f\x9a\xef\x06Q\x9e',"{'xmin': -101.57680293202377, 'ymin': 21.06095785049694, 'xmax': -101.57680293202377, 'ymax': 21.06095785049694}",dining and drinking > restaurant > mexican restaurant > taco restaurant,1
4cf713aae308236a91f3e9ac,Taqueria duran,20.62528173875125,-103.39149873346848,Isla zanzibar 4024,Guadalajara,JAL,,,,,MX,2010-12-02,2021-08-16,,,,,,,,['4bf58dd8d48988d151941735'],['Dining and Drinking > Restaurant > Mexican Restaurant > Taco Restaurant'],b'\x00\x00\x00\x00\x01\xc0Y\xd9\x0eP\xb4+\x0b@4\xa0\x12v\xca\xb8\xff',"{'xmin': -103.39149873346848, 'ymin': 20.62528173875125, 'xmax': -103.39149873346848, 'ymax': 20.62528173875125}",dining and drinking > restaurant > mexican restaurant > taco restaurant,1
5623c578498efb1e91136fac,Quesadillas Tita,21.166526794433594,-101.66182708740234,,,,,,,,MX,2015-10-18,2021-08-15,,,,,,,,['4bf58dd8d48988d151941735'],['Dining and Drinking > Restaurant > Mexican Restaurant > Taco Restaurant'],b'\x00\x00\x00\x00\x01\xc0Yj[`\x00\x00\x00@5*\xa1\x80\x00\x00\x00',"{'xmin': -101.66182708740234, 'ymin': 21.166526794433594, 'xmax': -101.66182708740234, 'ymax': 21.166526794433594}",dining and drinking > restaurant > mexican restaurant > taco restaurant,1
4eb0c9bd61afbb09a01a37d9,"Tacos ""Gaby""",20.389607434982246,-101.17537055481472,,Valle de Santiago,Guanajuato,,,,,MX,2011-11-02,2020-11-24,,,,,,,,['4bf58dd8d48988d151941735'],['Dining and Drinking > Restaurant > Mexican Restaurant > Taco Restaurant'],b'\x00\x00\x00\x00\x01\xc0YK9Ekg\x14@4c\xbdP\x17\x86\xf6',"{'xmin': -101.17537055481472, 'ymin': 20.389607434982246, 'xmax': -101.17537055481472, 'ymax': 20.389607434982246}",dining and drinking > restaurant > mexican restaurant > taco restaurant,1
59bc8735da5ede2141f92f03,Taqueria El Nopal,20.728857,-100.759506,Calle Cuahutemoc 40B,Comonfort,GTO,38204,,,,MX,2017-09-16,2020-11-22,,,,,,,,['4bf58dd8d48988d151941735'],['Dining and Drinking > Restaurant > Mexican Restaurant > Taco Restaurant'],b'\x00\x00\x00\x00\x01\xc0Y0\x9b\xbf\r\xc7i@4\xba\x96_Ru\xef',"{'xmin': -100.759506, 'ymin': 20.728857, 'xmax': -100.759506, 'ymax': 20.728857}",dining and drinking > restaurant > mexican restaurant > taco restaurant,1
5006ffd1e4b0f3e2a2504b49,Tortas ahogadas las Sabrosas o Tortas Marisol,20.729307,-103.420938,Av. Acueducto,Zapopan,Jalisco,45140,,,,MX,2012-07-18,2020-11-30,,,,,,,,['4bf58dd8d48988d151941735'],['Dining and Drinking > Restaurant > Mexican Restaurant > Taco Restaurant'],b'\x00\x00\x00\x00\x01\xc0Y\xda\xf0\xa5\xef\xe92@4\xba\xb3\xdd\x11\xben',"{'xmin': -103.420938, 'ymin': 20.729307, 'xmax': -103.420938, 'ymax': 20.729307}",dining and drinking > restaurant > mexican restaurant > taco restaurant,1
5928efa2f62e0970eb2d597a,Taquito Y Mezcal,19.68761,-101.191826,Morelos Sur,Morelia,MICH,58070,,,,MX,2017-05-27,2020-11-25,2019-01-19,,,,,,,['4bf58dd8d48988d151941735'],['Dining and Drinking > Restaurant > Mexican Restaurant > Taco Restaurant'],b'\x00\x00\x00\x00\x01\xc0YLF\xe0\x8f!q@3\xb0\x075~g\x0e',"{'xmin': -101.191826, 'ymin': 19.68761, 'xmax': -101.191826, 'ymax': 19.68761}",dining and drinking > restaurant > mexican restaurant > taco restaurant,1
4ec9d814f5b9e881954c2989,Tacos Alex,20.904653549194336,-100.72067260742188,,,,,,,,MX,2011-11-21,2021-08-12,,,,,,,,['4bf58dd8d48988d151941735'],['Dining and Drinking > Restaurant > Mexican Restaurant > Taco Restaurant'],b'\x00\x00\x00\x00\x01\xc0Y.\x1f\x80\x00\x00\x00@4\xe7\x97`\x00\x00\x00',"{'xmin': -100.72067260742188, 'ymin': 20.904653549194336, 'xmax': -100.72067260742188, 'ymax': 20.904653549194336}",dining and drinking > restaurant > mexican restaurant > taco restaurant,1
4c6b82870c3ac9b60c49d238,Tacos El Rapido,21.156053474684114,-101.68995952795896,Alonso de Torres 1405-A,León de Los Aldama,Gt,,,,,MX,2010-08-18,2020-11-22,,,,,,,,['4bf58dd8d48988d151941735'],['Dining and Drinking > Restaurant > Mexican Restaurant > Taco Restaurant'],"b""\x00\x00\x00\x00\x01\xc0Yl(L\x02\tn@5'\xf3\x1e\xda2\x08""","{'xmin': -101.68995952795896, 'ymin': 21.156053474684114, 'xmax': -101.68995952795896, 'ymax': 21.156053474684114}",dining and drinking > restaurant > mexican restaurant > taco restaurant,1
4c7c6e5648c6236afcd76111,Tacos Chapultepec,20.668251773636786,-103.36908281222385,Mexicalzingo #2024,Guadalajara,JAL,,,,,MX,2010-08-31,2021-08-11,,33 1593 9015,,,,,,['4bf58dd8d48988d151941735'],['Dining and Drinking > Restaurant > Mexican Restaurant > Taco Restaurant'],b'\x00\x00\x00\x00\x01\xc0Y\xd7\x9f\r\x84\x01\x19@4\xab\x12\x8cYC\x95',"{'xmin': -103.36908281222385, 'ymin': 20.668251773636786, 'xmax': -103.36908281222385, 'ymax': 20.668251773636786}",dining and drinking > restaurant > mexican restaurant > taco restaurant,1
509b26cfe4b04527ff12101e,"Tacos ""El Cheve"" Pobre",20.573864568915173,-103.35933514509335,,,,,,,,MX,2012-11-08,2021-08-15,,,,,,,,['4bf58dd8d48988d151941735'],['Dining and Drinking > Restaurant > Mexican Restaurant > Taco Restaurant'],b'\x00\x00\x00\x00\x01\xc0Y\xd6\xffX\xd6\x1e\xae@4\x92\xe8\xc9\xd3\xd2\xe5',"{'xmin': -103.35933514509335, 'ymin': 20.573864568915173, 'xmax': -103.35933514509335, 'ymax': 20.573864568915173}",dining and drinking > restaurant > mexican restaurant > taco restaurant,1
52e7476211d241ca3fe435e8,Tacos Los Primos,20.635964,-103.423119,Av. Mariano Otero 5138,Zapopan,,,,,,MX,2014-01-28,2020-11-24,,,,,,,,['4bf58dd8d48988d151941735'],['Dining and Drinking > Restaurant > Mexican Restaurant > Taco Restaurant'],b'\x00\x00\x00\x00\x01\xc0Y\xdb\x14a\xb6\xd4=@4\xa2\xce\x89en\xf0',"{'xmin': -103.423119, 'ymin': 20.635964, 'xmax': -103.423119, 'ymax': 20.635964}",dining and drinking > restaurant > mexican restaurant > taco restaurant,1
4f334b71e4b0a3e7220b3cea,Tacos Cozumel Y Legaspi,20.63933815657994,-103.38119986098813,López De Legaspi,Guadalajara,Jalisco,44950,,,,MX,2012-02-09,2021-08-16,,,,,,,,['4bf58dd8d48988d151941735'],['Dining and Drinking > Restaurant > Mexican Restaurant > Taco Restaurant'],b'\x00\x00\x00\x00\x01\xc0Y\xd8e\x94\x1a\x0b\xc3@4\xa3\xab\xaaY\x98\x84',"{'xmin': -103.38119986098813, 'ymin': 20.63933815657994, 'xmax': -103.38119986098813, 'ymax': 20.63933815657994}",dining and drinking > restaurant > mexican restaurant > taco restaurant,1
566059c0498eada55ac708db,tacos y tortas ahogadas meño's,20.673322,-103.332139,,,,,,,,MX,2015-12-03,2021-08-15,,,,,,,,['4bf58dd8d48988d151941735'],['Dining and Drinking > Restaurant > Mexican Restaurant > Taco Restaurant'],b'\x00\x00\x00\x00\x01\xc0Y\xd5A\xc3\xef\xaey@4\xac^\xd4\xa1\xadd',"{'xmin': -103.332139, 'ymin': 20.673322, 'xmax': -103.332139, 'ymax': 20.673322}",dining and drinking > restaurant > mexican restaurant > taco restaurant,1
4fbbb856e4b01e39077d56a5,Tacos De Barbacoa “El Guayabo”,20.696519420865055,-103.29306451193477,Hacienda El Guayabo #2436,Guadalajara,,,,,,MX,2012-05-22,2021-08-13,,,,,,,,['4bf58dd8d48988d151941735'],['Dining and Drinking > Restaurant > Mexican Restaurant > Taco Restaurant'],b'\x00\x00\x00\x00\x01\xc0Y\xd2\xc1\x91\xa7\x982@4\xb2O\x18\xc5\xa4\xef',"{'xmin': -103.29306451193477, 'ymin': 20.696519420865055, 'xmax': -103.29306451193477, 'ymax': 20.696519420865055}",dining and drinking > restaurant > mexican restaurant > taco restaurant,1
5998f43b75eee44592190f20,Taquería 3 De Marzo,20.696754,-103.415504,Av Patria,Zapopan,JAL,45110,,,,MX,2017-08-20,2020-11-22,2019-02-03,,,,,,,['4bf58dd8d48988d151941735'],['Dining and Drinking > Restaurant > Mexican Restaurant > Taco Restaurant'],b'\x00\x00\x00\x00\x01\xc0Y\xda\x97\x9e\x16\xd6\xdc@4\xb2^x[[p',"{'xmin': -103.415504, 'ymin': 20.696754, 'xmax': -103.415504, 'ymax': 20.696754}",dining and drinking > restaurant > mexican restaurant > taco restaurant,1
5092c480e4b0d4c06c6c2411,Tortas Toño,20.566236392489134,-103.45841661086838,Avenida López Mateos 5565 Local E,Tlajomulco de Zuniga,Jalisco,45650,,,,MX,2012-11-01,2020-11-25,,33 1655 0611,http://tortastono.com.mx,,,,tortastono,['4bf58dd8d48988d1c1941735' '4bf58dd8d48988d151941735'],"['Dining and Drinking > Restaurant > Mexican Restaurant'
 'Dining and Drinking > Restaurant > Mexican Restaurant > Taco Restaurant']",b'\x00\x00\x00\x00\x01\xc0Y\xddV\xb2\x9f\xe7\xdd@4\x90\xf4\xdeC\x8b\xbd',"{'xmin': -103.45841661086838, 'ymin': 20.566236392489134, 'xmax': -103.45841661086838, 'ymax': 20.566236392489134}","dining and drinking > restaurant > mexican restaurant, dining and drinking > restaurant > mexican restaurant > taco restaurant",1
579e56c1498e9bd83b6e4aec,Tacos Don,21.858604,-102.26916,Héroe Inmortal,Aguascalientes,Aguascalientes,,,,,MX,2016-07-31,2020-11-25,,,,,,,,['4bf58dd8d48988d151941735'],['Dining and Drinking > Restaurant > Mexican Restaurant > Taco Restaurant'],b'\x00\x00\x00\x00\x01\xc0Y\x919\xea\xddY\x0c@5\xdb\xcdx\xc46\xfc',"{'xmin': -102.26916, 'ymin': 21.858604, 'xmax': -102.26916, 'ymax': 21.858604}",dining and drinking > restaurant > mexican restaurant > taco restaurant,1
4fd2c07ce4b002c9e7b10d4f,Taqueria Bambi,20.549271295359,-104.05374120369336,J. Guadalupe Vazquez,Ameca,Jalisco,,,,,MX,2012-06-09,2020-11-23,,,,,,,,['4bf58dd8d48988d151941735'],['Dining and Drinking > Restaurant > Mexican Restaurant > Taco Restaurant'],b'\x00\x00\x00\x00\x01\xc0Z\x03p~\xf2\x13\xe2@4\x8c\x9d\x0b*2\xce',"{'xmin': -104.05374120369336, 'ymin': 20.549271295359, 'xmax': -104.05374120369336, 'ymax': 20.549271295359}",dining and drinking > restaurant > mexican restaurant > taco restaurant,1
64267ea2f9a448374a047269,"Tacos Polo, Asada Y Queso",20.742622,-103.36017,Av. Paseo de las caobas,Zapopan,Jalisco,45188,,,,MX,2023-03-31,2023-03-31,,,,,,,,['4bf58dd8d48988d151941735'],['Dining and Drinking > Restaurant > Mexican Restaurant > Taco Restaurant'],b'\x00\x00\x00\x00\x01\xc0Y\xd7\r\x06x\xc0\x05@4\xbe\x1cy\xb3JE',"{'xmin': -103.36017, 'ymin': 20.742622, 'xmax': -103.36017, 'ymax': 20.742622}",dining and drinking > restaurant > mexican restaurant > taco restaurant,1
55455fe2498e25dc60b1d070,Doña Toña,21.942223508010102,-102.3024000615212,Lopez Mateos 205 Int B,Jesus Maria,aguascalientes,20908,,,,MX,2015-05-02,2020-11-23,,449 254 8952,,,,,,['4bf58dd8d48988d151941735'],['Dining and Drinking > Restaurant > Mexican Restaurant > Taco Restaurant'],b'\x00\x00\x00\x00\x01\xc0Y\x93Z\x85\xc9\xa2\xaf@5\xf15\x8fPm\x00',"{'xmin': -102.3024000615212, 'ymin': 21.942223508010102, 'xmax': -102.3024000615212, 'ymax': 21.942223508010102}",dining and drinking > restaurant > mexican restaurant > taco restaurant,1
546e1c67498e0592eabe3a16,"Tacos ""El Calo""",20.700665,-103.348726,,Guadalajara,,,,,,MX,2014-11-20,2021-08-12,,,,,,,,['4bf58dd8d48988d151941735'],['Dining and Drinking > Restaurant > Mexican Restaurant > Taco Restaurant'],b'\x00\x00\x00\x00\x01\xc0Y\xd6Q\x86\xdbP\xf4@4\xb3^\xc8\x0cs\xac',"{'xmin': -103.348726, 'ymin': 20.700665, 'xmax': -103.348726, 'ymax': 20.700665}",dining and drinking > restaurant > mexican restaurant > taco restaurant,1
51377368e4b03619c33364fc,tacos kyke,21.0746018975259,-101.60170459930463,Blvd.aeropuerto 1256,León,leon,37680,,,,MX,2013-03-06,2020-11-22,,,,,,,,['4bf58dd8d48988d151941735'],['Dining and Drinking > Restaurant > Mexican Restaurant > Taco Restaurant'],b'\x00\x00\x00\x00\x01\xc0Yf\x82T\x01\xf7o@5\x13\x19\x1c&\x17\xe1',"{'xmin': -101.60170459930463, 'ymin': 21.0746018975259, 'xmax': -101.60170459930463, 'ymax': 21.0746018975259}",dining and drinking > restaurant > mexican restaurant > taco restaurant,1
50d74290e4b021b28d1921ee,Taqueria Hernandez Flores,20.688633248759228,-105.23134550229283,,,,,,,,MX,2012-12-23,2021-08-13,,,,,,,,['4bf58dd8d48988d151941735'],['Dining and Drinking > Restaurant > Mexican Restaurant > Taco Restaurant'],b'\x00\x00\x00\x00\x01\xc0ZN\xce]]\x9b)@4\xb0JD\xc2[\xef',"{'xmin': -105.23134550229283, 'ymin': 20.688633248759228, 'xmax': -105.23134550229283, 'ymax': 20.688633248759228}",dining and drinking > restaurant > mexican restaurant > taco restaurant,1
538c8b66498ec684c637b2ef,Tacos Tuxpeños y algo más!,19.268301,-103.717265,,,,,,,,MX,2014-06-02,2021-08-13,,,,,,,,['4bf58dd8d48988d151941735'],['Dining and Drinking > Restaurant > Mexican Restaurant > Taco Restaurant'],b'\x00\x00\x00\x00\x01\xc0Y\xed\xe7\xabud0@3D\xaf_\xd4{\xee',"{'xmin': -103.717265, 'ymin': 19.268301, 'xmax': -103.717265, 'ymax': 19.268301}",dining and drinking > restaurant > mexican restaurant > taco restaurant,1
6291b306c5552d73737aaba4,Taquería Los Güeros de Arandas,21.084502,-101.643622,Blvd. Paseo de Jerez Sur,León,GTO,37530,,,,MX,2022-05-28,2022-05-28,,,,,,,,['4bf58dd8d48988d151941735'],['Dining and Drinking > Restaurant > Mexican Restaurant > Taco Restaurant'],b'\x00\x00\x00\x00\x01\xc0Yi1\x1aT?\x1c@5\x15\xa1\xecNrT',"{'xmin': -101.643622, 'ymin': 21.084502, 'xmax': -101.643622, 'ymax': 21.084502}",dining and drinking > restaurant > mexican restaurant > taco restaurant,1
530a4903498eab15f5ec364e,El Sasón de la Flaquita,20.652375,-103.433463,,"Zapopan, JAL",,,,,,MX,2014-02-23,2020-11-30,,,,,,,,['4bf58dd8d48988d151941735'],['Dining and Drinking > Restaurant > Mexican Restaurant > Taco Restaurant'],b'\x00\x00\x00\x00\x01\xc0Y\xdb\xbd\xdb\x98A\xab@4\xa7\x02\x0cI\xba^',"{'xmin': -103.433463, 'ymin': 20.652375, 'xmax': -103.433463, 'ymax': 20.652375}",dining and drinking > restaurant > mexican restaurant > taco restaurant,1
5a7e15894a7aae208b99ad66,Dońa Chayo,20.882948,-103.83316,,Tequila,JAL,46400,,,,MX,2018-02-09,2020-11-25,,,,,,,,['4bf58dd8d48988d151941735'],['Dining and Drinking > Restaurant > Mexican Restaurant > Taco Restaurant'],b'\x00\x00\x00\x00\x01\xc0Y\xf5R~R\x15w@4\xe2\x08\xe1P\x11\x90',"{'xmin': -103.83316, 'ymin': 20.882948, 'xmax': -103.83316, 'ymax': 20.882948}",dining and drinking > restaurant > mexican restaurant > taco restaurant,1
5ae12f4ba42362002cc231b5,Tacos “El Güero”,21.117512,-101.695879,Nicaragua,León,GTO,37420,,,,MX,2018-04-26,2020-11-25,,,,,,,,['4bf58dd8d48988d151941735'],['Dining and Drinking > Restaurant > Mexican Restaurant > Taco Restaurant'],b'\x00\x00\x00\x00\x01\xc0Yl\x89H\x12\xbeI@5\x1e\x15D4\xe37',"{'xmin': -101.695879, 'ymin': 21.117512, 'xmax': -101.695879, 'ymax': 21.117512}",dining and drinking > restaurant > mexican restaurant > taco restaurant,1
5206b6d811d2f64c454fe6ea,Tacos de Pescado Y Camaron LOS COMPADRES,20.79191990301238,-103.46843077367959,,,,,,,,MX,2013-08-10,2021-08-15,,,,,,,,['4bf58dd8d48988d151941735'],['Dining and Drinking > Restaurant > Mexican Restaurant > Taco Restaurant'],b'\x00\x00\x00\x00\x01\xc0Y\xdd\xfa\xc5\x11Y4@4\xca\xbbCD}[',"{'xmin': -103.46843077367959, 'ymin': 20.79191990301238, 'xmax': -103.46843077367959, 'ymax': 20.79191990301238}",dining and drinking > restaurant > mexican restaurant > taco restaurant,1
4dbcef5893a08f9274cb43b5,Tacos Chava En La Aurora,20.655688,-105.235573,,Puerto Vallarta,JAL,,,,,MX,2011-05-01,2020-11-22,,,,,,,,['4bf58dd8d48988d151941735'],['Dining and Drinking > Restaurant > Mexican Restaurant > Taco Restaurant'],b'\x00\x00\x00\x00\x01\xc0ZO\x13\xa0\xc6\xb4\x85@4\xa7\xdb+4a1',"{'xmin': -105.235573, 'ymin': 20.655688, 'xmax': -105.235573, 'ymax': 20.655688}",dining and drinking > restaurant > mexican restaurant > taco restaurant,1
51048433e4b0584e2d87ffc3,Tacos Jalisco,22.188900451950985,-100.95832371157248,,,,,,,,MX,2013-01-27,2020-11-23,,,,,,,,['4bf58dd8d48988d151941735'],['Dining and Drinking > Restaurant > Mexican Restaurant > Taco Restaurant'],"b'\x00\x00\x00\x00\x01\xc0Y=U,\xfa\x0b\xd9@60[\xc7\xafT@'","{'xmin': -100.95832371157248, 'ymin': 22.188900451950985, 'xmax': -100.95832371157248, 'ymax': 22.188900451950985}",dining and drinking > restaurant > mexican restaurant > taco restaurant,1
d849a526a95145f0c8cab3e4,Restaurante la Mamela Elegante,20.63276,-105.223502,Milan s/n,Puerto Vallarta,Jalisco,48320,,,,MX,2013-03-24,2023-12-08,,322 158 6311,,,,,,['4bf58dd8d48988d151941735' '4d4b7105d754a06378d81259'],"['Dining and Drinking > Restaurant > Mexican Restaurant > Taco Restaurant'
 'Retail']",b'\x00\x00\x00\x00\x01\xc0ZNM\xdbU%\xcc@4\xa1\xfc\x8f27\x8b',"{'xmin': -105.223502, 'ymin': 20.63276, 'xmax': -105.223502, 'ymax': 20.63276}","dining and drinking > restaurant > mexican restaurant > taco restaurant, retail",1
4fb71296e4b0c776a686a223,Tacos Chela,21.518908566217508,-104.89862452944124,,,,,,,,MX,2012-05-19,2021-08-12,,,,,,,,['4bf58dd8d48988d151941735'],['Dining and Drinking > Restaurant > Mexican Restaurant > Taco Restaurant'],b'\x00\x00\x00\x00\x01\xc0Z9\x83\x10uUX@5\x84\xd71\x19\x84\xb9',"{'xmin': -104.89862452944124, 'ymin': 21.518908566217508, 'xmax': -104.89862452944124, 'ymax': 21.518908566217508}",dining and drinking > restaurant > mexican restaurant > taco restaurant,1
51f1f5e0498e88ced89a9355,"Taqueria ""El Milagro""",21.155376701829866,-101.65246028356256,"Blvd Madrazo, entre Torres y Morelos.",León,Guanajuato,,,,,MX,2013-07-26,2020-11-30,,,,,,,,['4bf58dd8d48988d151941735'],['Dining and Drinking > Restaurant > Mexican Restaurant > Taco Restaurant'],"b""\x00\x00\x00\x00\x01\xc0Yi\xc1\xe8\xc6\xf5\xc4@5'\xc6\xc4|\xebl""","{'xmin': -101.65246028356256, 'ymin': 21.155376701829866, 'xmax': -101.65246028356256, 'ymax': 21.155376701829866}",dining and drinking > restaurant > mexican restaurant > taco restaurant,1
520d0bad11d2ecb0fd39dc0a,Tacocho,20.738399505615234,-103.37745666503906,,,,,,,,MX,2013-08-15,2021-08-11,,,,,,,,['4bf58dd8d48988d151941735'],['Dining and Drinking > Restaurant > Mexican Restaurant > Taco Restaurant'],b'\x00\x00\x00\x00\x01\xc0Y\xd8(@\x00\x00\x00@4\xbd\x07\xc0\x00\x00\x00',"{'xmin': -103.37745666503906, 'ymin': 20.738399505615234, 'xmax': -103.37745666503906, 'ymax': 20.738399505615234}",dining and drinking > restaurant > mexican restaurant > taco restaurant,1
5981d3ec029a552c44aa3411,Taqueria El Gordo,19.673288,-101.309274,,Morelia,MICH,,,,,MX,2017-08-02,2021-11-29,,,,,,,,['4bf58dd8d48988d151941735'],['Dining and Drinking > Restaurant > Mexican Restaurant > Taco Restaurant'],"b'\x00\x00\x00\x00\x01\xc0YS\xcb%,\xe03@3\xac\\\x9a4\xca\x0c'","{'xmin': -101.309274, 'ymin': 19.673288, 'xmax': -101.309274, 'ymax': 19.673288}",dining and drinking > restaurant > mexican restaurant > taco restaurant,1
5b10ba64419a9e002c302de4,Tacos Tacos,22.148079,-100.89321,,Soledad de Graciano Sánchez,San Luis Potosí,,,,,MX,2018-06-01,2020-11-25,,,,,,,,['4bf58dd8d48988d151941735'],['Dining and Drinking > Restaurant > Mexican Restaurant > Taco Restaurant'],b'\x00\x00\x00\x00\x01\xc0Y9*ZF\x9ds@6%\xe8\x81^9q',"{'xmin': -100.89321, 'ymin': 22.148079, 'xmax': -100.89321, 'ymax': 22.148079}",dining and drinking > restaurant > mexican restaurant > taco restaurant,1
4c6c08201fb2a1435747fae6,Tacos Peter,22.14454499725437,-101.01370803169898,Fray A. de La Veracruz 900,San Luis Potosí,San Luis Potosí,,,,,MX,2010-08-18,2020-11-26,,,,,,,,['4bf58dd8d48988d151941735'],['Dining and Drinking > Restaurant > Mexican Restaurant > Taco Restaurant'],b'\x00\x00\x00\x00\x01\xc0Y@\xe0\x97\xa6\xf5\xbd@6%\x00\xe6\xa4\x02\x08',"{'xmin': -101.01370803169898, 'ymin': 22.14454499725437, 'xmax': -101.01370803169898, 'ymax': 22.14454499725437}",dining and drinking > restaurant > mexican restaurant > taco restaurant,1
4cfb0f15d8468cfa9958f26b,Tacos D' Luis,20.657967,-101.352451,Solidaridad,Irapuato,Guanajuato,,,,,MX,2010-12-05,2020-11-25,2013-02-18,,,,,,,['4bf58dd8d48988d1cb941735' '4bf58dd8d48988d151941735'],"['Dining and Drinking > Food Truck'
 'Dining and Drinking > Restaurant > Mexican Restaurant > Taco Restaurant']",b'\x00\x00\x00\x00\x01\xc0YV\x8e\x8e\xa3\x9cR@4\xa8p\x86z\xd8\xe4',"{'xmin': -101.352451, 'ymin': 20.657967, 'xmax': -101.352451, 'ymax': 20.657967}","dining and drinking > food truck, dining and drinking > restaurant > mexican restaurant > taco restaurant",1
641f33d9d7b21e1b67d78a67,Chulada De Tacos,20.542054,-100.691405,,Apaseo el Grande,Guanajuato,38160,,,,MX,2023-03-25,2023-03-25,,,,,,,,['4bf58dd8d48988d151941735'],['Dining and Drinking > Restaurant > Mexican Restaurant > Taco Restaurant'],"b'\x00\x00\x00\x00\x01\xc0Y,?\xfa\xc1\xd2\x9e@4\x8a\xc4\r\n\xaa~'","{'xmin': -100.691405, 'ymin': 20.542054, 'xmax': -100.691405, 'ymax': 20.542054}",dining and drinking > restaurant > mexican restaurant > taco restaurant,1
51fc6de9498edd33ecd02d86,Tacos El Guero,20.642099701120014,-103.32144746558292,Rio Champoton #1179,Guadalajara,jalisco,,,,,MX,2013-08-03,2021-08-17,,,,,,,,['4bf58dd8d48988d151941735'],['Dining and Drinking > Restaurant > Mexican Restaurant > Taco Restaurant'],b'\x00\x00\x00\x00\x01\xc0Y\xd4\x92\x98d\x03\xe3@4\xa4`\xa5a\x14\xf3',"{'xmin': -103.32144746558292, 'ymin': 20.642099701120014, 'xmax': -103.32144746558292, 'ymax': 20.642099701120014}",dining and drinking > restaurant > mexican restaurant > taco restaurant,1
515257e3e4b0b67926c632db,Tacos El Cuadros,20.80554,-102.53434,,,,,,,,MX,2013-03-27,2020-11-22,,,,,,,,['4bf58dd8d48988d151941735'],['Dining and Drinking > Restaurant > Mexican Restaurant > Taco Restaurant'],b'\x00\x00\x00\x00\x01\xc0Y\xa22\xa0f<u@4\xce7\xde\x93\x9e\xae',"{'xmin': -102.53434, 'ymin': 20.80554, 'xmax': -102.53434, 'ymax': 20.80554}",dining and drinking > restaurant > mexican restaurant > taco restaurant,1
59ef6f728d0a533be37e922f,Tacos De Vapor Rafa,20.676201,-103.358544,,Guadalajara,JAL,44160,,,,MX,2017-10-24,2021-08-17,,,,,,,,['4bf58dd8d48988d151941735'],['Dining and Drinking > Restaurant > Mexican Restaurant > Taco Restaurant'],b'\x00\x00\x00\x00\x01\xc0Y\xd6\xf2b\x88\x8bT@4\xad\x1b\x82<\x85\xc2',"{'xmin': -103.358544, 'ymin': 20.676201, 'xmax': -103.358544, 'ymax': 20.676201}",dining and drinking > restaurant > mexican restaurant > taco restaurant,1
51be2ddd498e58792625021c,Carnitas del General,21.922424861302606,-102.30455807230119,Zaragoza,,,,,,,MX,2013-06-16,2021-08-14,,,,,,,,['4bf58dd8d48988d151941735'],['Dining and Drinking > Restaurant > Mexican Restaurant > Taco Restaurant'],b'\x00\x00\x00\x00\x01\xc0Y\x93}\xe1$\x11\r@5\xec$\t$O\xe1',"{'xmin': -102.30455807230119, 'ymin': 21.922424861302606, 'xmax': -102.30455807230119, 'ymax': 21.922424861302606}",dining and drinking > restaurant > mexican restaurant > taco restaurant,1
50a5431ce4b08b4ad0f75e55,Lonchería Macías,21.880410255720143,-102.28145946392463,Calle Damasco #104 C,Aguascalientes,AGS,,,,,MX,2012-11-15,2020-11-30,,449 412 4324,,,,,,['4bf58dd8d48988d151941735'],['Dining and Drinking > Restaurant > Mexican Restaurant > Taco Restaurant'],b'\x00\x00\x00\x00\x01\xc0Y\x92\x03n\x8e-/@5\xe1b\x91\x07a\x8a',"{'xmin': -102.28145946392463, 'ymin': 21.880410255720143, 'xmax': -102.28145946392463, 'ymax': 21.880410255720143}",dining and drinking > restaurant > mexican restaurant > taco restaurant,1
5348bf32498e10b97022d818,El Terreno Tacos al carbón,22.142825,-100.974954,Fernando Rosas 310,San Luis Potosí,San Luis Potosí,,,,,MX,2014-04-12,2020-11-24,,,,,,,,['4bf58dd8d48988d151941735'],['Dining and Drinking > Restaurant > Mexican Restaurant > Taco Restaurant'],b'\x00\x00\x00\x00\x01\xc0Y>e\xa5vF\xae@6$\x90-\xe0\r\x1b',"{'xmin': -100.974954, 'ymin': 22.142825, 'xmax': -100.974954, 'ymax': 22.142825}",dining and drinking > restaurant > mexican restaurant > taco restaurant,1
54e694be498e4209b10e400c,Taqueria El Rayo,21.951158,-102.326828,,,,,,,,MX,2015-02-20,2020-11-25,,,,,,,,['4bf58dd8d48988d151941735'],['Dining and Drinking > Restaurant > Mexican Restaurant > Taco Restaurant'],b'\x00\x00\x00\x00\x01\xc0Y\x94\xea\xbf\xfc\xda\xb2@5\xf3\x7f\x177T*',"{'xmin': -102.326828, 'ymin': 21.951158, 'xmax': -102.326828, 'ymax': 21.951158}",dining and drinking > restaurant > mexican restaurant > taco restaurant,1
ddef5881875a4b0450d11c98,Cocina Economica la Mexicana,21.097714,-101.691139,Ortiz Tirado 421,León,Guanajuato,37460,,,,MX,2013-05-29,2023-12-06,,477 770 8769,,,,,,['4bf58dd8d48988d151941735'],['Dining and Drinking > Restaurant > Mexican Restaurant > Taco Restaurant'],b'\x00\x00\x00\x00\x01\xc0Yl;\x9f\x12\x7f_@5\x19\x03\xc8\xe2\\\x81',"{'xmin': -101.691139, 'ymin': 21.097714, 'xmax': -101.691139, 'ymax': 21.097714}",dining and drinking > restaurant > mexican restaurant > taco restaurant,1
4d4622b02e326ea871f5f4a6,Taconon,20.715518,-103.357878,,,,,,,,MX,2011-01-31,2021-08-14,,,,,,,,['4bf58dd8d48988d151941735'],['Dining and Drinking > Restaurant > Mexican Restaurant > Taco Restaurant'],"b'\x00\x00\x00\x00\x01\xc0Y\xd6\xe7y }N@4\xb7,0\t\xb3\x07'","{'xmin': -103.357878, 'ymin': 20.715518, 'xmax': -103.357878, 'ymax': 20.715518}",dining and drinking > restaurant > mexican restaurant > taco restaurant,1
4c63719169a1c9b6685f3ba4,El Rey del Taco II,19.252850958242515,-103.74480116399742,Arroyo Los Trastes 101,Villa de Álvarez,Colima,,,,,MX,2010-08-12,2024-03-14,,312 311 9637,,,204330536274785.0,,,['4bf58dd8d48988d151941735'],['Dining and Drinking > Restaurant > Mexican Restaurant > Taco Restaurant'],b'\x00\x00\x00\x00\x01\xc0Y\xef\xaa\xd2\x80Y\x11@3@\xba\xd7$i\xf3',"{'xmin': -103.74480116399742, 'ymin': 19.252850958242515, 'xmax': -103.74480116399742, 'ymax': 19.252850958242515}",dining and drinking > restaurant > mexican restaurant > taco restaurant,1
53039dd4498ea8326f80a7f7,taquitos de vazalum,22.166972,-101.000957,,,,,,,,MX,2014-02-18,2021-08-17,,,,,,,,['4bf58dd8d48988d151941735'],['Dining and Drinking > Restaurant > Mexican Restaurant > Taco Restaurant'],b'\x00\x00\x00\x00\x01\xc0Y@\x0f\xad\xf2\xec\xf2@6*\xbe\xadOY\x04',"{'xmin': -101.000957, 'ymin': 22.166972, 'xmax': -101.000957, 'ymax': 22.166972}",dining and drinking > restaurant > mexican restaurant > taco restaurant,1
4e2eef3845ddcf0f5c7d575a,Tacos Niky's,19.6895,-101.1771,Santos Degollado,Morelia,Michoacán de Ocampo,58260,,,,MX,2011-07-26,2020-11-25,2013-08-27,,,,,,,"['4bf58dd8d48988d151941735' '4bf58dd8d48988d147941735'
 '4bf58dd8d48988d1cb941735']","['Dining and Drinking > Restaurant > Mexican Restaurant > Taco Restaurant'
 'Dining and Drinking > Restaurant > Diner'
 'Dining and Drinking > Food Truck']",b'\x00\x00\x00\x00\x01\xc0YKU\x9b=\x07\xc8@3\xb0\x83\x12n\x97\x8d',"{'xmin': -101.1771, 'ymin': 19.6895, 'xmax': -101.1771, 'ymax': 19.6895}","dining and drinking > restaurant > mexican restaurant > taco restaurant, dining and drinking > restaurant > diner, dining and drinking > food truck",1
52ccded3498e0c67b70d798f,"tacos ""los mariachis""",19.20720100402832,-96.21685028076172,Hacienda Santa Fe,Veracruz,veracruz,91809,,,,MX,2014-01-08,2020-11-25,,,,,,,,['4bf58dd8d48988d151941735'],['Dining and Drinking > Restaurant > Mexican Restaurant > Taco Restaurant'],b'\x00\x00\x00\x00\x01\xc0X\r\xe0\xe0\x00\x00\x00@35\x0b \x00\x00\x00',"{'xmin': -96.21685028076172, 'ymin': 19.20720100402832, 'xmax': -96.21685028076172, 'ymax': 19.20720100402832}",dining and drinking > restaurant > mexican restaurant > taco restaurant,1
59700489b1538e4958e55254,"Taqueria ""La Arrachera""",16.186606,-95.199376,,Salina Cruz,OAX,70650,,,,MX,2017-07-20,2020-11-21,,,,,,,,['4bf58dd8d48988d151941735'],['Dining and Drinking > Restaurant > Mexican Restaurant > Taco Restaurant'],b'\x00\x00\x00\x00\x01\xc0W\xcc\xc2\x93\x8d\xe6\xde@0/\xc5i+<\xc5',"{'xmin': -95.199376, 'ymin': 16.186606, 'xmax': -95.199376, 'ymax': 16.186606}",dining and drinking > restaurant > mexican restaurant > taco restaurant,1
5153bb20e4b0af7dd8354688,Tacos Jeronimo,19.282031257807045,-99.17405328297696,Esquina Con Insurgentes,Df,Mexico,,,,,MX,2013-03-28,2020-11-25,,,,,,,,['4bf58dd8d48988d151941735'],['Dining and Drinking > Restaurant > Mexican Restaurant > Taco Restaurant'],b'\x00\x00\x00\x00\x01\xc0X\xcb#\xb0a\x89p@3H33T\xbb#',"{'xmin': -99.17405328297696, 'ymin': 19.282031257807045, 'xmax': -99.17405328297696, 'ymax': 19.282031257807045}",dining and drinking > restaurant > mexican restaurant > taco restaurant,1
51524ff7e4b0ab87cbce2677,taqueria los soles,19.251619338989258,-99.60993957519531,,,,,,,,MX,2013-03-27,2021-08-15,,,,,,,,['4bf58dd8d48988d151941735'],['Dining and Drinking > Restaurant > Mexican Restaurant > Taco Restaurant'],b'\x00\x00\x00\x00\x01\xc0X\xe7\t@\x00\x00\x00@3@j \x00\x00\x00',"{'xmin': -99.60993957519531, 'ymin': 19.251619338989258, 'xmax': -99.60993957519531, 'ymax': 19.251619338989258}",dining and drinking > restaurant > mexican restaurant > taco restaurant,1
50cb4c0fe4b00d24991fea73,Las Gorditas De Martha,19.182043299362185,-100.21924426663195,,,,,,,,MX,2012-12-14,2021-08-10,,,,,,,,['4bf58dd8d48988d151941735'],['Dining and Drinking > Restaurant > Mexican Restaurant > Taco Restaurant'],b'\x00\x00\x00\x00\x01\xc0Y\x0e\x08\x19\x1a\xc1C@3.\x9ac\xc17n',"{'xmin': -100.21924426663195, 'ymin': 19.182043299362185, 'xmax': -100.21924426663195, 'ymax': 19.182043299362185}",dining and drinking > restaurant > mexican restaurant > taco restaurant,1
6517b6a6fdeb702eafd466d4,Fokus,19.143769,-96.111024,,Veracruz,Ver.,94298,,,,MX,2023-09-30,2023-09-30,,,,,,,,['4bf58dd8d48988d151941735'],['Dining and Drinking > Restaurant > Mexican Restaurant > Taco Restaurant'],b'\x00\x00\x00\x00\x01\xc0X\x07\x1b\x04hD\x8d@3$\xce\x0b\x91-\xba',"{'xmin': -96.111024, 'ymin': 19.143769, 'xmax': -96.111024, 'ymax': 19.143769}",dining and drinking > restaurant > mexican restaurant > taco restaurant,1
55dc8c38498e15bb24ebbd61,Tacos de Cazuela y Mariscos Las Palmas,18.909299,-103.866116,,,,,,,,MX,2015-08-25,2021-08-14,,,,,,,,['4bf58dd8d48988d151941735'],['Dining and Drinking > Restaurant > Mexican Restaurant > Taco Restaurant'],b'\x00\x00\x00\x00\x01\xc0Y\xf7nq\xcd\xa2\xb6@2\xe8\xc7\xd1\xbbI\x17',"{'xmin': -103.866116, 'ymin': 18.909299, 'xmax': -103.866116, 'ymax': 18.909299}",dining and drinking > restaurant > mexican restaurant > taco restaurant,1
511672e6e4b0a8f49b3b14f8,Barbacoa de chivo.,18.558959299542348,-99.59917764099255,,,,,,,,MX,2013-02-09,2021-08-12,,,,,,,,['4bf58dd8d48988d151941735'],['Dining and Drinking > Restaurant > Mexican Restaurant > Taco Restaurant'],b'\x00\x00\x00\x00\x01\xc0X\xe6X\xed-#\xad@2\x8f\x17\xf4\xe7TW',"{'xmin': -99.59917764099255, 'ymin': 18.558959299542348, 'xmax': -99.59917764099255, 'ymax': 18.558959299542348}",dining and drinking > restaurant > mexican restaurant > taco restaurant,1
56df99af498e23c2a15c8ea2,Ciento Veintitres,19.135399,-96.106964,Articulo 123,,Veracruz,,,,,MX,2016-03-09,2020-11-30,,,,,,,,['4bf58dd8d48988d151941735'],['Dining and Drinking > Restaurant > Mexican Restaurant > Taco Restaurant'],"b'\x00\x00\x00\x00\x01\xc0X\x06\xd8\x7f\x88v\\@3""\xa9\x82D\xe9>'","{'xmin': -96.106964, 'ymin': 19.135399, 'xmax': -96.106964, 'ymax': 19.135399}",dining and drinking > restaurant > mexican restaurant > taco restaurant,1
503c5334e4b0daf2577c7201,Taqueria la flota,18.063375262641745,-96.1465084578501,,,,,,,,MX,2012-08-28,2021-08-14,,,,,,,,['4bf58dd8d48988d151941735'],['Dining and Drinking > Restaurant > Mexican Restaurant > Taco Restaurant'],b'\x00\x00\x00\x00\x01\xc0X\t`e\x02\xc3n@2\x109\\xk\xf5',"{'xmin': -96.1465084578501, 'ymin': 18.063375262641745, 'xmax': -96.1465084578501, 'ymax': 18.063375262641745}",dining and drinking > restaurant > mexican restaurant > taco restaurant,1
52b74964498eb66ca6375207,Carnitas Bacalito,19.161801151446166,-96.12587415530479,Juan Pablo II,Boca Del Río,Veracruz,,,,,MX,2013-12-22,2020-11-25,,,,,,,,['4bf58dd8d48988d151941735'],['Dining and Drinking > Restaurant > Mexican Restaurant > Taco Restaurant'],b'\x00\x00\x00\x00\x01\xc0X\x08\x0eRy\x1c\x86@3)k\xcc\xdd\xea\x9b',"{'xmin': -96.12587415530479, 'ymin': 19.161801151446166, 'xmax': -96.12587415530479, 'ymax': 19.161801151446166}",dining and drinking > restaurant > mexican restaurant > taco restaurant,1
4db6390f4b226b343db0fad0,"Tacos Y Tortas ""Sandy""",19.314332477855167,-99.5662531651892,,San Pedro Totoltepec,Mexico,,,,,MX,2011-04-26,2020-11-22,,,,,,,,['4bf58dd8d48988d151941735'],['Dining and Drinking > Restaurant > Mexican Restaurant > Taco Restaurant'],b'\x00\x00\x00\x00\x01\xc0X\xe4=}\xeao\x9f@3Px\x17\xe0uf',"{'xmin': -99.5662531651892, 'ymin': 19.314332477855167, 'xmax': -99.5662531651892, 'ymax': 19.314332477855167}",dining and drinking > restaurant > mexican restaurant > taco restaurant,1
575569bf498ed2ddee848506,La Curva,18.750479,-97.218414,,,,,,,,MX,2016-06-06,2020-11-23,,,,,,,,['4bf58dd8d48988d151941735'],['Dining and Drinking > Restaurant > Mexican Restaurant > Taco Restaurant'],b'\x00\x00\x00\x00\x01\xc0XM\xfa~\xb6\xbfD@2\xc0\x1fdIU\xb4',"{'xmin': -97.218414, 'ymin': 18.750479, 'xmax': -97.218414, 'ymax': 18.750479}",dining and drinking > restaurant > mexican restaurant > taco restaurant,1
55e263df498e39f0bcb48df4,"Taqueria ""El Bajio""",19.310014112104025,-99.62303547573114,Hidalgo,San Lorenzo Tepaltitlan,México,50010,,,,MX,2015-08-30,2020-11-25,,,,,,,,['4bf58dd8d48988d151941735'],['Dining and Drinking > Restaurant > Mexican Restaurant > Taco Restaurant'],b'\x00\x00\x00\x00\x01\xc0X\xe7\xdf\xd00 \xd6@3O]\x15\xb8\xc9\x07',"{'xmin': -99.62303547573114, 'ymin': 19.310014112104025, 'xmax': -99.62303547573114, 'ymax': 19.310014112104025}",dining and drinking > restaurant > mexican restaurant > taco restaurant,1
5104ae64e4b02d11d5a51719,Taqueria De La Rosa,19.188691,-96.139615,,,,,,,,MX,2013-01-27,2021-08-16,,,,,,,,['4bf58dd8d48988d151941735'],['Dining and Drinking > Restaurant > Mexican Restaurant > Taco Restaurant'],b'\x00\x00\x00\x00\x01\xc0X\x08\xefs\xc0\xc1\xfd@30N\r\xaa\x0c\xae',"{'xmin': -96.139615, 'ymin': 19.188691, 'xmax': -96.139615, 'ymax': 19.188691}",dining and drinking > restaurant > mexican restaurant > taco restaurant,1
53ecdc29498e8fb29d84bc0f,tacos de carnitas las chivas,19.298499,-99.074892,,,,,,,,MX,2014-08-14,2021-08-10,,,,,,,,['4bf58dd8d48988d151941735'],['Dining and Drinking > Restaurant > Mexican Restaurant > Taco Restaurant'],b'\x00\x00\x00\x00\x01\xc0X\xc4\xcb\x07\xd0\xae\xda@3Ljn2\xe3\x82',"{'xmin': -99.074892, 'ymin': 19.298499, 'xmax': -99.074892, 'ymax': 19.298499}",dining and drinking > restaurant > mexican restaurant > taco restaurant,1
56ddaf0acd108a394960ddbc,Taquitos Tec Campus Toluca,19.249945671334434,-99.61299467875433,,,,,,,,MX,2016-03-07,2020-11-25,,,,,,,,['4bf58dd8d48988d151941735'],['Dining and Drinking > Restaurant > Mexican Restaurant > Taco Restaurant'],b'\x00\x00\x00\x00\x01\xc0X\xe7;N\x08w\xcd@3?\xfcp\x84(}',"{'xmin': -99.61299467875433, 'ymin': 19.249945671334434, 'xmax': -99.61299467875433, 'ymax': 19.249945671334434}",dining and drinking > restaurant > mexican restaurant > taco restaurant,1
54b0be53498e1d29e9399a76,Tacos De Las Bombas,19.31136287985663,-99.12127330040728,,,,,,,,MX,2015-01-10,2021-08-12,,,,,,,,['4bf58dd8d48988d151941735'],['Dining and Drinking > Restaurant > Mexican Restaurant > Taco Restaurant'],"b'\x00\x00\x00\x00\x01\xc0X\xc7\xc2\xf1\x16\xc8%@3O\xb5zJ,0'","{'xmin': -99.12127330040728, 'ymin': 19.31136287985663, 'xmax': -99.12127330040728, 'ymax': 19.31136287985663}",dining and drinking > restaurant > mexican restaurant > taco restaurant,1
6678f047aea1bf1752db74be,Fokus Jr,19.102242,-96.10637,Independencia,Boca del Río,Veracruz,94290,,,,MX,2024-06-24,2024-06-24,,,,,,,,['4bf58dd8d48988d151941735'],['Dining and Drinking > Restaurant > Mexican Restaurant > Taco Restaurant'],"b'\x00\x00\x00\x00\x01\xc0X\x06\xce\xc4\x1d\xd1\xa2@3\x1a,\x88\x1eG\x13'","{'xmin': -96.10637, 'ymin': 19.102242, 'xmax': -96.10637, 'ymax': 19.102242}",dining and drinking > restaurant > mexican restaurant > taco restaurant,1
5e52e6744c949100088bca46,El Cerdorado Carnitas,19.319117,-99.13682,Calle 4,Espartaco,Ciudad de México,04870,,,,MX,2020-02-23,2020-11-25,,,,,,,,['4bf58dd8d48988d151941735'],['Dining and Drinking > Restaurant > Mexican Restaurant > Taco Restaurant'],b'\x00\x00\x00\x00\x01\xc0X\xc8\xc1\xa8\xac\\\x14@3Q\xb1\xa6\xd6\x98\xfe',"{'xmin': -99.13682, 'ymin': 19.319117, 'xmax': -99.13682, 'ymax': 19.319117}",dining and drinking > restaurant > mexican restaurant > taco restaurant,1
52333d3211d2791dc0b339bf,fast food siglo XXI,19.275672912597656,-99.72046661376953,,,,,,,,MX,2013-09-13,2020-11-24,,,,,,,,['4bf58dd8d48988d151941735'],['Dining and Drinking > Restaurant > Mexican Restaurant > Taco Restaurant'],b'\x00\x00\x00\x00\x01\xc0X\xee\x1c \x00\x00\x00@3F\x92\x80\x00\x00\x00',"{'xmin': -99.72046661376953, 'ymin': 19.275672912597656, 'xmax': -99.72046661376953, 'ymax': 19.275672912597656}",dining and drinking > restaurant > mexican restaurant > taco restaurant,1
5ae60495029a5500395fd6af,El Jarocho,19.628662,-103.416498,Reforma,Zapotiltic,JAL,49606,,,,MX,2018-04-29,2020-11-23,,,,,,,,['4bf58dd8d48988d151941735'],['Dining and Drinking > Restaurant > Mexican Restaurant > Taco Restaurant'],b'\x00\x00\x00\x00\x01\xc0Y\xda\xa7\xe7:6]@3\xa0\xef\xfe*<\xea',"{'xmin': -103.416498, 'ymin': 19.628662, 'xmax': -103.416498, 'ymax': 19.628662}",dining and drinking > restaurant > mexican restaurant > taco restaurant,1
527697ab11d262de80849c85,Barbacoa Xaltocan,19.257003784179688,-99.10293579101562,,,,,,,,MX,2013-11-03,2021-08-11,,,,,,,,['4bf58dd8d48988d151941735'],['Dining and Drinking > Restaurant > Mexican Restaurant > Taco Restaurant'],b'\x00\x00\x00\x00\x01\xc0X\xc6\x96\x80\x00\x00\x00@3A\xcb\x00\x00\x00\x00',"{'xmin': -99.10293579101562, 'ymin': 19.257003784179688, 'xmax': -99.10293579101562, 'ymax': 19.257003784179688}",dining and drinking > restaurant > mexican restaurant > taco restaurant,1
52463598498e3aa27f97b8e4,Tacos Elvis,19.298342,-99.170375,Piedra Palmeada,México,,,,,,MX,2013-09-28,2020-11-21,,,,,,,,['4bf58dd8d48988d151941735'],['Dining and Drinking > Restaurant > Mexican Restaurant > Taco Restaurant'],b'\x00\x00\x00\x00\x01\xc0X\xca\xe7l\x8bC\x96@3L`$-\x05\xf3',"{'xmin': -99.170375, 'ymin': 19.298342, 'xmax': -99.170375, 'ymax': 19.298342}",dining and drinking > restaurant > mexican restaurant > taco restaurant,1
56607fb1498e7f0390854e2d,Enramada del Pajaro,16.789184,-99.818516,,,,,,,,MX,2015-12-03,2021-08-13,,,,,,,,['4bf58dd8d48988d151941735'],['Dining and Drinking > Restaurant > Mexican Restaurant > Taco Restaurant'],b'\x00\x00\x00\x00\x01\xc0X\xf4b\x90\xee\xd0-@0\xca\x07\xf6n\x86\xc6',"{'xmin': -99.818516, 'ymin': 16.789184, 'xmax': -99.818516, 'ymax': 16.789184}",dining and drinking > restaurant > mexican restaurant > taco restaurant,1
5b005442dff815002c7923ef,Cocina Morelos,17.80781,-97.77992,Morelos,Huajuapan de León,Oaxaca,69000,,,,MX,2018-05-19,2020-11-25,,,,,,,,['4bf58dd8d48988d151941735'],['Dining and Drinking > Restaurant > Mexican Restaurant > Taco Restaurant'],b'\x00\x00\x00\x00\x01\xc0Xq\xea5\x93_\xc4@1\xce\xcc\xa2\xdba\xbb',"{'xmin': -97.77992, 'ymin': 17.80781, 'xmax': -97.77992, 'ymax': 17.80781}",dining and drinking > restaurant > mexican restaurant > taco restaurant,1
5584c627498ef037c39d4407,Tacos Nacho,19.626996,-101.576905,,,,,,,,MX,2015-06-20,2021-08-15,,,,,,,,['4bf58dd8d48988d151941735'],['Dining and Drinking > Restaurant > Mexican Restaurant > Taco Restaurant'],b'\x00\x00\x00\x00\x01\xc0Yd\xec\x02\xf2\xf9\x87@3\xa0\x82\xcfR\xb9\n',"{'xmin': -101.576905, 'ymin': 19.626996, 'xmax': -101.576905, 'ymax': 19.626996}",dining and drinking > restaurant > mexican restaurant > taco restaurant,1
52196dca11d27bb5694371b4,Tacos Del Raton,19.29065971754312,-97.34753882062942,,,,,,,,MX,2013-08-25,2021-08-12,,,,,,,,['4bf58dd8d48988d151941735'],['Dining and Drinking > Restaurant > Mexican Restaurant > Taco Restaurant'],"b'\x00\x00\x00\x00\x01\xc0XV>\x13w,g@3Jh\xac\xdd\x1c\xc0'","{'xmin': -97.34753882062942, 'ymin': 19.29065971754312, 'xmax': -97.34753882062942, 'ymax': 19.29065971754312}",dining and drinking > restaurant > mexican restaurant > taco restaurant,1
5cbbd554e706550025ecc0ad,¡Qué Lata!,19.256048,-99.553535,,Metepec,Estado de México,52149,,,,MX,2019-04-21,2020-11-25,,,,,,,,['4bf58dd8d48988d151941735'],['Dining and Drinking > Restaurant > Mexican Restaurant > Taco Restaurant'],b'\x00\x00\x00\x00\x01\xc0X\xe3m\x1e\x10\x8c?@3A\x8c\\\x9a4\xca',"{'xmin': -99.553535, 'ymin': 19.256048, 'xmax': -99.553535, 'ymax': 19.256048}",dining and drinking > restaurant > mexican restaurant > taco restaurant,1
50b82ec0e4b027593f9a71a9,Antojitos El Paisano,17.060856843286064,-96.69469002408725,,,,,,,,MX,2012-11-30,2021-08-12,,,,,,,,['4bf58dd8d48988d151941735'],['Dining and Drinking > Restaurant > Mexican Restaurant > Taco Restaurant'],"b'\x00\x00\x00\x00\x01\xc0X,u\xcd%\x93\xfb@1\x0f\x94Pg\xa6\xc5'","{'xmin': -96.69469002408725, 'ymin': 17.060856843286064, 'xmax': -96.69469002408725, 'ymax': 17.060856843286064}",dining and drinking > restaurant > mexican restaurant > taco restaurant,1
4d858fe78de9721eec164a51,El Tizoncito,19.30756529484556,-99.21392125640261,Blvd. Adolfo López Mateos 4020,México,DF,04500,,,,MX,2011-03-20,2024-06-05,,,http://t.co/KNCuc7Q8Vz,,395021643953875.0,,eltizoncito1966,['4bf58dd8d48988d1c1941735' '4bf58dd8d48988d151941735'],"['Dining and Drinking > Restaurant > Mexican Restaurant'
 'Dining and Drinking > Restaurant > Mexican Restaurant > Taco Restaurant']",b'\x00\x00\x00\x00\x01\xc0X\xcd\xb0\xe2\xc8\n\xc8@3N\xbc\x99b\xbf\x0c',"{'xmin': -99.21392125640261, 'ymin': 19.30756529484556, 'xmax': -99.21392125640261, 'ymax': 19.30756529484556}","dining and drinking > restaurant > mexican restaurant, dining and drinking > restaurant > mexican restaurant > taco restaurant",1
4f5196c0e4b036244942c8c3,Tacos Porfi,19.15575390768468,-96.11602027899188,,,,,,,,MX,2012-03-03,2020-11-30,,,,,,,,['4bf58dd8d48988d151941735'],['Dining and Drinking > Restaurant > Mexican Restaurant > Taco Restaurant'],"b""\x00\x00\x00\x00\x01\xc0X\x07l\xe0Q\xfcY@3'\xdf|\xf3\xba\xdb""","{'xmin': -96.11602027899188, 'ymin': 19.15575390768468, 'xmax': -96.11602027899188, 'ymax': 19.15575390768468}",dining and drinking > restaurant > mexican restaurant > taco restaurant,1
55de0351498e24446630d815,Birria Los Primos,16.97141286057794,-96.70647911604235,,,,,,,,MX,2015-08-26,2020-11-22,,,,,,,,['4bf58dd8d48988d151941735'],['Dining and Drinking > Restaurant > Mexican Restaurant > Taco Restaurant'],b'\x00\x00\x00\x00\x01\xc0X-6\xf4.\xad^@0\xf8\xae\x83c\x18\x97',"{'xmin': -96.70647911604235, 'ymin': 16.97141286057794, 'xmax': -96.70647911604235, 'ymax': 16.97141286057794}",dining and drinking > restaurant > mexican restaurant > taco restaurant,1
53b789b9498e8b9d6610251f,Taquería El Carboncito,17.652966490068316,-101.55230677211581,,,,,,,,MX,2014-07-05,2023-12-21,,755 104 5036,,,,,,['4bf58dd8d48988d151941735'],['Dining and Drinking > Restaurant > Mexican Restaurant > Taco Restaurant'],b'\x00\x00\x00\x00\x01\xc0YcX\xfe\x80\xe61@1\xa7(\xcf\xd8:2',"{'xmin': -101.55230677211581, 'ymin': 17.652966490068316, 'xmax': -101.55230677211581, 'ymax': 17.652966490068316}",dining and drinking > restaurant > mexican restaurant > taco restaurant,1
66dd1995f97a375b62d9ac6c,Tacos Juquilita,19.700977,-101.194409,Corregidora,Morelia,Mich.,58000,,,,MX,2024-09-08,2024-09-08,,,,,,,,['4bf58dd8d48988d151941735'],['Dining and Drinking > Restaurant > Mexican Restaurant > Taco Restaurant'],b'\x00\x00\x00\x00\x01\xc0YLq2rC\x13@3\xb3s:\x8a?\x8a',"{'xmin': -101.194409, 'ymin': 19.700977, 'xmax': -101.194409, 'ymax': 19.700977}",dining and drinking > restaurant > mexican restaurant > taco restaurant,1
563e6685cd1054a8fb67fad9,El Maguey de Tlacotepec,18.845633,-97.108156,,,,,,,,MX,2015-11-07,2021-08-11,,,,,,,,['4bf58dd8d48988d151941735'],['Dining and Drinking > Restaurant > Mexican Restaurant > Taco Restaurant'],b'\x00\x00\x00\x00\x01\xc0XF\xec\x07$\xb7o@2\xd8{g\x7fk\x1a',"{'xmin': -97.108156, 'ymin': 18.845633, 'xmax': -97.108156, 'ymax': 18.845633}",dining and drinking > restaurant > mexican restaurant > taco restaurant,1
569b1915498e9fa8eb24d489,Tacos Los Gordos,20.555914,-103.31162,Av. Aeroméxico 60,El Salto,Jalisco,45690,,,,MX,2016-01-17,2020-11-22,,,,,,,,['4bf58dd8d48988d151941735'],['Dining and Drinking > Restaurant > Mexican Restaurant > Taco Restaurant'],b'\x00\x00\x00\x00\x01\xc0Y\xd3\xf1\x95\x031\xe4@4\x8ePaAcx',"{'xmin': -103.31162, 'ymin': 20.555914, 'xmax': -103.31162, 'ymax': 20.555914}",dining and drinking > restaurant > mexican restaurant > taco restaurant,1
56bbf20e498e99a6c53c952f,tacos del cuñao🍽🌮,19.274916,-99.221237,,,,,,,,MX,2016-02-11,2021-08-15,,,,,,,,['4bf58dd8d48988d151941735'],['Dining and Drinking > Restaurant > Mexican Restaurant > Taco Restaurant'],b'\x00\x00\x00\x00\x01\xc0X\xce(\xbf;\xea\x92@3F`\xe5\x1d%\xab',"{'xmin': -99.221237, 'ymin': 19.274916, 'xmax': -99.221237, 'ymax': 19.274916}",dining and drinking > restaurant > mexican restaurant > taco restaurant,1
50382d95e4b0fc42f729cc22,"Taquitos, Enchiladas y Más",19.40778216867672,-102.06561609026207,,,,,,,,MX,2012-08-25,2021-08-12,,,,,,,,['4bf58dd8d48988d151941735'],['Dining and Drinking > Restaurant > Mexican Restaurant > Taco Restaurant'],b'\x00\x00\x00\x00\x01\xc0Y\x843\r\xd4q\x16@3hdi\x86[\xc5',"{'xmin': -102.06561609026207, 'ymin': 19.40778216867672, 'xmax': -102.06561609026207, 'ymax': 19.40778216867672}",dining and drinking > restaurant > mexican restaurant > taco restaurant,1
51831daa498e0866c1248596,"La Torreta, Tacos Arabes",18.963479680980537,-99.59385146188961,,,,,,,,MX,2013-05-03,2024-02-15,,,,,,,,['4bf58dd8d48988d151941735'],['Dining and Drinking > Restaurant > Mexican Restaurant > Taco Restaurant'],"b'\x00\x00\x00\x00\x01\xc0X\xe6\x01\xa9\x8f\xdf\xda@2\xf6\xa6\x9a\xb8,\x03'","{'xmin': -99.59385146188961, 'ymin': 18.963479680980537, 'xmax': -99.59385146188961, 'ymax': 18.963479680980537}",dining and drinking > restaurant > mexican restaurant > taco restaurant,1
595462113b83077706ef3863,"Tacos ""El Mexicano""",19.244473,-99.11372,,Ciudad de México,Ciudad de México,,,,,MX,2017-06-29,2020-11-21,,,,,,,,['4bf58dd8d48988d151941735'],['Dining and Drinking > Restaurant > Mexican Restaurant > Taco Restaurant'],b'\x00\x00\x00\x00\x01\xc0X\xc7G0@9\xac@3>\x95\xc8S\xc1H',"{'xmin': -99.11372, 'ymin': 19.244473, 'xmax': -99.11372, 'ymax': 19.244473}",dining and drinking > restaurant > mexican restaurant > taco restaurant,1
