fsq_place_id,name,latitude,longitude,address,locality,region,postcode,admin_region,post_town,po_box,country,date_created,date_refreshed,date_closed,tel,website,email,facebook_id,instagram,twitter,fsq_category_ids,fsq_category_labels,placemaker_url,geom,bbox,labels_str,taco_restaurant
525053aa11d20b9d7c9f58dd,El padrino birria,31.872797,-116.60743,,,,,,,,MX,2013-10-05,2013-10-10,,,,,,,,['4bf58dd8d48988d151941735'],['Dining and Drinking > Restaurant > Mexican Restaurant > Taco Restaurant'],https://foursquare.com/placemakers/review-place/525053aa11d20b9d7c9f58dd,"b'\x00\x00\x00\x00\x01\xc0]&\xe0""\x14&\xfe@?\xdfo\x9f\xcb\x0c\x02'","{'xmin': -116.60743, 'ymin': 31.872797, 'xmax': -116.60743, 'ymax': 31.872797}",dining and drinking > restaurant > mexican restaurant > taco restaurant,1
5001b51ae4b0b1602bbe88d3,Tacos De Birria Casa Blanca,32.50198290079553,-116.8978234527757,,Tijuana,Baja California,,,,,MX,2012-07-14,2024-07-01,,,,,,,,['4bf58dd8d48988d151941735'],['Dining and Drinking > Restaurant > Mexican Restaurant > Taco Restaurant'],https://foursquare.com/placemakers/review-place/5001b51ae4b0b1602bbe88d3,b'\x00\x00\x00\x00\x01\xc0]9u\xf0\x7f\xd08@@@@\xf9\xc7\x08\xb5',"{'xmin': -116.8978234527757, 'ymin': 32.50198290079553, 'xmax': -116.8978234527757, 'ymax': 32.50198290079553}",dining and drinking > restaurant > mexican restaurant > taco restaurant,1
573a44e5498e0be9341bba45,tacos los poblanos,32.511778,-116.907666,,,,,,,,MX,2016-05-16,2016-10-20,,,,,,,,['4bf58dd8d48988d151941735'],['Dining and Drinking > Restaurant > Mexican Restaurant > Taco Restaurant'],https://foursquare.com/placemakers/review-place/573a44e5498e0be9341bba45,"b'\x00\x00\x00\x00\x01\xc0]:\x173""l<@@A\x81\xf1\x06g\xf9'","{'xmin': -116.907666, 'ymin': 32.511778, 'xmax': -116.907666, 'ymax': 32.511778}",dining and drinking > restaurant > mexican restaurant > taco restaurant,1
5076e3cde4b024f6d605c20b,Burros Cadillac,31.783037185668945,-116.59043884277344,,,,,,,,MX,2012-10-11,2014-03-07,,,,,,,,['4bf58dd8d48988d151941735'],['Dining and Drinking > Restaurant > Mexican Restaurant > Taco Restaurant'],https://foursquare.com/placemakers/review-place/5076e3cde4b024f6d605c20b,b'\x00\x00\x00\x00\x01\xc0]%\xc9\xc0\x00\x00\x00@?\xc8u \x00\x00\x00',"{'xmin': -116.59043884277344, 'ymin': 31.783037185668945, 'xmax': -116.59043884277344, 'ymax': 31.783037185668945}",dining and drinking > restaurant > mexican restaurant > taco restaurant,1
4fc6765ae4b05ab8c3fd2efa,"Tacos De Birria ""El Novillo""",32.528464,-117.025751,,,,,,,,MX,2012-05-30,2024-12-20,,,,,,,,['4bf58dd8d48988d151941735'],['Dining and Drinking > Restaurant > Mexican Restaurant > Taco Restaurant'],https://foursquare.com/placemakers/review-place/4fc6765ae4b05ab8c3fd2efa,b'\x00\x00\x00\x00\x01\xc0]A\xa5\xe7\x85\xb5\xb7@@C\xa4\xb5V\x8e\x82',"{'xmin': -117.025751, 'ymin': 32.528464, 'xmax': -117.025751, 'ymax': 32.528464}",dining and drinking > restaurant > mexican restaurant > taco restaurant,1
65ac1bbd0e464e04c26f76d4,Tacos Del Regio,32.63429,-115.386444,,Mexicali,Baja California,21376,,,,MX,2024-01-20,2024-01-20,,,,,,,,['4bf58dd8d48988d151941735'],['Dining and Drinking > Restaurant > Mexican Restaurant > Taco Restaurant'],https://foursquare.com/placemakers/review-place/65ac1bbd0e464e04c26f76d4,b'\x00\x00\x00\x00\x01\xc0\\\xd8\xbb\x7f\x9do\x11@@Q0j+\x17\x05',"{'xmin': -115.386444, 'ymin': 32.63429, 'xmax': -115.386444, 'ymax': 32.63429}",dining and drinking > restaurant > mexican restaurant > taco restaurant,1
5f30ca13e71d621e03748a72,Birria La Flor de Sonora,31.790902,-116.586655,Boulevard Zertuche 932,Ensenada,BC,22785,,,,MX,2020-08-10,2020-08-22,,,,,,,,['4bf58dd8d48988d151941735'],['Dining and Drinking > Restaurant > Mexican Restaurant > Taco Restaurant'],https://foursquare.com/placemakers/review-place/5f30ca13e71d621e03748a72,b'\x00\x00\x00\x00\x01\xc0]%\x8b\xc1i\xc2;@?\xcax\x8d\xb0WK',"{'xmin': -116.586655, 'ymin': 31.790902, 'xmax': -116.586655, 'ymax': 31.790902}",dining and drinking > restaurant > mexican restaurant > taco restaurant,1
51509363e4b04b412336798b,Tacos Doña Juanita,32.651757,-115.426413,Leona Vicario,Mexicali,Baja California,,,,,MX,2013-03-25,2013-06-22,,,,,,,,['4bf58dd8d48988d151941735'],['Dining and Drinking > Restaurant > Mexican Restaurant > Taco Restaurant'],https://foursquare.com/placemakers/review-place/51509363e4b04b412336798b,b'\x00\x00\x00\x00\x01\xc0\\\xdbJY\xc0e\xb6@@Sl\xc5\xfb\xf84',"{'xmin': -115.426413, 'ymin': 32.651757, 'xmax': -115.426413, 'ymax': 32.651757}",dining and drinking > restaurant > mexican restaurant > taco restaurant,1
4d312b21f8c9224ba188a4d2,Restaurant Hacienda El Torito,32.53451485571315,-117.03698300059548,Revolución 643,Tijuana,BC,22000,,,,MX,2011-01-15,2024-08-27,,664 685 1636,,,,,,"['4bf58dd8d48988d1c1941735' '4bf58dd8d48988d116941735'
 '4bf58dd8d48988d151941735']","['Dining and Drinking > Restaurant > Mexican Restaurant'
 'Dining and Drinking > Bar'
 'Dining and Drinking > Restaurant > Mexican Restaurant > Taco Restaurant']",https://foursquare.com/placemakers/review-place/4d312b21f8c9224ba188a4d2,b'\x00\x00\x00\x00\x01\xc0]B]\xed\xf2\x842@@Dj\xfb\x98A\xcf',"{'xmin': -117.03698300059548, 'ymin': 32.53451485571315, 'xmax': -117.03698300059548, 'ymax': 32.53451485571315}","dining and drinking > restaurant > mexican restaurant, dining and drinking > bar, dining and drinking > restaurant > mexican restaurant > taco restaurant",1
58fe171712f0a940c814aa94,Bierrieria Y Menuderia Santa Anita,32.53705,-116.902846,,Tijuana,BC,22519,,,,MX,2017-04-24,2017-04-24,,,,,,,,['4bf58dd8d48988d151941735'],['Dining and Drinking > Restaurant > Mexican Restaurant > Taco Restaurant'],https://foursquare.com/placemakers/review-place/58fe171712f0a940c814aa94,b'\x00\x00\x00\x00\x01\xc0]9\xc8:\x96\xd4\xc3@@D\xbe\r\xed(\x8d',"{'xmin': -116.902846, 'ymin': 32.53705, 'xmax': -116.902846, 'ymax': 32.53705}",dining and drinking > restaurant > mexican restaurant > taco restaurant,1
4f7fe225e4b02f457f7876fb,Tacos el Zurdo II,32.34442443142297,-117.05958021239339,,,,,,,,MX,2012-04-07,2018-09-15,,,,,,,,['4bf58dd8d48988d151941735'],['Dining and Drinking > Restaurant > Mexican Restaurant > Taco Restaurant'],https://foursquare.com/placemakers/review-place/4f7fe225e4b02f457f7876fb,"b'\x00\x00\x00\x00\x01\xc0]C\xd0)\x85\xed\xf9@@,\x16\x19\x8as\xd9'","{'xmin': -117.05958021239339, 'ymin': 32.34442443142297, 'xmax': -117.05958021239339, 'ymax': 32.34442443142297}",dining and drinking > restaurant > mexican restaurant > taco restaurant,1
4c3a6b1b3849c928a5ffc2b1,Tacos El Cachanilla #2,32.52686,-117.047588,Calle Ignacio Allende,Tijuana,BC,,,,,MX,2010-07-12,2024-12-10,,,,,,,,['4bf58dd8d48988d151941735'],['Dining and Drinking > Restaurant > Mexican Restaurant > Taco Restaurant'],https://foursquare.com/placemakers/review-place/4c3a6b1b3849c928a5ffc2b1,b'\x00\x00\x00\x00\x01\xc0]C\x0b\xae\x89\xeb\xa7@@Cp&\x02\xc9\x08',"{'xmin': -117.047588, 'ymin': 32.52686, 'xmax': -117.047588, 'ymax': 32.52686}",dining and drinking > restaurant > mexican restaurant > taco restaurant,1
4d921cc0f5388cfab103c53d,El Reten,32.61207,-115.518584,,,,,,,,MX,2011-03-29,2016-09-29,,,,,,,,['4bf58dd8d48988d151941735'],['Dining and Drinking > Restaurant > Mexican Restaurant > Taco Restaurant'],https://foursquare.com/placemakers/review-place/4d921cc0f5388cfab103c53d,b'\x00\x00\x00\x00\x01\xc0\\\xe10z\xf2\x0e\xa6@@NXOLnn',"{'xmin': -115.518584, 'ymin': 32.61207, 'xmax': -115.518584, 'ymax': 32.61207}",dining and drinking > restaurant > mexican restaurant > taco restaurant,1
52771d7111d20efbf136e79f,El Kobe,32.635013580322266,-115.38939666748047,,,,,,,,MX,2013-11-04,2016-02-28,,,,,,,,['4bf58dd8d48988d151941735'],['Dining and Drinking > Restaurant > Mexican Restaurant > Taco Restaurant'],https://foursquare.com/placemakers/review-place/52771d7111d20efbf136e79f,b'\x00\x00\x00\x00\x01\xc0\\\xd8\xeb\xe0\x00\x00\x00@@QH \x00\x00\x00',"{'xmin': -115.38939666748047, 'ymin': 32.635013580322266, 'xmax': -115.38939666748047, 'ymax': 32.635013580322266}",dining and drinking > restaurant > mexican restaurant > taco restaurant,1
649743bad40a843099aae97c,Tacos A Vapor • Camacho,32.463794,-114.759333,,San Luis Río Colorado,SON,83448,,,,MX,2023-06-24,2023-06-24,,,,,,,,['4bf58dd8d48988d151941735'],['Dining and Drinking > Restaurant > Mexican Restaurant > Taco Restaurant'],https://foursquare.com/placemakers/review-place/649743bad40a843099aae97c,b'\x00\x00\x00\x00\x01\xc0\\\xb0\x98\xe9pq\x82@@;]\x9a\x0f\n_',"{'xmin': -114.759333, 'ymin': 32.463794, 'xmax': -114.759333, 'ymax': 32.463794}",dining and drinking > restaurant > mexican restaurant > taco restaurant,1
4e25a5ac62e12f2b95e9d110,Tacos Montejano,32.64491614084288,-115.46789221336753,,Mexicali,Baja California,,,,,MX,2011-07-19,2016-03-27,,,,,,,,['4bf58dd8d48988d151941735'],['Dining and Drinking > Restaurant > Mexican Restaurant > Taco Restaurant'],https://foursquare.com/placemakers/review-place/4e25a5ac62e12f2b95e9d110,b'\x00\x00\x00\x00\x01\xc0\\\xdd\xf1\xf2.\x9d\xdd@@R\x8c\x9c\xb2\xca\x96',"{'xmin': -115.46789221336753, 'ymin': 32.64491614084288, 'xmax': -115.46789221336753, 'ymax': 32.64491614084288}",dining and drinking > restaurant > mexican restaurant > taco restaurant,1
4f30c26ae4b02344c214898f,Asadero Autlán,32.62127848356961,-115.47935649107046,Blvd. Anahuac,Mexicali,,,,,,MX,2012-02-07,2015-08-20,,,,,,,,['4bf58dd8d48988d151941735'],['Dining and Drinking > Restaurant > Mexican Restaurant > Taco Restaurant'],https://foursquare.com/placemakers/review-place/4f30c26ae4b02344c214898f,b'\x00\x00\x00\x00\x01\xc0\\\xde\xad\xc6\xd9\x11x@@O\x86\r\xa8Q\xea',"{'xmin': -115.47935649107046, 'ymin': 32.62127848356961, 'xmax': -115.47935649107046, 'ymax': 32.62127848356961}",dining and drinking > restaurant > mexican restaurant > taco restaurant,1
59fcb70e8496ca4e8098e8d7,Tacos A Vapor Moreno,32.65857,-115.427842,Calzada Aviación,Mexicali,BC,21210,,,,MX,2017-11-03,2017-11-03,,,,,,,,['4bf58dd8d48988d1cb941735' '4bf58dd8d48988d151941735'],"['Dining and Drinking > Food Truck'
 'Dining and Drinking > Restaurant > Mexican Restaurant > Taco Restaurant']",https://foursquare.com/placemakers/review-place/59fcb70e8496ca4e8098e8d7,b'\x00\x00\x00\x00\x01\xc0\\\xdba\xc3iv\xbc@@TL\x05\x92\x108',"{'xmin': -115.427842, 'ymin': 32.65857, 'xmax': -115.427842, 'ymax': 32.65857}","dining and drinking > food truck, dining and drinking > restaurant > mexican restaurant > taco restaurant",1
509db9a0e4b0cfcd39b388f5,tacos,20.691460878002033,-103.35427565684878,Av. federalismo,guadalajara,Jalisco,,,,,MX,2012-11-10,2014-10-24,,,,,,,,['4bf58dd8d48988d151941735'],['Dining and Drinking > Restaurant > Mexican Restaurant > Taco Restaurant'],https://foursquare.com/placemakers/review-place/509db9a0e4b0cfcd39b388f5,b'\x00\x00\x00\x00\x01\xc0Y\xd6\xacs\xcd\xfb\xce@4\xb1\x03\x94\x81{p',"{'xmin': -103.35427565684878, 'ymin': 20.691460878002033, 'xmax': -103.35427565684878, 'ymax': 20.691460878002033}",dining and drinking > restaurant > mexican restaurant > taco restaurant,1
5976118ce185f32f9a27348f,Birriería Don Nico,20.705197,-103.363028,La Soledad 1722,Guadalajara,JAL,44210,,,,MX,2017-07-24,2017-07-24,,,,,,,,['4bf58dd8d48988d151941735' '56aa371be4b08b9a8d57350b'],"['Dining and Drinking > Restaurant > Mexican Restaurant > Taco Restaurant'
 'Dining and Drinking > Food Stand']",https://foursquare.com/placemakers/review-place/5976118ce185f32f9a27348f,b'\x00\x00\x00\x00\x01\xc0Y\xd7;\xd9\xca\xe2\x11@4\xb4\x87\xcad<\xc0',"{'xmin': -103.363028, 'ymin': 20.705197, 'xmax': -103.363028, 'ymax': 20.705197}","dining and drinking > restaurant > mexican restaurant > taco restaurant, dining and drinking > food stand",1
5466c4fa498ed1a67d31aba2,"Taqueria ""Otro rollo""",20.653002,-103.250866,,,,,,,,MX,2014-11-15,2018-06-07,,,,,,,,['4bf58dd8d48988d151941735'],['Dining and Drinking > Restaurant > Mexican Restaurant > Taco Restaurant'],https://foursquare.com/placemakers/review-place/5466c4fa498ed1a67d31aba2,b'\x00\x00\x00\x00\x01\xc0Y\xd0\x0e0Dkj@4\xa7+#\x9a8\xfc',"{'xmin': -103.250866, 'ymin': 20.653002, 'xmax': -103.250866, 'ymax': 20.653002}",dining and drinking > restaurant > mexican restaurant > taco restaurant,1
4c4b61a8c668e21e2186faf9,Marisma Fish Taco,20.667242038356573,-105.24929048558894,Quilla Local 00,Puerto Vallarta,JAL,48335,,,,MX,2010-07-24,2024-08-02,,,,,112804815425807.0,,,"['4bf58dd8d48988d1ce941735' '4bf58dd8d48988d151941735'
 '4bf58dd8d48988d1c1941735']","['Dining and Drinking > Restaurant > Seafood Restaurant'
 'Dining and Drinking > Restaurant > Mexican Restaurant > Taco Restaurant'
 'Dining and Drinking > Restaurant > Mexican Restaurant']",https://foursquare.com/placemakers/review-place/4c4b61a8c668e21e2186faf9,b'\x00\x00\x00\x00\x01\xc0ZO\xf4`\x14\xb3\xbe@4\xaa\xd0_\xcdB\x03',"{'xmin': -105.24929048558894, 'ymin': 20.667242038356573, 'xmax': -105.24929048558894, 'ymax': 20.667242038356573}","dining and drinking > restaurant > seafood restaurant, dining and drinking > restaurant > mexican restaurant > taco restaurant, dining and drinking > restaurant > mexican restaurant",1
536c4e5a498e256851be5a27,Lechón Aguascalientes,22.15218734741211,-100.99345397949219,Mariano Otero,,,,,,,MX,2014-05-09,2019-03-09,,,,,,,,['4bf58dd8d48988d151941735'],['Dining and Drinking > Restaurant > Mexican Restaurant > Taco Restaurant'],https://foursquare.com/placemakers/review-place/536c4e5a498e256851be5a27,b'\x00\x00\x00\x00\x01\xc0Y?\x94\xc0\x00\x00\x00@6&\xf5\xc0\x00\x00\x00',"{'xmin': -100.99345397949219, 'ymin': 22.15218734741211, 'xmax': -100.99345397949219, 'ymax': 22.15218734741211}",dining and drinking > restaurant > mexican restaurant > taco restaurant,1
61089a3207179e09607323de,Tacos Los Morenos,20.664434,-103.39246,Calz. Lázaro Cárdenas 3175,Guadalajara,JAL,44520,,,,MX,2021-08-03,2022-08-05,,,,,,,,['4bf58dd8d48988d151941735'],['Dining and Drinking > Restaurant > Mexican Restaurant > Taco Restaurant'],https://foursquare.com/placemakers/review-place/61089a3207179e09607323de,b'\x00\x00\x00\x00\x01\xc0Y\xd9\x1e\x10\x8c?>@4\xaa\x18X\xbcY\xb8',"{'xmin': -103.39246, 'ymin': 20.664434, 'xmax': -103.39246, 'ymax': 20.664434}",dining and drinking > restaurant > mexican restaurant > taco restaurant,1
5023e7efe4b07e351c0968c5,Tacos El Fer,21.88727501194368,-102.25115680371734,Esquina De Montoro,Aguascalientes,AGS,,,,,MX,2012-08-09,2019-07-12,,,,,,,,['4bf58dd8d48988d1cb941735' '4bf58dd8d48988d151941735'],"['Dining and Drinking > Food Truck'
 'Dining and Drinking > Restaurant > Mexican Restaurant > Taco Restaurant']",https://foursquare.com/placemakers/review-place/5023e7efe4b07e351c0968c5,b'\x00\x00\x00\x00\x01\xc0Y\x90\x12\xf3\xfc\x88\x91@5\xe3$t\x86\xdb*',"{'xmin': -102.25115680371734, 'ymin': 21.88727501194368, 'xmax': -102.25115680371734, 'ymax': 21.88727501194368}","dining and drinking > food truck, dining and drinking > restaurant > mexican restaurant > taco restaurant",1
573a8671498e0391a9e01248,Taquería El Pastor de Santiaguito,20.752375173311925,-103.39036836748072,,Zapopan,Jalisco,,,,,MX,2016-05-17,2024-11-28,,,,,,,,['4bf58dd8d48988d151941735'],['Dining and Drinking > Restaurant > Mexican Restaurant > Taco Restaurant'],https://foursquare.com/placemakers/review-place/573a8671498e0391a9e01248,b'\x00\x00\x00\x00\x01\xc0Y\xd8\xfb\xcb\x9a\xee?@4\xc0\x9b\xa8\xcb\xb2r',"{'xmin': -103.39036836748072, 'ymin': 20.752375173311925, 'xmax': -103.39036836748072, 'ymax': 20.752375173311925}",dining and drinking > restaurant > mexican restaurant > taco restaurant,1
55bd89da498e2ff947f764b3,Taquerí Tlecuitl,20.56905,-103.488446,,,,,,,,MX,2015-08-02,2018-12-15,,,,,,,,['4bf58dd8d48988d151941735'],['Dining and Drinking > Restaurant > Mexican Restaurant > Taco Restaurant'],https://foursquare.com/placemakers/review-place/55bd89da498e2ff947f764b3,b'\x00\x00\x00\x00\x01\xc0Y\xdfB\xb3\x02\xf7+@4\x91\xadB\xc3\xc9\xef',"{'xmin': -103.488446, 'ymin': 20.56905, 'xmax': -103.488446, 'ymax': 20.56905}",dining and drinking > restaurant > mexican restaurant > taco restaurant,1
533792bf498ed4b327ea722e,Tacos Rigo,20.650967874579926,-103.37380402247658,Cruz Del Sur 147,Guadalajara,Jalisco,,,,,MX,2013-09-07,2019-04-29,,,,,,,,['4bf58dd8d48988d151941735'],['Dining and Drinking > Restaurant > Mexican Restaurant > Taco Restaurant'],https://foursquare.com/placemakers/review-place/533792bf498ed4b327ea722e,b'\x00\x00\x00\x00\x01\xc0Y\xd7\xecg\xb4\xe9\x9c@4\xa6\xa5\xd4\xa4\x11B',"{'xmin': -103.37380402247658, 'ymin': 20.650967874579926, 'xmax': -103.37380402247658, 'ymax': 20.650967874579926}",dining and drinking > restaurant > mexican restaurant > taco restaurant,1
55bc2c38498e97ddab4483f1,Tacos El Chino,20.661699851340682,-103.28429268501053,,,,,,,,MX,2015-08-01,2019-12-25,,,,,,,,['4bf58dd8d48988d151941735'],['Dining and Drinking > Restaurant > Mexican Restaurant > Taco Restaurant'],https://foursquare.com/placemakers/review-place/55bc2c38498e97ddab4483f1,"b""\x00\x00\x00\x00\x01\xc0Y\xd21\xd9\xf2'/@4\xa9e)UF\xbb""","{'xmin': -103.28429268501053, 'ymin': 20.661699851340682, 'xmax': -103.28429268501053, 'ymax': 20.661699851340682}",dining and drinking > restaurant > mexican restaurant > taco restaurant,1
525cb41411d29b683dfe0121,tacos mario,20.640254974365234,-103.40251922607422,,,,,,,,MX,2013-10-15,2018-09-09,,,,,,,,['4bf58dd8d48988d151941735'],['Dining and Drinking > Restaurant > Mexican Restaurant > Taco Restaurant'],https://foursquare.com/placemakers/review-place/525cb41411d29b683dfe0121,b'\x00\x00\x00\x00\x01\xc0Y\xd9\xc2\xe0\x00\x00\x00@4\xa3\xe7\xc0\x00\x00\x00',"{'xmin': -103.40251922607422, 'ymin': 20.640254974365234, 'xmax': -103.40251922607422, 'ymax': 20.640254974365234}",dining and drinking > restaurant > mexican restaurant > taco restaurant,1
65467d8ac7c734207617db89,El Papá De Los Arrieros Barrio Santa Maria,20.627677983164247,-105.22230219842639,san juan de dios 126,Puerto Vallarta,Jalisco,48325,,,,MX,2023-11-04,2024-02-29,,,,,,,,['4bf58dd8d48988d151941735'],['Dining and Drinking > Restaurant > Mexican Restaurant > Taco Restaurant'],https://foursquare.com/placemakers/review-place/65467d8ac7c734207617db89,b'\x00\x00\x00\x00\x01\xc0ZN:3\x00\x04\x7f@4\xa0\xaf\x81\x1a\x1c\x14',"{'xmin': -105.22230219842639, 'ymin': 20.627677983164247, 'xmax': -105.22230219842639, 'ymax': 20.627677983164247}",dining and drinking > restaurant > mexican restaurant > taco restaurant,1
52b46e0511d2a33fd42dee0b,Tacos Efren,20.676798,-103.31437,,,,,,,,MX,2013-12-20,2023-09-21,,,,,,,,['4bf58dd8d48988d151941735'],['Dining and Drinking > Restaurant > Mexican Restaurant > Taco Restaurant'],https://foursquare.com/placemakers/review-place/52b46e0511d2a33fd42dee0b,b'\x00\x00\x00\x00\x01\xc0Y\xd4\x1e\xa3Y5\xfc@4\xadB\xa2;\xff\x8b',"{'xmin': -103.31437, 'ymin': 20.676798, 'xmax': -103.31437, 'ymax': 20.676798}",dining and drinking > restaurant > mexican restaurant > taco restaurant,1
52c77c4a498e8ab801ea7433,tacos vikis,20.512067794799805,-105.31349182128906,,,,,,,,MX,2014-01-04,2018-08-18,,,,,,,,['4bf58dd8d48988d151941735'],['Dining and Drinking > Restaurant > Mexican Restaurant > Taco Restaurant'],https://foursquare.com/placemakers/review-place/52c77c4a498e8ab801ea7433,b'\x00\x00\x00\x00\x01\xc0ZT\x10@\x00\x00\x00@4\x83\x16\xe0\x00\x00\x00',"{'xmin': -105.31349182128906, 'ymin': 20.512067794799805, 'xmax': -105.31349182128906, 'ymax': 20.512067794799805}",dining and drinking > restaurant > mexican restaurant > taco restaurant,1
52dc17a2498e4e22dd56ff32,Las Quekas,20.651121432764626,-103.3996491086568,Plaza del Sol,Zaoopan,Jalisco,,,,,MX,2014-01-19,2024-12-10,,,,,,,,['4bf58dd8d48988d151941735' '4bf58dd8d48988d1c1941735'],"['Dining and Drinking > Restaurant > Mexican Restaurant > Taco Restaurant'
 'Dining and Drinking > Restaurant > Mexican Restaurant']",https://foursquare.com/placemakers/review-place/52dc17a2498e4e22dd56ff32,b'\x00\x00\x00\x00\x01\xc0Y\xd9\x93\xd9\xda\xe3\x9e@4\xa6\xaf\xe4\xebr\xe0',"{'xmin': -103.3996491086568, 'ymin': 20.651121432764626, 'xmax': -103.3996491086568, 'ymax': 20.651121432764626}","dining and drinking > restaurant > mexican restaurant > taco restaurant, dining and drinking > restaurant > mexican restaurant",1
5d5f41682fdd7a0008ab3267,Tacos Al Pastor Fonseca,20.697095,-103.389394,,Guadalajara,JAL,44647,,,,MX,2019-08-23,2023-01-24,,,,,,,,['4bf58dd8d48988d151941735'],['Dining and Drinking > Restaurant > Mexican Restaurant > Taco Restaurant'],https://foursquare.com/placemakers/review-place/5d5f41682fdd7a0008ab3267,b'\x00\x00\x00\x00\x01\xc0Y\xd8\xeb\xd4\xcf\xd0\x8d@4\xb2t\xd1c4\x83',"{'xmin': -103.389394, 'ymin': 20.697095, 'xmax': -103.389394, 'ymax': 20.697095}",dining and drinking > restaurant > mexican restaurant > taco restaurant,1
576e05f0498e4989bdd92b36,Taqueria Juanis,20.750896,-105.383255,,,,,,,,MX,2016-06-25,2016-07-08,,,,,,,,['4bf58dd8d48988d151941735'],['Dining and Drinking > Restaurant > Mexican Restaurant > Taco Restaurant'],https://foursquare.com/placemakers/review-place/576e05f0498e4989bdd92b36,b'\x00\x00\x00\x00\x01\xc0ZX\x87?\xfa\xc1\xd3@4\xc0:\xb8b\xb2}',"{'xmin': -105.383255, 'ymin': 20.750896, 'xmax': -105.383255, 'ymax': 20.750896}",dining and drinking > restaurant > mexican restaurant > taco restaurant,1
56512def498e5c499f481985,Republica Taco,20.644608707894328,-105.23663917547638,Fco. Medina Ascencio,Pto. Vallarta,Jalisco,,,,,MX,2015-11-22,2020-10-25,,,,,,,,['4bf58dd8d48988d151941735'],['Dining and Drinking > Restaurant > Mexican Restaurant > Taco Restaurant'],https://foursquare.com/placemakers/review-place/56512def498e5c499f481985,b'\x00\x00\x00\x00\x01\xc0ZO%\x18\xa3\xe7\xe7@4\xa5\x05\x13\x87\x1fz',"{'xmin': -105.23663917547638, 'ymin': 20.644608707894328, 'xmax': -105.23663917547638, 'ymax': 20.644608707894328}",dining and drinking > restaurant > mexican restaurant > taco restaurant,1
4dc4b12b52b1e8f9f7c20a66,Tacos Licho,19.257862,-103.730171,La Cruz Gorda,Colima,COL,,,,,MX,2011-05-07,2025-01-07,,,,,,,,['4bf58dd8d48988d151941735'],['Dining and Drinking > Restaurant > Mexican Restaurant > Taco Restaurant'],https://foursquare.com/placemakers/review-place/4dc4b12b52b1e8f9f7c20a66,b'\x00\x00\x00\x00\x01\xc0Y\xee\xbb\x1f%_5@3B\x03>x\xe1\x93',"{'xmin': -103.730171, 'ymin': 19.257862, 'xmax': -103.730171, 'ymax': 19.257862}",dining and drinking > restaurant > mexican restaurant > taco restaurant,1
53f6b833498ebfcd29cfa72e,tacos el cazador,19.26609590069916,-103.73492692980638,,,,,,,,MX,2014-08-22,2016-06-27,,,,,,,,['4bf58dd8d48988d151941735'],['Dining and Drinking > Restaurant > Mexican Restaurant > Taco Restaurant'],https://foursquare.com/placemakers/review-place/53f6b833498ebfcd29cfa72e,b'\x00\x00\x00\x00\x01\xc0Y\xef\t\n\xf6\x1d\xf5@3D\x1e\xdcg\x1aA',"{'xmin': -103.73492692980638, 'ymin': 19.26609590069916, 'xmax': -103.73492692980638, 'ymax': 19.26609590069916}",dining and drinking > restaurant > mexican restaurant > taco restaurant,1
4f5ec36ae4b0569e04c93fc1,Tacos de tripa El Rojo,20.685009692895033,-103.36941981627015,Juan Álvarez,Guadalajara,Jalisco,,,,,MX,2012-03-13,2024-08-28,,,,,,,,['4bf58dd8d48988d151941735'],['Dining and Drinking > Restaurant > Mexican Restaurant > Taco Restaurant'],https://foursquare.com/placemakers/review-place/4f5ec36ae4b0569e04c93fc1,b'\x00\x00\x00\x00\x01\xc0Y\xd7\xa4\x93\x03W\xfa@4\xaf\\\xcb\x94m[',"{'xmin': -103.36941981627015, 'ymin': 20.685009692895033, 'xmax': -103.36941981627015, 'ymax': 20.685009692895033}",dining and drinking > restaurant > mexican restaurant > taco restaurant,1
50dfeb65e4b0c73e700cc4c1,tacos el paisa,21.888574600219727,-102.24707794189453,,,,,,,,MX,2012-12-30,2024-04-15,,,,,,,,['4bf58dd8d48988d151941735'],['Dining and Drinking > Restaurant > Mexican Restaurant > Taco Restaurant'],https://foursquare.com/placemakers/review-place/50dfeb65e4b0c73e700cc4c1,b'\x00\x00\x00\x00\x01\xc0Y\x8f\xd0 \x00\x00\x00@5\xe3y\xa0\x00\x00\x00',"{'xmin': -102.24707794189453, 'ymin': 21.888574600219727, 'xmax': -102.24707794189453, 'ymax': 21.888574600219727}",dining and drinking > restaurant > mexican restaurant > taco restaurant,1
4bd473e55631c9b6df57a230,Tacos Omar Carlos,20.64348254169594,-103.42094056207611,Patria 4970,Zapopan,JAL,45070,,,,MX,2010-04-25,2024-12-17,,33 3628 2701,http://omarcarlos.com,,,,,['4bf58dd8d48988d151941735'],['Dining and Drinking > Restaurant > Mexican Restaurant > Taco Restaurant'],https://foursquare.com/placemakers/review-place/4bd473e55631c9b6df57a230,b'\x00\x00\x00\x00\x01\xc0Y\xda\xf0\xb0\xae\xebP@4\xa4\xbbE\x98!\x8a',"{'xmin': -103.42094056207611, 'ymin': 20.64348254169594, 'xmax': -103.42094056207611, 'ymax': 20.64348254169594}",dining and drinking > restaurant > mexican restaurant > taco restaurant,1
4e66f357b61cf40ed670fd5d,Don Polo,21.906896894080667,-102.29656572263521,Av Independencia,Aguascalientes,AGS,,,,,MX,2011-09-07,2024-11-20,,,,,,,,['4bf58dd8d48988d151941735' '4bf58dd8d48988d1cb941735'],"['Dining and Drinking > Restaurant > Mexican Restaurant > Taco Restaurant'
 'Dining and Drinking > Food Truck']",https://foursquare.com/placemakers/review-place/4e66f357b61cf40ed670fd5d,b'\x00\x00\x00\x00\x01\xc0Y\x92\xfa\xee\xcb\xf5M@5\xe8*e\x14\xeb\xa2',"{'xmin': -102.29656572263521, 'ymin': 21.906896894080667, 'xmax': -102.29656572263521, 'ymax': 21.906896894080667}","dining and drinking > restaurant > mexican restaurant > taco restaurant, dining and drinking > food truck",1
4cfa6d5a34c1a0935919400e,Tacos De Barbacoa Morelos,21.8531666,-102.263616,Hermanos Galeana 1206,Aguascalientes,AGS,,,,,MX,2010-12-04,2014-06-03,,,,,,,,['4bf58dd8d48988d151941735'],['Dining and Drinking > Restaurant > Mexican Restaurant > Taco Restaurant'],https://foursquare.com/placemakers/review-place/4cfa6d5a34c1a0935919400e,b'\x00\x00\x00\x00\x01\xc0Y\x90\xdf\x15\xa4\xac\xf3@5\xdai U\n\x1e',"{'xmin': -102.263616, 'ymin': 21.8531666, 'xmax': -102.263616, 'ymax': 21.8531666}",dining and drinking > restaurant > mexican restaurant > taco restaurant,1
4fa5aec5e4b05483071e9fb4,Tacos Candido's,20.61763574000027,-103.06974965414811,Ávila Camacho,Zapotlanejo,Jalisco,,,,,MX,2012-05-05,2014-02-16,,,,,,,,['4bf58dd8d48988d151941735'],['Dining and Drinking > Restaurant > Mexican Restaurant > Taco Restaurant'],https://foursquare.com/placemakers/review-place/4fa5aec5e4b05483071e9fb4,b'\x00\x00\x00\x00\x01\xc0Y\xc4v\xc7@\xdeM@4\x9e\x1d`8$U',"{'xmin': -103.06974965414811, 'ymin': 20.61763574000027, 'xmax': -103.06974965414811, 'ymax': 20.61763574000027}",dining and drinking > restaurant > mexican restaurant > taco restaurant,1
4df03473c65b0270f3a2bb0e,"Tacos ""Los Potrillos""",22.128561855313855,-100.90419885895565,,San Luis Potosi,SLP,,,,,MX,2011-06-09,2020-01-09,,,,,,,,['4bf58dd8d48988d151941735'],['Dining and Drinking > Restaurant > Mexican Restaurant > Taco Restaurant'],https://foursquare.com/placemakers/review-place/4df03473c65b0270f3a2bb0e,b'\x00\x00\x00\x00\x01\xc0Y9\xded\xe4\x12\xe2@6 \xe9n\x04\x16\n',"{'xmin': -100.90419885895565, 'ymin': 22.128561855313855, 'xmax': -100.90419885895565, 'ymax': 22.128561855313855}",dining and drinking > restaurant > mexican restaurant > taco restaurant,1
51253a97e4b0b58b83e5fcf4,Ta' Copeton,20.727133576602313,-103.43071956389286,Av. Central,Zapopan,JAL,45136,,,,MX,2013-02-20,2017-06-12,2017-06-12,,http://tacopeton.mx,,,,,['4bf58dd8d48988d151941735'],['Dining and Drinking > Restaurant > Mexican Restaurant > Taco Restaurant'],https://foursquare.com/placemakers/review-place/51253a97e4b0b58b83e5fcf4,b'\x00\x00\x00\x00\x01\xc0Y\xdb\x90\xe8\xca*\xb4@4\xba%m\x13T\x98',"{'xmin': -103.43071956389286, 'ymin': 20.727133576602313, 'xmax': -103.43071956389286, 'ymax': 20.727133576602313}",dining and drinking > restaurant > mexican restaurant > taco restaurant,1
59f5f68025fb7b7c03651b02,El Chuy,21.870014,-102.25635,Paseo de Ojocaliente,Aguascalientes,Aguascalientes,20256,,,,MX,2017-10-29,2019-10-12,,,,,,,,['4bf58dd8d48988d151941735'],['Dining and Drinking > Restaurant > Mexican Restaurant > Taco Restaurant'],https://foursquare.com/placemakers/review-place/59f5f68025fb7b7c03651b02,b'\x00\x00\x00\x00\x01\xc0Y\x90h\t\xd4\x95\x18@5\xde\xb9<\xcd\x0f\xe9',"{'xmin': -102.25635, 'ymin': 21.870014, 'xmax': -102.25635, 'ymax': 21.870014}",dining and drinking > restaurant > mexican restaurant > taco restaurant,1
5a75386566fc651c2dd2f463,El Chubasco,20.996067,-101.290034,,Guanajuato,GTO,36251,,,,MX,2018-02-03,2018-03-21,,,,,,,,['4bf58dd8d48988d151941735' '4bf58dd8d48988d1c1941735'],"['Dining and Drinking > Restaurant > Mexican Restaurant > Taco Restaurant'
 'Dining and Drinking > Restaurant > Mexican Restaurant']",https://foursquare.com/placemakers/review-place/5a75386566fc651c2dd2f463,b'\x00\x00\x00\x00\x01\xc0YR\x8f\xea\xc4.\x99@4\xfe\xfe?5\x9f\xf5',"{'xmin': -101.290034, 'ymin': 20.996067, 'xmax': -101.290034, 'ymax': 20.996067}","dining and drinking > restaurant > mexican restaurant > taco restaurant, dining and drinking > restaurant > mexican restaurant",1
53a19b59498e37cf410f835b,Gorditas Doña Coco,21.88518433084629,-102.31236050567834,Av. Convención 1914 Pte. 1007,Aguascalientes,AGS,,,,,MX,2014-06-18,2024-11-28,,449 915 8669,,,,,,['4bf58dd8d48988d151941735'],['Dining and Drinking > Restaurant > Mexican Restaurant > Taco Restaurant'],https://foursquare.com/placemakers/review-place/53a19b59498e37cf410f835b,b'\x00\x00\x00\x00\x01\xc0Y\x93\xfd\xb6\xeb\x1c\xd5@5\xe2\x9bp\xb7\xea\x9d',"{'xmin': -102.31236050567834, 'ymin': 21.88518433084629, 'xmax': -102.31236050567834, 'ymax': 21.88518433084629}",dining and drinking > restaurant > mexican restaurant > taco restaurant,1
58f535ed50a6f054c26f267e,Festival del Taco PV,20.643706,-105.234979,,,,,,,,MX,2017-04-17,2019-12-25,,,,,,,,['4bf58dd8d48988d151941735'],['Dining and Drinking > Restaurant > Mexican Restaurant > Taco Restaurant'],https://foursquare.com/placemakers/review-place/58f535ed50a6f054c26f267e,b'\x00\x00\x00\x00\x01\xc0ZO\t\xe5\\\x0f\xcb@4\xa4\xc9\xea\x9a=.',"{'xmin': -105.234979, 'ymin': 20.643706, 'xmax': -105.234979, 'ymax': 20.643706}",dining and drinking > restaurant > mexican restaurant > taco restaurant,1
520d72ba11d26f6ab9561858,Carnes 'El Egipcio',20.751787185668945,-103.39091491699219,,,,,,,,MX,2013-08-16,2013-08-16,,,,,,,,['4bf58dd8d48988d151941735'],['Dining and Drinking > Restaurant > Mexican Restaurant > Taco Restaurant'],https://foursquare.com/placemakers/review-place/520d72ba11d26f6ab9561858,b'\x00\x00\x00\x00\x01\xc0Y\xd9\x04\xc0\x00\x00\x00@4\xc0u \x00\x00\x00',"{'xmin': -103.39091491699219, 'ymin': 20.751787185668945, 'xmax': -103.39091491699219, 'ymax': 20.751787185668945}",dining and drinking > restaurant > mexican restaurant > taco restaurant,1
5a0f97e7898bdc199c5577cf,Taco Chef,20.58135,-103.38293,González Gallo,San Pedro Tlaquepaque,Jalisco,45610,,,,MX,2017-11-18,2019-01-07,,,,,,,,['4bf58dd8d48988d151941735'],['Dining and Drinking > Restaurant > Mexican Restaurant > Taco Restaurant'],https://foursquare.com/placemakers/review-place/5a0f97e7898bdc199c5577cf,b'\x00\x00\x00\x00\x01\xc0Y\xd8\x81\xec\xd4\xaa\x11@4\x94\xd3Z\x85\x87\x94',"{'xmin': -103.38293, 'ymin': 20.58135, 'xmax': -103.38293, 'ymax': 20.58135}",dining and drinking > restaurant > mexican restaurant > taco restaurant,1
4d8785979324236ae9e7f70e,Tacos Torteados Doña Mary,20.228993820621003,-103.55709908794583,,Zacoalco,,,,,,MX,2011-03-21,2019-06-22,,,,,,,,['4bf58dd8d48988d1c1941735' '4bf58dd8d48988d151941735'],"['Dining and Drinking > Restaurant > Mexican Restaurant'
 'Dining and Drinking > Restaurant > Mexican Restaurant > Taco Restaurant']",https://foursquare.com/placemakers/review-place/4d8785979324236ae9e7f70e,b'\x00\x00\x00\x00\x01\xc0Y\xe3\xa7\x82\xee\xd6\xf6@4:\x9fV\xca\x8d\xa5',"{'xmin': -103.55709908794583, 'ymin': 20.228993820621003, 'xmax': -103.55709908794583, 'ymax': 20.228993820621003}","dining and drinking > restaurant > mexican restaurant, dining and drinking > restaurant > mexican restaurant > taco restaurant",1
54e4b695498e6ac819e4e219,Quesadillas Doña Lupe (La Generosa),21.909750180441122,-102.30326661523755,San Miguel El Alto 302,Aguascalientes,Aguascalientes,20130,,,,MX,2015-02-18,2018-05-29,,,,,,,,['4bf58dd8d48988d151941735'],['Dining and Drinking > Restaurant > Mexican Restaurant > Taco Restaurant'],https://foursquare.com/placemakers/review-place/54e4b695498e6ac819e4e219,b'\x00\x00\x00\x00\x01\xc0Y\x93h\xb8`\x9a}@5\xe8\xe5cH\x86T',"{'xmin': -102.30326661523755, 'ymin': 21.909750180441122, 'xmax': -102.30326661523755, 'ymax': 21.909750180441122}",dining and drinking > restaurant > mexican restaurant > taco restaurant,1
59ef6f728d0a533be37e922f,Tacos De Vapor Rafa,20.676201,-103.358544,,Guadalajara,JAL,44160,,,,MX,2017-10-24,2022-10-21,,,,,,,,['4bf58dd8d48988d151941735'],['Dining and Drinking > Restaurant > Mexican Restaurant > Taco Restaurant'],https://foursquare.com/placemakers/review-place/59ef6f728d0a533be37e922f,b'\x00\x00\x00\x00\x01\xc0Y\xd6\xf2b\x88\x8bT@4\xad\x1b\x82<\x85\xc2',"{'xmin': -103.358544, 'ymin': 20.676201, 'xmax': -103.358544, 'ymax': 20.676201}",dining and drinking > restaurant > mexican restaurant > taco restaurant,1
567b8050498e89ea6c89cf16,Tacos El Puente,19.234589,-104.56051,El Puente,Cihuatlán,Jalisco,,,,,MX,2015-12-24,2017-03-30,,,,,,,,['4bf58dd8d48988d151941735'],['Dining and Drinking > Restaurant > Mexican Restaurant > Taco Restaurant'],https://foursquare.com/placemakers/review-place/567b8050498e89ea6c89cf16,b'\x00\x00\x00\x00\x01\xc0Z#\xdfeU\xc5.@3<\x0e\x06S\x00X',"{'xmin': -104.56051, 'ymin': 19.234589, 'xmax': -104.56051, 'ymax': 19.234589}",dining and drinking > restaurant > mexican restaurant > taco restaurant,1
51041ea9e4b0fc9c292188d2,Tacos Tio Frank,21.48538898348727,-104.8848995733927,Calle España esquina con Avenida del Parque,Tepic,Nayarit,63000,,,,MX,2013-01-26,2017-04-08,,,,,,,,['4bf58dd8d48988d151941735'],['Dining and Drinking > Restaurant > Mexican Restaurant > Taco Restaurant'],https://foursquare.com/placemakers/review-place/51041ea9e4b0fc9c292188d2,b'\x00\x00\x00\x00\x01\xc0Z8\xa21\xd1\xfd\xd3@5|Bs\xd1\xea\xa0',"{'xmin': -104.8848995733927, 'ymin': 21.48538898348727, 'xmax': -104.8848995733927, 'ymax': 21.48538898348727}",dining and drinking > restaurant > mexican restaurant > taco restaurant,1
4c9c13309c48236aa6294bee,Tacos los 3 diaz,20.76516292493181,-103.43977689743042,Copalita,Jalisco,Zapopan,,,,,MX,2010-09-24,2018-04-23,,,,,,,,['4bf58dd8d48988d151941735'],['Dining and Drinking > Restaurant > Mexican Restaurant > Taco Restaurant'],https://foursquare.com/placemakers/review-place/4c9c13309c48236aa6294bee,b'\x00\x00\x00\x00\x01\xc0Y\xdc%N\x00\x00\x00@4\xc3\xe1\xb7\xaa\xb1\x9f',"{'xmin': -103.43977689743042, 'ymin': 20.76516292493181, 'xmax': -103.43977689743042, 'ymax': 20.76516292493181}",dining and drinking > restaurant > mexican restaurant > taco restaurant,1
599670782ebb3418ae579c93,Taqueria Panzonillos,20.601945,-103.418643,Bahia De Chetumal 440,Tlaquepaque,JAL,45609,,,,MX,2017-08-18,2017-08-18,,,,,,,,['4bf58dd8d48988d151941735'],['Dining and Drinking > Restaurant > Mexican Restaurant > Taco Restaurant'],https://foursquare.com/placemakers/review-place/599670782ebb3418ae579c93,b'\x00\x00\x00\x00\x01\xc0Y\xda\xcb\x0c\x02l\xc2@4\x9a\x19\x11H\xfd\xa0',"{'xmin': -103.418643, 'ymin': 20.601945, 'xmax': -103.418643, 'ymax': 20.601945}",dining and drinking > restaurant > mexican restaurant > taco restaurant,1
51a8ca87498e148e40964dd8,Barbacoa De Horno De Don Dario,21.863915,-102.232019,,,,,,,,MX,2013-05-31,2021-05-06,,,,,,,,['4bf58dd8d48988d151941735'],['Dining and Drinking > Restaurant > Mexican Restaurant > Taco Restaurant'],https://foursquare.com/placemakers/review-place/51a8ca87498e148e40964dd8,b'\x00\x00\x00\x00\x01\xc0Y\x8e\xd9f8C=@5\xdd)\x88\x8f\x86\x1a',"{'xmin': -102.232019, 'ymin': 21.863915, 'xmax': -102.232019, 'ymax': 21.863915}",dining and drinking > restaurant > mexican restaurant > taco restaurant,1
642b9fe1315440596a750733,Tacos Ramon,21.998362,-102.201299,Carretera Estatal #25 Aguascalientes-San Marcos,General José María Morelos y Pavón,Aguascalientes,20320,,,,MX,2023-04-04,2023-04-04,,,,,,,,['4bf58dd8d48988d151941735'],['Dining and Drinking > Restaurant > Mexican Restaurant > Taco Restaurant'],https://foursquare.com/placemakers/review-place/642b9fe1315440596a750733,b'\x00\x00\x00\x00\x01\xc0Y\x8c\xe2\x153m\xec@5\xff\x94\xa6\xeb\x91\xb4',"{'xmin': -102.201299, 'ymin': 21.998362, 'xmax': -102.201299, 'ymax': 21.998362}",dining and drinking > restaurant > mexican restaurant > taco restaurant,1
4e1b50a12271644b9afaa12f,Tacos Don Pepe,19.0498744,-104.31577773333333,5 de Mayo 324,Manzanillo,Colima,,,,,MX,2011-07-11,2019-12-31,,,,,,,,['4bf58dd8d48988d151941735'],['Dining and Drinking > Restaurant > Mexican Restaurant > Taco Restaurant'],https://foursquare.com/placemakers/review-place/4e1b50a12271644b9afaa12f,b'\x00\x00\x00\x00\x01\xc0Z\x145\xb3\xcf^0@3\x0c\xc4\x91\x94\xe8Z',"{'xmin': -104.31577773333333, 'ymin': 19.0498744, 'xmax': -104.31577773333333, 'ymax': 19.0498744}",dining and drinking > restaurant > mexican restaurant > taco restaurant,1
504cbb7fe4b04977deda9ce7,"Menudo ""ARBOLITOS""",22.1143236614111,-100.93175120834363,,,,,,,,MX,2012-09-09,2019-09-29,,,,,,,,['4bf58dd8d48988d151941735'],['Dining and Drinking > Restaurant > Mexican Restaurant > Taco Restaurant'],https://foursquare.com/placemakers/review-place/504cbb7fe4b04977deda9ce7,b'\x00\x00\x00\x00\x01\xc0Y;\xa1\xcf\xd1\xf6\n@6\x1dDP\xc2\xebn',"{'xmin': -100.93175120834363, 'ymin': 22.1143236614111, 'xmax': -100.93175120834363, 'ymax': 22.1143236614111}",dining and drinking > restaurant > mexican restaurant > taco restaurant,1
5b5bc2f622d490002cc8294a,Cochera  Veggie,22.156559,-100.990222,Anahuac 255,San Luis Potosí,S.L.P.,78250,,,,MX,2018-07-28,2020-01-30,,,,,,,,['4bf58dd8d48988d151941735'],['Dining and Drinking > Restaurant > Mexican Restaurant > Taco Restaurant'],https://foursquare.com/placemakers/review-place/5b5bc2f622d490002cc8294a,b'\x00\x00\x00\x00\x01\xc0Y?_\xcc\x18q\xe7@6(\x14@(\xe4\xfc',"{'xmin': -100.990222, 'ymin': 22.156559, 'xmax': -100.990222, 'ymax': 22.156559}",dining and drinking > restaurant > mexican restaurant > taco restaurant,1
5254bcad11d2fe9e6a27473d,Chalupas de Doña Irene,22.147340774536133,-100.98191833496094,,,,,,,,MX,2013-10-09,2018-01-20,,,,,,,,['4bf58dd8d48988d151941735'],['Dining and Drinking > Restaurant > Mexican Restaurant > Taco Restaurant'],https://foursquare.com/placemakers/review-place/5254bcad11d2fe9e6a27473d,b'\x00\x00\x00\x00\x01\xc0Y>\xd7\xc0\x00\x00\x00@6%\xb8 \x00\x00\x00',"{'xmin': -100.98191833496094, 'ymin': 22.147340774536133, 'xmax': -100.98191833496094, 'ymax': 22.147340774536133}",dining and drinking > restaurant > mexican restaurant > taco restaurant,1
4eef56eb77c82b92fa239053,Tacos Chuy,20.709254862406684,-103.34914304842742,,Guadalajara,,,,,,MX,2011-12-19,2019-01-16,,,,,,,,['4bf58dd8d48988d151941735'],['Dining and Drinking > Restaurant > Mexican Restaurant > Taco Restaurant'],https://foursquare.com/placemakers/review-place/4eef56eb77c82b92fa239053,b'\x00\x00\x00\x00\x01\xc0Y\xd6X\\\x15\xa7\xc7@4\xb5\x91\xba\x06\x90\xd1',"{'xmin': -103.34914304842742, 'ymin': 20.709254862406684, 'xmax': -103.34914304842742, 'ymax': 20.709254862406684}",dining and drinking > restaurant > mexican restaurant > taco restaurant,1
5695c688498eabd5a51e6151,El Zempoal,20.905007142695418,-100.74891346104313,,,,,,,,MX,2016-01-13,2024-12-31,,,,,,,,['4bf58dd8d48988d151941735'],['Dining and Drinking > Restaurant > Mexican Restaurant > Taco Restaurant'],https://foursquare.com/placemakers/review-place/5695c688498eabd5a51e6151,b'\x00\x00\x00\x00\x01\xc0Y/\xee2\xb9\xad\xb9@4\xe7\xae\x8cP\x85\xf2',"{'xmin': -100.74891346104313, 'ymin': 20.905007142695418, 'xmax': -100.74891346104313, 'ymax': 20.905007142695418}",dining and drinking > restaurant > mexican restaurant > taco restaurant,1
5b9ec0834b78c50039ec1cc4,Tres Generaciones (antojitos Mexicanos),21.037716,-104.368063,,Ixtlán del Río,NAY,63950,,,,MX,2018-09-16,2019-01-26,,,,,,,,['4bf58dd8d48988d151941735'],['Dining and Drinking > Restaurant > Mexican Restaurant > Taco Restaurant'],https://foursquare.com/placemakers/review-place/5b9ec0834b78c50039ec1cc4,b'\x00\x00\x00\x00\x01\xc0Z\x17\x8eX\x1c\xf7\x88@5\t\xa7\xc1z\x893',"{'xmin': -104.368063, 'ymin': 21.037716, 'xmax': -104.368063, 'ymax': 21.037716}",dining and drinking > restaurant > mexican restaurant > taco restaurant,1
51105604e4b042d4c077ca18,Tacos Felipe,20.685995367210563,-103.2626645122271,,,,,,,,MX,2013-02-05,2019-01-04,,,,,,,,['4bf58dd8d48988d151941735'],['Dining and Drinking > Restaurant > Mexican Restaurant > Taco Restaurant'],https://foursquare.com/placemakers/review-place/51105604e4b042d4c077ca18,b'\x00\x00\x00\x00\x01\xc0Y\xd0\xcf~\xd0ut@4\xaf\x9dds`{',"{'xmin': -103.2626645122271, 'ymin': 20.685995367210563, 'xmax': -103.2626645122271, 'ymax': 20.685995367210563}",dining and drinking > restaurant > mexican restaurant > taco restaurant,1
50ca89fae4b0212e77b2f276,Tacos Doña Rosa,21.498185,-104.903628,,,,,,,,MX,2012-12-14,2020-05-05,,,,,,,,['4bf58dd8d48988d151941735'],['Dining and Drinking > Restaurant > Mexican Restaurant > Taco Restaurant'],https://foursquare.com/placemakers/review-place/50ca89fae4b0212e77b2f276,b'\x00\x00\x00\x00\x01\xc0Z9\xd5\n\x88\xef\xfe@5\x7f\x89\rZ[\x96',"{'xmin': -104.903628, 'ymin': 21.498185, 'xmax': -104.903628, 'ymax': 21.498185}",dining and drinking > restaurant > mexican restaurant > taco restaurant,1
53addfcf498eeba73df9314c,rincon pibil,21.903092,-102.310229,,,,,,,,MX,2014-06-27,2014-06-27,,,,,,,,['4bf58dd8d48988d151941735'],['Dining and Drinking > Restaurant > Mexican Restaurant > Taco Restaurant'],https://foursquare.com/placemakers/review-place/53addfcf498eeba73df9314c,b'\x00\x00\x00\x00\x01\xc0Y\x93\xda\xca\xbcQU@5\xe71\t\x8dG|',"{'xmin': -102.310229, 'ymin': 21.903092, 'xmax': -102.310229, 'ymax': 21.903092}",dining and drinking > restaurant > mexican restaurant > taco restaurant,1
587afdc66cea3f55dc213394,Taquería Dos Fuegos,20.65555,-103.414936,Prado de los Eucaliptos 1220,Zapopan,Jalisco,,,,,MX,2017-01-15,2018-05-05,,,,,,,,['4bf58dd8d48988d151941735'],['Dining and Drinking > Restaurant > Mexican Restaurant > Taco Restaurant'],https://foursquare.com/placemakers/review-place/587afdc66cea3f55dc213394,b'\x00\x00\x00\x00\x01\xc0Y\xda\x8eO\xb9{\xb7@4\xa7\xd2\x1f\xf2\xe4\x8f',"{'xmin': -103.414936, 'ymin': 20.65555, 'xmax': -103.414936, 'ymax': 20.65555}",dining and drinking > restaurant > mexican restaurant > taco restaurant,1
50569b31e4b0244ddf59613c,tacos walle,19.26456449148797,-103.75069911344387,,,,,,,,MX,2012-09-17,2015-04-03,,312 320 7293,,,,,,['4bf58dd8d48988d151941735'],['Dining and Drinking > Restaurant > Mexican Restaurant > Taco Restaurant'],https://foursquare.com/placemakers/review-place/50569b31e4b0244ddf59613c,b'\x00\x00\x00\x00\x01\xc0Y\xf0\x0btKX+@3C\xba\x7f\x9e\x9f\xab',"{'xmin': -103.75069911344387, 'ymin': 19.26456449148797, 'xmax': -103.75069911344387, 'ymax': 19.26456449148797}",dining and drinking > restaurant > mexican restaurant > taco restaurant,1
66245bfbff4a1c2af12306d2,Peztaco,20.619096,-105.231732,C. Honduras 125,Puerto Vallarta,Jal.,48350,,,,MX,2024-04-21,2024-08-02,,,,,,,,"['4bf58dd8d48988d1ce941735' '4bf58dd8d48988d116941735'
 '4bf58dd8d48988d151941735']","['Dining and Drinking > Restaurant > Seafood Restaurant'
 'Dining and Drinking > Bar'
 'Dining and Drinking > Restaurant > Mexican Restaurant > Taco Restaurant']",https://foursquare.com/placemakers/review-place/66245bfbff4a1c2af12306d2,b'\x00\x00\x00\x00\x01\xc0ZN\xd4\xb2t[\xf2@4\x9e}\x13Q\x15\x9c',"{'xmin': -105.231732, 'ymin': 20.619096, 'xmax': -105.231732, 'ymax': 20.619096}","dining and drinking > restaurant > seafood restaurant, dining and drinking > bar, dining and drinking > restaurant > mexican restaurant > taco restaurant",1
565a780f498eb5055c941cc0,Tacos 'El Volcancito',21.241792245318138,-102.3230258654098,,,,,,,,MX,2015-11-29,2019-07-15,,,,,,,,['4bf58dd8d48988d151941735'],['Dining and Drinking > Restaurant > Mexican Restaurant > Taco Restaurant'],https://foursquare.com/placemakers/review-place/565a780f498eb5055c941cc0,b'\x00\x00\x00\x00\x01\xc0Y\x94\xact\xad\xec\x9f@5=\xe6\x18\xba\x11\\',"{'xmin': -102.3230258654098, 'ymin': 21.241792245318138, 'xmax': -102.3230258654098, 'ymax': 21.241792245318138}",dining and drinking > restaurant > mexican restaurant > taco restaurant,1
50416c31e4b0711880607a2e,tacos (sin nombre),20.693895245703672,-103.37322862053388,,,,,,,,MX,2012-09-01,2015-09-13,,,,,,,,['4bf58dd8d48988d151941735'],['Dining and Drinking > Restaurant > Mexican Restaurant > Taco Restaurant'],https://foursquare.com/placemakers/review-place/50416c31e4b0711880607a2e,b'\x00\x00\x00\x00\x01\xc0Y\xd7\xe2\xfaK\xc7\xf3@4\xb1\xa3\x1ek%\xac',"{'xmin': -103.37322862053388, 'ymin': 20.693895245703672, 'xmax': -103.37322862053388, 'ymax': 20.693895245703672}",dining and drinking > restaurant > mexican restaurant > taco restaurant,1
622baf566c69d066e78cb681,Birriería Don Pancho,20.637266,-105.229617,Niza #185,Puerto Vallarta,JAL,48310,,,,MX,2022-03-11,2022-03-11,,,,,,,,['4bf58dd8d48988d151941735' '4bf58dd8d48988d1c1941735'],"['Dining and Drinking > Restaurant > Mexican Restaurant > Taco Restaurant'
 'Dining and Drinking > Restaurant > Mexican Restaurant']",https://foursquare.com/placemakers/review-place/622baf566c69d066e78cb681,b'\x00\x00\x00\x00\x01\xc0ZN\xb2\x0b\x80f\xc3@4\xa3#\xddT\xdaM',"{'xmin': -105.229617, 'ymin': 20.637266, 'xmax': -105.229617, 'ymax': 20.637266}","dining and drinking > restaurant > mexican restaurant > taco restaurant, dining and drinking > restaurant > mexican restaurant",1
51623e26e4b0f61e934d23a4,Tacos Tere,20.625882195638003,-105.22655723483972,Sierra Rocallosa,Puerto Vallarta,Jalisco,48330,,,,MX,2013-04-08,2018-09-30,,,,,,,,['4bf58dd8d48988d151941735'],['Dining and Drinking > Restaurant > Mexican Restaurant > Taco Restaurant'],https://foursquare.com/placemakers/review-place/51623e26e4b0f61e934d23a4,b'\x00\x00\x00\x00\x01\xc0ZN\x7f\xe9\xea\x93\xc3@4\xa09\xd0\xc9i\xf5',"{'xmin': -105.22655723483972, 'ymin': 20.625882195638003, 'xmax': -105.22655723483972, 'ymax': 20.625882195638003}",dining and drinking > restaurant > mexican restaurant > taco restaurant,1
4e6c3151fa76fa03582a0d4d,Tacos De Barbacoa,20.662960780470442,-103.38147065497606,,Guadalajara,Jalisco,,,,,MX,2011-09-11,2023-10-26,,,,,,,,['4bf58dd8d48988d151941735'],['Dining and Drinking > Restaurant > Mexican Restaurant > Taco Restaurant'],https://foursquare.com/placemakers/review-place/4e6c3151fa76fa03582a0d4d,b'\x00\x00\x00\x00\x01\xc0Y\xd8j\x03\xe4\xe0`@4\xa9\xb7\xcc6\xa6\xb4',"{'xmin': -103.38147065497606, 'ymin': 20.662960780470442, 'xmax': -103.38147065497606, 'ymax': 20.662960780470442}",dining and drinking > restaurant > mexican restaurant > taco restaurant,1
55a1e98d498ec0b05c5ddf07,Taquería Los Arandenses,22.160346,-100.995463,,,,,,,,MX,2015-07-12,2021-01-12,,,,,,,,['4bf58dd8d48988d151941735'],['Dining and Drinking > Restaurant > Mexican Restaurant > Taco Restaurant'],https://foursquare.com/placemakers/review-place/55a1e98d498ec0b05c5ddf07,b'\x00\x00\x00\x00\x01\xc0Y?\xb5\xaaqX2@6)\x0coz\x0b_',"{'xmin': -100.995463, 'ymin': 22.160346, 'xmax': -100.995463, 'ymax': 22.160346}",dining and drinking > restaurant > mexican restaurant > taco restaurant,1
5005a1cce4b0d989baf3bdae,Tacos Barvaca,20.659220410206608,-103.44377987131662,Guadalupe,Zapopan,Jalisco,,,,,MX,2012-07-17,2017-11-25,2017-11-25,,,,,,,['4bf58dd8d48988d151941735' '4bf58dd8d48988d1c1941735'],"['Dining and Drinking > Restaurant > Mexican Restaurant > Taco Restaurant'
 'Dining and Drinking > Restaurant > Mexican Restaurant']",https://foursquare.com/placemakers/review-place/5005a1cce4b0d989baf3bdae,b'\x00\x00\x00\x00\x01\xc0Y\xdcf\xe3\xb0{d@4\xa8\xc2\xab6\xb1n',"{'xmin': -103.44377987131662, 'ymin': 20.659220410206608, 'xmax': -103.44377987131662, 'ymax': 20.659220410206608}","dining and drinking > restaurant > mexican restaurant > taco restaurant, dining and drinking > restaurant > mexican restaurant",1
59ee24056cf01a7ce3927fd1,Taqueria La Independiente,21.914335,-102.311814,,Aguascalientes,AGS,20130,,,,MX,2017-10-23,2017-10-30,,,,,,,,['4bf58dd8d48988d151941735'],['Dining and Drinking > Restaurant > Mexican Restaurant > Taco Restaurant'],https://foursquare.com/placemakers/review-place/59ee24056cf01a7ce3927fd1,b'\x00\x00\x00\x00\x01\xc0Y\x93\xf4\xc2\xb5\x1b\xd6@5\xea\x11\xdb\xca\x96\x92',"{'xmin': -102.311814, 'ymin': 21.914335, 'xmax': -102.311814, 'ymax': 21.914335}",dining and drinking > restaurant > mexican restaurant > taco restaurant,1
4fb71581e4b07fc4310a4325,Tacos Medulas,20.65305199164176,-103.37858221540576,,,,,,,,MX,2012-05-19,2013-11-23,,,,,,,,['4bf58dd8d48988d151941735'],['Dining and Drinking > Restaurant > Mexican Restaurant > Taco Restaurant'],https://foursquare.com/placemakers/review-place/4fb71581e4b07fc4310a4325,b'\x00\x00\x00\x00\x01\xc0Y\xd8:\xb0\xe6\x80\xf5@4\xa7.jR\xb0d',"{'xmin': -103.37858221540576, 'ymin': 20.65305199164176, 'xmax': -103.37858221540576, 'ymax': 20.65305199164176}",dining and drinking > restaurant > mexican restaurant > taco restaurant,1
53a11a97498e3bbc390c3ce9,Ara's Tacos,31.311542510986328,-113.54098510742188,,,,,,,,MX,2014-06-18,2021-08-13,,,,,,,,['4bf58dd8d48988d151941735'],['Dining and Drinking > Restaurant > Mexican Restaurant > Taco Restaurant'],https://foursquare.com/placemakers/review-place/53a11a97498e3bbc390c3ce9,b'\x00\x00\x00\x00\x01\xc0\\b\x9f\x80\x00\x00\x00@?O\xc1@\x00\x00\x00',"{'xmin': -113.54098510742188, 'ymin': 31.311542510986328, 'xmax': -113.54098510742188, 'ymax': 31.311542510986328}",dining and drinking > restaurant > mexican restaurant > taco restaurant,1
4e127badae602afe96c6a326,Tacos Carlos,20.7013259791717,-103.35477974077648,Calzada del Federalismo Norte #1790,Guadalajara,Jalisco,44260,,,,MX,2011-07-05,2024-07-06,,,,,,,,['4bf58dd8d48988d151941735'],['Dining and Drinking > Restaurant > Mexican Restaurant > Taco Restaurant'],https://foursquare.com/placemakers/review-place/4e127badae602afe96c6a326,b'\x00\x00\x00\x00\x01\xc0Y\xd6\xb4\xb6\x15\xfa\xc6@4\xb3\x8a\x19p`\xac',"{'xmin': -103.35477974077648, 'ymin': 20.7013259791717, 'xmax': -103.35477974077648, 'ymax': 20.7013259791717}",dining and drinking > restaurant > mexican restaurant > taco restaurant,1
4f46fe8ce4b07d0ddc10d0af,Taqueria La Fama,22.14354249227227,-100.93678264483248,B. Anaya,San Luis Potosi,San Luis Potosi,,,,,MX,2012-02-24,2016-01-24,,,,,,,,['4bf58dd8d48988d151941735'],['Dining and Drinking > Restaurant > Mexican Restaurant > Taco Restaurant'],https://foursquare.com/placemakers/review-place/4f46fe8ce4b07d0ddc10d0af,b'\x00\x00\x00\x00\x01\xc0Y;\xf4?1\xc1\x04@6$\xbf3e\xe5O',"{'xmin': -100.93678264483248, 'ymin': 22.14354249227227, 'xmax': -100.93678264483248, 'ymax': 22.14354249227227}",dining and drinking > restaurant > mexican restaurant > taco restaurant,1
58aa4f9572efa45b37a53e68,Tacos Sheriff,21.921693,-102.701771,,,,,,,,MX,2017-02-20,2018-03-08,,,,,,,,['4bf58dd8d48988d151941735'],['Dining and Drinking > Restaurant > Mexican Restaurant > Taco Restaurant'],https://foursquare.com/placemakers/review-place/58aa4f9572efa45b37a53e68,b'\x00\x00\x00\x00\x01\xc0Y\xac\xe9\xd0\xe9\x91\xff@5\xeb\xf4\x12\x8b\xf3\xbf',"{'xmin': -102.701771, 'ymin': 21.921693, 'xmax': -102.701771, 'ymax': 21.921693}",dining and drinking > restaurant > mexican restaurant > taco restaurant,1
513c5fdce4b0cb85e517c234,Quecas Celia Cruz,20.660736083984375,-103.37396240234375,,,,,,,,MX,2013-03-10,2014-02-01,2014-02-01,,,,,,,['4bf58dd8d48988d151941735'],['Dining and Drinking > Restaurant > Mexican Restaurant > Taco Restaurant'],https://foursquare.com/placemakers/review-place/513c5fdce4b0cb85e517c234,b'\x00\x00\x00\x00\x01\xc0Y\xd7\xef\x00\x00\x00\x00@4\xa9&\x00\x00\x00\x00',"{'xmin': -103.37396240234375, 'ymin': 20.660736083984375, 'xmax': -103.37396240234375, 'ymax': 20.660736083984375}",dining and drinking > restaurant > mexican restaurant > taco restaurant,1
5d9b6039b5059b0008298fbb,Tacos el Mengache,21.902662,-102.280143,"Libra Esquina Con orion, La Estrella",Aguascalientes,AGS,20150,,,,MX,2019-10-07,2019-10-07,,,,,,,,['4bf58dd8d48988d151941735'],['Dining and Drinking > Restaurant > Mexican Restaurant > Taco Restaurant'],https://foursquare.com/placemakers/review-place/5d9b6039b5059b0008298fbb,b'\x00\x00\x00\x00\x01\xc0Y\x91\xed\xdc\xe7\xcd\x03@5\xe7\x14\xdbYW\x8a',"{'xmin': -102.280143, 'ymin': 21.902662, 'xmax': -102.280143, 'ymax': 21.902662}",dining and drinking > restaurant > mexican restaurant > taco restaurant,1
523d118a11d24bf04f48a00b,Tacos Doña Luz,20.676636,-103.328683,Francisco De Ayza,Guadalajara,Ja,,,,,MX,2013-09-21,2018-08-28,,,,,,,,['4bf58dd8d48988d151941735'],['Dining and Drinking > Restaurant > Mexican Restaurant > Taco Restaurant'],https://foursquare.com/placemakers/review-place/523d118a11d24bf04f48a00b,b'\x00\x00\x00\x00\x01\xc0Y\xd5\t$k\xf0\x13@4\xad8\x04SK\xd7',"{'xmin': -103.328683, 'ymin': 20.676636, 'xmax': -103.328683, 'ymax': 20.676636}",dining and drinking > restaurant > mexican restaurant > taco restaurant,1
5cf28aa3b9b37b002ca5be07,Barbacos,20.677755,-103.38889,Justo Sierra,Guadalajara,Jalisco,44690,,,,MX,2019-06-01,2024-12-26,,33 1657 9960,,,,,,['4bf58dd8d48988d151941735'],['Dining and Drinking > Restaurant > Mexican Restaurant > Taco Restaurant'],https://foursquare.com/placemakers/review-place/5cf28aa3b9b37b002ca5be07,b'\x00\x00\x00\x00\x01\xc0Y\xd8\xe3\x92\xe1\xeft@4\xad\x81Z\x07\xb3S',"{'xmin': -103.38889, 'ymin': 20.677755, 'xmax': -103.38889, 'ymax': 20.677755}",dining and drinking > restaurant > mexican restaurant > taco restaurant,1
4e5da067ae60839ea2e7c662,Taqueria NATY,20.627195587959736,-105.22255188011103,Paseo De Las Palmas Tacos CP. 0,Puerto Vallarta,Jalisco,48325,,,,MX,2011-08-31,2022-06-11,,,,,,,,['4bf58dd8d48988d151941735'],['Dining and Drinking > Restaurant > Mexican Restaurant > Taco Restaurant'],https://foursquare.com/placemakers/review-place/4e5da067ae60839ea2e7c662,b'\x00\x00\x00\x00\x01\xc0ZN>J=\xaf_@4\xa0\x8f\xe3\xda{\x89',"{'xmin': -105.22255188011103, 'ymin': 20.627195587959736, 'xmax': -105.22255188011103, 'ymax': 20.627195587959736}",dining and drinking > restaurant > mexican restaurant > taco restaurant,1
5ba3cd1b4940bc002cab3d78,Tacos Al Vapor Don Taco,20.674408,-103.40318,Av. San Ignacio 452,Zapopan,Jalisco,45020,,,,MX,2018-09-20,2020-03-15,,,,,,,,['4bf58dd8d48988d151941735'],['Dining and Drinking > Restaurant > Mexican Restaurant > Taco Restaurant'],https://foursquare.com/placemakers/review-place/5ba3cd1b4940bc002cab3d78,b'\x00\x00\x00\x00\x01\xc0Y\xd9\xcd\xb3|\x99\xaf@4\xac\xa6\x00\xb0)(',"{'xmin': -103.40318, 'ymin': 20.674408, 'xmax': -103.40318, 'ymax': 20.674408}",dining and drinking > restaurant > mexican restaurant > taco restaurant,1
5591b48c498e4702ca2c4f97,Tacontento,20.60307969107847,-103.39694635737214,San Isidro 2583,Campanario,Jalisco,45609,,,,MX,2015-06-29,2017-08-31,,,,,,,,['4bf58dd8d48988d151941735'],['Dining and Drinking > Restaurant > Mexican Restaurant > Taco Restaurant'],https://foursquare.com/placemakers/review-place/5591b48c498e4702ca2c4f97,b'\x00\x00\x00\x00\x01\xc0Y\xd9g\x91\xb1\xcb\x80@4\x9acn>\x10V',"{'xmin': -103.39694635737214, 'ymin': 20.60307969107847, 'xmax': -103.39694635737214, 'ymax': 20.60307969107847}",dining and drinking > restaurant > mexican restaurant > taco restaurant,1
561482e6498e4ddc8f22aec9,Taqueria Los Cabrera,20.744538742635058,-103.42352402461105,,,,,,,,MX,2015-10-07,2015-10-07,,,,,,,,['4bf58dd8d48988d151941735'],['Dining and Drinking > Restaurant > Mexican Restaurant > Taco Restaurant'],https://foursquare.com/placemakers/review-place/561482e6498e4ddc8f22aec9,b'\x00\x00\x00\x00\x01\xc0Y\xdb\x1b\x04\x82\xb1\x96@4\xbe\x9a\x17N8\xf8',"{'xmin': -103.42352402461105, 'ymin': 20.744538742635058, 'xmax': -103.42352402461105, 'ymax': 20.744538742635058}",dining and drinking > restaurant > mexican restaurant > taco restaurant,1
5324a49311d276c290c456e1,Los Volcanes,22.171267,-101.004037,,,,,,,,MX,2014-03-15,2021-01-12,,,,,,,,['4bf58dd8d48988d151941735'],['Dining and Drinking > Restaurant > Mexican Restaurant > Taco Restaurant'],https://foursquare.com/placemakers/review-place/5324a49311d276c290c456e1,"b""\x00\x00\x00\x00\x01\xc0Y@B$g\xbeU@6+\xd8's\xe2P""","{'xmin': -101.004037, 'ymin': 22.171267, 'xmax': -101.004037, 'ymax': 22.171267}",dining and drinking > restaurant > mexican restaurant > taco restaurant,1
52a9257f11d2829bb1d4e1e0,Tacos de Tazmania,20.727634528234937,-103.39070056023127,La Villa Esquina Sn,Zapópan,Jalisco,45100,,,,MX,2013-12-12,2017-12-09,,,,,,,,['4bf58dd8d48988d151941735'],['Dining and Drinking > Restaurant > Mexican Restaurant > Taco Restaurant'],https://foursquare.com/placemakers/review-place/52a9257f11d2829bb1d4e1e0,b'\x00\x00\x00\x00\x01\xc0Y\xd9\x01<\xec.8@4\xbaFA\xa65\x9e',"{'xmin': -103.39070056023127, 'ymin': 20.727634528234937, 'xmax': -103.39070056023127, 'ymax': 20.727634528234937}",dining and drinking > restaurant > mexican restaurant > taco restaurant,1
02fe627f63494b1fd84882a6,Tortas Vale,21.06666,-101.689786,Ciudad Industrial 27A,León,Guanajuato,37000,,,,MX,2013-03-24,2013-03-24,,477 763 7044,,,,,,['4bf58dd8d48988d151941735'],['Dining and Drinking > Restaurant > Mexican Restaurant > Taco Restaurant'],https://foursquare.com/placemakers/review-place/02fe627f63494b1fd84882a6,b'\x00\x00\x00\x00\x01\xc0Yl%t-\xcfF@5\x11\x10\xa17\xf3\x8c',"{'xmin': -101.689786, 'ymin': 21.06666, 'xmax': -101.689786, 'ymax': 21.06666}",dining and drinking > restaurant > mexican restaurant > taco restaurant,1
4e1bb9b9fa769b7ee685358f,Tacos Don Beto,20.655701995370105,-105.23553392013062,,Puerto Vallarta,Jalisco,,,,,MX,2011-07-12,2024-12-22,,,,,,,,['4bf58dd8d48988d151941735' '4bf58dd8d48988d1c1941735'],"['Dining and Drinking > Restaurant > Mexican Restaurant > Taco Restaurant'
 'Dining and Drinking > Restaurant > Mexican Restaurant']",https://foursquare.com/placemakers/review-place/4e1bb9b9fa769b7ee685358f,b'\x00\x00\x00\x00\x01\xc0ZO\x12\xfc\xdd\x03\xd2@4\xa7\xdc\x16\x02\t[',"{'xmin': -105.23553392013062, 'ymin': 20.655701995370105, 'xmax': -105.23553392013062, 'ymax': 20.655701995370105}","dining and drinking > restaurant > mexican restaurant > taco restaurant, dining and drinking > restaurant > mexican restaurant",1
4dddc77fae60c6eb2a4d0fb1,Flautas de con la Martina,20.693500201111522,-103.29138451325137,,Guadalajara,JAL,,,,,MX,2011-05-26,2013-03-21,,,,,,,,['4bf58dd8d48988d151941735'],['Dining and Drinking > Restaurant > Mexican Restaurant > Taco Restaurant'],https://foursquare.com/placemakers/review-place/4dddc77fae60c6eb2a4d0fb1,b'\x00\x00\x00\x00\x01\xc0Y\xd2\xa6\x0b:\xbeo@4\xb1\x89:\xab\x8b\x1d',"{'xmin': -103.29138451325137, 'ymin': 20.693500201111522, 'xmax': -103.29138451325137, 'ymax': 20.693500201111522}",dining and drinking > restaurant > mexican restaurant > taco restaurant,1
5777ee55498e5a7c110905d2,Birriería la parota,20.684599,-105.227784,,,,,,,,MX,2016-07-02,2019-03-03,,,,,,,,['4bf58dd8d48988d151941735'],['Dining and Drinking > Restaurant > Mexican Restaurant > Taco Restaurant'],https://foursquare.com/placemakers/review-place/5777ee55498e5a7c110905d2,b'\x00\x00\x00\x00\x01\xc0ZN\x94\x03W\xa3U@4\xafA\xe1K\xdf\xd2',"{'xmin': -105.227784, 'ymin': 20.684599, 'xmax': -105.227784, 'ymax': 20.684599}",dining and drinking > restaurant > mexican restaurant > taco restaurant,1
52a6716011d28eca2365a0e7,Tacos Geli y Familia,20.778180090351075,-103.45466244674209,,,,,,,,MX,2013-12-10,2019-08-19,,,,,,,,['4bf58dd8d48988d151941735'],['Dining and Drinking > Restaurant > Mexican Restaurant > Taco Restaurant'],https://foursquare.com/placemakers/review-place/52a6716011d28eca2365a0e7,b'\x00\x00\x00\x00\x01\xc0Y\xdd\x190\x84\xde\x81@4\xc76\xcfvt\xc9',"{'xmin': -103.45466244674209, 'ymin': 20.778180090351075, 'xmax': -103.45466244674209, 'ymax': 20.778180090351075}",dining and drinking > restaurant > mexican restaurant > taco restaurant,1
5037dfa4e4b09fce665d5833,"Tacos y Tortas ""El Buda""",20.659053005463466,-103.44568078333208,Av. GUADALUPE #6739,Zapopan,Jalisco,45030,,,,MX,2012-08-24,2021-08-09,,33 3125 6855,,,,,,['4bf58dd8d48988d151941735'],['Dining and Drinking > Restaurant > Mexican Restaurant > Taco Restaurant'],https://foursquare.com/placemakers/review-place/5037dfa4e4b09fce665d5833,b'\x00\x00\x00\x00\x01\xc0Y\xdc\x86\x08\xb17|@4\xa8\xb7\xb2\xa0\xcb\xcd',"{'xmin': -103.44568078333208, 'ymin': 20.659053005463466, 'xmax': -103.44568078333208, 'ymax': 20.659053005463466}",dining and drinking > restaurant > mexican restaurant > taco restaurant,1
628d4bb3ff9d065f2e22186b,Benditos Tacos Comanjilla,21.03689,-101.523415,Carretera a Comanjilla km2,los paraísos,Guanajuato,37683,,,,MX,2022-05-24,2023-09-13,,,,,,,,['4bf58dd8d48988d151941735'],['Dining and Drinking > Restaurant > Mexican Restaurant > Taco Restaurant'],https://foursquare.com/placemakers/review-place/628d4bb3ff9d065f2e22186b,b'\x00\x00\x00\x00\x01\xc0Ya\x7f\xa1\xa0\xcf\x18@5\tq\x9f\x7f\x8c\xa8',"{'xmin': -101.523415, 'ymin': 21.03689, 'xmax': -101.523415, 'ymax': 21.03689}",dining and drinking > restaurant > mexican restaurant > taco restaurant,1
4e3b5b1c52b1a04afefcdc58,Super Tacos Al Carbon Normis,21.46874273118768,-104.87956182136723,Castilla,Tepic,Nayarit,,,,,MX,2011-08-05,2024-10-14,,,,,,,,['4bf58dd8d48988d151941735'],['Dining and Drinking > Restaurant > Mexican Restaurant > Taco Restaurant'],https://foursquare.com/placemakers/review-place/4e3b5b1c52b1a04afefcdc58,b'\x00\x00\x00\x00\x01\xc0Z8J\xbd\xaaeG@5w\xff\x86\x0c\xb0V',"{'xmin': -104.87956182136723, 'ymin': 21.46874273118768, 'xmax': -104.87956182136723, 'ymax': 21.46874273118768}",dining and drinking > restaurant > mexican restaurant > taco restaurant,1
6475755f4de9984ca4bd89f3,Tacos “El Norteño”,20.667154,-103.312469,Av. Francisco Javier Mina #1558,Guadalajara,JAL,44700,,,,MX,2023-05-30,2023-09-14,,,,,,,,['4bf58dd8d48988d151941735'],['Dining and Drinking > Restaurant > Mexican Restaurant > Taco Restaurant'],https://foursquare.com/placemakers/review-place/6475755f4de9984ca4bd89f3,b'\x00\x00\x00\x00\x01\xc0Y\xd3\xff}\xfa\x00\xe2@4\xaa\xca\x9a\xc3eE',"{'xmin': -103.312469, 'ymin': 20.667154, 'xmax': -103.312469, 'ymax': 20.667154}",dining and drinking > restaurant > mexican restaurant > taco restaurant,1
525998e0498e016c483652a1,Super Burro,20.731801355131815,-103.34912048796889,,,,,,,,MX,2013-10-12,2018-11-25,,,,,,,,['4bf58dd8d48988d151941735'],['Dining and Drinking > Restaurant > Mexican Restaurant > Taco Restaurant'],https://foursquare.com/placemakers/review-place/525998e0498e016c483652a1,b'\x00\x00\x00\x00\x01\xc0Y\xd6W\xfdu\x8c(@4\xbbWUgu\xaa',"{'xmin': -103.34912048796889, 'ymin': 20.731801355131815, 'xmax': -103.34912048796889, 'ymax': 20.731801355131815}",dining and drinking > restaurant > mexican restaurant > taco restaurant,1
566daca2498e2a38ebed99db,Tacos Mario,21.492578,-104.878788,,,,,,,,MX,2015-12-13,2016-12-28,,,,,,,,['4bf58dd8d48988d151941735'],['Dining and Drinking > Restaurant > Mexican Restaurant > Taco Restaurant'],https://foursquare.com/placemakers/review-place/566daca2498e2a38ebed99db,b'\x00\x00\x00\x00\x01\xc0Z8>\x10\x06\x07\x81@5~\x19\x97\x80\xba\xa6',"{'xmin': -104.878788, 'ymin': 21.492578, 'xmax': -104.878788, 'ymax': 21.492578}",dining and drinking > restaurant > mexican restaurant > taco restaurant,1
560ecc99498ec8244c9f3454,Antojeria Marth,18.924280866148724,-99.23581853433825,,,,,,,,MX,2015-10-02,2022-05-17,,,,,,,,['4bf58dd8d48988d151941735'],['Dining and Drinking > Restaurant > Mexican Restaurant > Taco Restaurant'],https://foursquare.com/placemakers/review-place/560ecc99498ec8244c9f3454,b'\x00\x00\x00\x00\x01\xc0X\xcf\x17\xa6\x9f1\x80@2\xec\x9d\xab\xbcme',"{'xmin': -99.23581853433825, 'ymin': 18.924280866148724, 'xmax': -99.23581853433825, 'ymax': 18.924280866148724}",dining and drinking > restaurant > mexican restaurant > taco restaurant,1
558086f7498ea101297e1af9,Tortas de mole y algo más,19.699889540133555,-101.19332473296292,Aldama,Morelia,Michoacán,58000,,,,MX,2015-06-16,2016-04-12,,,,,,,,['4bf58dd8d48988d151941735'],['Dining and Drinking > Restaurant > Mexican Restaurant > Taco Restaurant'],https://foursquare.com/placemakers/review-place/558086f7498ea101297e1af9,b'\x00\x00\x00\x00\x01\xc0YL_n\xb3e[@3\xb3+\xf5\xfd\xaf\xa4',"{'xmin': -101.19332473296292, 'ymin': 19.699889540133555, 'xmax': -101.19332473296292, 'ymax': 19.699889540133555}",dining and drinking > restaurant > mexican restaurant > taco restaurant,1
591f0c42e7a23776228761ed,Mr. Taco,17.545223,-99.496896,,Chilpancingo de los Bravo,GRO,39060,,,,MX,2017-05-19,2017-08-15,,,,,,,,['4bf58dd8d48988d151941735'],['Dining and Drinking > Restaurant > Mexican Restaurant > Taco Restaurant'],https://foursquare.com/placemakers/review-place/591f0c42e7a23776228761ed,b'\x00\x00\x00\x00\x01\xc0X\xdf\xcd$\xe1`\xd9@1\x8b\x93\xbc\n\x06\xea',"{'xmin': -99.496896, 'ymin': 17.545223, 'xmax': -99.496896, 'ymax': 17.545223}",dining and drinking > restaurant > mexican restaurant > taco restaurant,1
53ded5af498ea6f8ec85d544,los güeros,19.29066028216059,-99.13060429335053,División Del Norte,,,,,,,MX,2014-08-04,2019-01-14,,,,,,,,['4bf58dd8d48988d151941735'],['Dining and Drinking > Restaurant > Mexican Restaurant > Taco Restaurant'],https://foursquare.com/placemakers/review-place/53ded5af498ea6f8ec85d544,b'\x00\x00\x00\x00\x01\xc0X\xc8[\xd2\x1c*\x18@3Jh\xb6V 9',"{'xmin': -99.13060429335053, 'ymin': 19.29066028216059, 'xmax': -99.13060429335053, 'ymax': 19.29066028216059}",dining and drinking > restaurant > mexican restaurant > taco restaurant,1
522215ac11d2c4664c1319c8,Tacos del Bocho,17.65023724662987,-101.53459342041155,,,,,,,,MX,2013-08-31,2019-08-15,,,,,,,,['4bf58dd8d48988d151941735'],['Dining and Drinking > Restaurant > Mexican Restaurant > Taco Restaurant'],https://foursquare.com/placemakers/review-place/522215ac11d2c4664c1319c8,b'\x00\x00\x00\x00\x01\xc0Yb6\xc7RT\xc3@1\xa6u\xf2\xbc\xea\x98',"{'xmin': -101.53459342041155, 'ymin': 17.65023724662987, 'xmax': -101.53459342041155, 'ymax': 17.65023724662987}",dining and drinking > restaurant > mexican restaurant > taco restaurant,1
5189ace4498e53e9ac1ef7d9,Taqueria Tacomiendo,17.05390026933632,-96.71183898222341,Avenida Ferrocarril,Oaxaca,oaxaca,,,,,MX,2013-05-08,2025-01-01,,,,,,,,['4bf58dd8d48988d151941735'],['Dining and Drinking > Restaurant > Mexican Restaurant > Taco Restaurant'],https://foursquare.com/placemakers/review-place/5189ace4498e53e9ac1ef7d9,b'\x00\x00\x00\x00\x01\xc0X-\x8e\xc5\x17*\xb8@1\r\xcchv\x0b\x8b',"{'xmin': -96.71183898222341, 'ymin': 17.05390026933632, 'xmax': -96.71183898222341, 'ymax': 17.05390026933632}",dining and drinking > restaurant > mexican restaurant > taco restaurant,1
51c665ff498ef33c5de70d46,Tacos la Veci,19.15773601623865,-96.16080019116686,,,,,,,,MX,2013-06-23,2014-07-06,,,,,,,,['4bf58dd8d48988d151941735'],['Dining and Drinking > Restaurant > Mexican Restaurant > Taco Restaurant'],https://foursquare.com/placemakers/review-place/51c665ff498ef33c5de70d46,b'\x00\x00\x00\x00\x01\xc0X\nJ\x8c\xe2\x90$@3(ac7%v',"{'xmin': -96.16080019116686, 'ymin': 19.15773601623865, 'xmax': -96.16080019116686, 'ymax': 19.15773601623865}",dining and drinking > restaurant > mexican restaurant > taco restaurant,1
50c16d81e4b05f96d694bf7c,El Tacazo,16.833732,-99.906944,,,,,,,,MX,2012-12-07,2016-05-04,,,,,,,,['4bf58dd8d48988d151941735'],['Dining and Drinking > Restaurant > Mexican Restaurant > Taco Restaurant'],https://foursquare.com/placemakers/review-place/50c16d81e4b05f96d694bf7c,b'\x00\x00\x00\x00\x01\xc0X\xfa\x0b^\xd8\xd3k@0\xd5ou\xd9\xa0\xf1',"{'xmin': -99.906944, 'ymin': 16.833732, 'xmax': -99.906944, 'ymax': 16.833732}",dining and drinking > restaurant > mexican restaurant > taco restaurant,1
4f7e4c57e4b0c2f76378d3ad,Taquería Pantamovil,17.135518878587995,-100.46883626445806,,,,,,,,MX,2012-04-06,2022-06-28,,,,,,,,['4bf58dd8d48988d151941735'],['Dining and Drinking > Restaurant > Mexican Restaurant > Taco Restaurant'],https://foursquare.com/placemakers/review-place/4f7e4c57e4b0c2f76378d3ad,"b'\x00\x00\x00\x00\x01\xc0Y\x1e\x01i\xd1\xc1\xad@1""\xb1]\x7f\x86\xaa'","{'xmin': -100.46883626445806, 'ymin': 17.135518878587995, 'xmax': -100.46883626445806, 'ymax': 17.135518878587995}",dining and drinking > restaurant > mexican restaurant > taco restaurant,1
54cd1fd6498ed74155d31ace,El burro de Jalisco tortas ahogadas y algo mas,19.697277842308868,-101.16161613942884,Av. Insurgentes,Morelia,Michoacan,58240,,,,MX,2015-01-31,2019-07-01,,,,,,,,['4bf58dd8d48988d151941735'],['Dining and Drinking > Restaurant > Mexican Restaurant > Taco Restaurant'],https://foursquare.com/placemakers/review-place/54cd1fd6498ed74155d31ace,b'\x00\x00\x00\x00\x01\xc0YJW\xeb8V\x92@3\xb2\x80\xcc\xf8\xf1)',"{'xmin': -101.16161613942884, 'ymin': 19.697277842308868, 'xmax': -101.16161613942884, 'ymax': 19.697277842308868}",dining and drinking > restaurant > mexican restaurant > taco restaurant,1
528fdcc711d2e680d476197d,CARNES ASADAS LA ESTACIÓN,19.702537536621094,-103.4813003540039,,,,,,,,MX,2013-11-22,2013-11-22,,,,,,,,['4bf58dd8d48988d151941735'],['Dining and Drinking > Restaurant > Mexican Restaurant > Taco Restaurant'],https://foursquare.com/placemakers/review-place/528fdcc711d2e680d476197d,b'\x00\x00\x00\x00\x01\xc0Y\xde\xcd\xa0\x00\x00\x00@3\xb3\xd9\x80\x00\x00\x00',"{'xmin': -103.4813003540039, 'ymin': 19.702537536621094, 'xmax': -103.4813003540039, 'ymax': 19.702537536621094}",dining and drinking > restaurant > mexican restaurant > taco restaurant,1
55e50c27498e40d5d0729e05,"Cena y antojitos ""Doña Mary""",19.693478,-101.193164,Lago de Chapala,Morelia,Michoacán,,,,,MX,2015-09-01,2015-11-17,,,,,,,,['4bf58dd8d48988d151941735'],['Dining and Drinking > Restaurant > Mexican Restaurant > Taco Restaurant'],https://foursquare.com/placemakers/review-place/55e50c27498e40d5d0729e05,b'\x00\x00\x00\x00\x01\xc0YL\\\xcc\x89\xb0\xee@3\xb1\x87\xc62~\xd8',"{'xmin': -101.193164, 'ymin': 19.693478, 'xmax': -101.193164, 'ymax': 19.693478}",dining and drinking > restaurant > mexican restaurant > taco restaurant,1
525a08ee11d286007f81b304,Tacos De Chela,19.522276,-102.416584,,,,,,,,MX,2013-10-13,2015-11-14,,,,,,,,['4bf58dd8d48988d151941735'],['Dining and Drinking > Restaurant > Mexican Restaurant > Taco Restaurant'],https://foursquare.com/placemakers/review-place/525a08ee11d286007f81b304,b'\x00\x00\x00\x00\x01\xc0Y\x9a\xa9O\xf0\x02\\@3\x85\xb3\xe1C|W',"{'xmin': -102.416584, 'ymin': 19.522276, 'xmax': -102.416584, 'ymax': 19.522276}",dining and drinking > restaurant > mexican restaurant > taco restaurant,1
535710eb498e837a77998ecc,Mega tacos arabes Erico,18.8805,-97.7292,Bled. 9 orienté 208,Tecamachalco,Puebla,75482,,,,MX,2014-04-23,2018-03-11,,,,,,,,['4bf58dd8d48988d151941735'],['Dining and Drinking > Restaurant > Mexican Restaurant > Taco Restaurant'],https://foursquare.com/placemakers/review-place/535710eb498e837a77998ecc,b'\x00\x00\x00\x00\x01\xc0Xn\xab6z\x0f\x91@2\xe1hr\xb0 \xc5',"{'xmin': -97.7292, 'ymin': 18.8805, 'xmax': -97.7292, 'ymax': 18.8805}",dining and drinking > restaurant > mexican restaurant > taco restaurant,1
51d38cb5498ee2747687d115,El volcan,18.08646,-96.14427,,,,,,,,MX,2013-07-03,2013-07-03,,,,,,,,['4bf58dd8d48988d151941735'],['Dining and Drinking > Restaurant > Mexican Restaurant > Taco Restaurant'],https://foursquare.com/placemakers/review-place/51d38cb5498ee2747687d115,"b'\x00\x00\x00\x00\x01\xc0X\t;\xb8<\xf2\xd0@2\x16"">\x18i\x83'","{'xmin': -96.14427, 'ymin': 18.08646, 'xmax': -96.14427, 'ymax': 18.08646}",dining and drinking > restaurant > mexican restaurant > taco restaurant,1
579056ad498e605e9dae1ce0,Tacos Que Bárbaro CU,19.33356,-99.19204,Circuito Escolar 5000 Ciudad de México México,Ciudad de México,Ciudad de México,04360,,,,MX,2016-07-21,2018-04-01,,,,,,,,['4bf58dd8d48988d151941735'],['Dining and Drinking > Restaurant > Mexican Restaurant > Taco Restaurant'],https://foursquare.com/placemakers/review-place/579056ad498e605e9dae1ce0,b'\x00\x00\x00\x00\x01\xc0X\xccJb#\xe1\x87@3Ud0+@\xf6',"{'xmin': -99.19204, 'ymin': 19.33356, 'xmax': -99.19204, 'ymax': 19.33356}",dining and drinking > restaurant > mexican restaurant > taco restaurant,1
5b89e0e4b6b04b002c9c15bc,Tacos Lupe,20.559638,-103.306801,,El Salto,JAL,45693,,,,MX,2018-09-01,2020-09-25,,,,,,,,['4bf58dd8d48988d151941735'],['Dining and Drinking > Restaurant > Mexican Restaurant > Taco Restaurant'],https://foursquare.com/placemakers/review-place/5b89e0e4b6b04b002c9c15bc,b'\x00\x00\x00\x00\x01\xc0Y\xd3\xa2\xa0\xa9XS@4\x8fDo\x9b\x99N',"{'xmin': -103.306801, 'ymin': 20.559638, 'xmax': -103.306801, 'ymax': 20.559638}",dining and drinking > restaurant > mexican restaurant > taco restaurant,1
5917e8039de23b672d9ab330,Taqueria Los Toros,19.271994205836048,-99.55487574284878,,San Mateo Atenco,Estado de México,52100,,,,MX,2017-05-14,2024-12-04,,,,,,,,['4bf58dd8d48988d151941735'],['Dining and Drinking > Restaurant > Mexican Restaurant > Taco Restaurant'],https://foursquare.com/placemakers/review-place/5917e8039de23b672d9ab330,b'\x00\x00\x00\x00\x01\xc0X\xe3\x83\x15\x8c8E@3E\xa1i\x8a\xc4o',"{'xmin': -99.55487574284878, 'ymin': 19.271994205836048, 'xmax': -99.55487574284878, 'ymax': 19.271994205836048}",dining and drinking > restaurant > mexican restaurant > taco restaurant,1
4dd18d6dfa767fb7077f4e8b,La lluvía del desierto,19.292093336986433,-99.17162561572907,,Mexico City,Distrito Federal,,,,,MX,2011-05-16,2013-06-07,,,,,,,,['4bf58dd8d48988d151941735'],['Dining and Drinking > Restaurant > Mexican Restaurant > Taco Restaurant'],https://foursquare.com/placemakers/review-place/4dd18d6dfa767fb7077f4e8b,b'\x00\x00\x00\x00\x01\xc0X\xca\xfb\xea\x01\xad\x95@3J\xc6\xa1\x01\xbcz',"{'xmin': -99.17162561572907, 'ymin': 19.292093336986433, 'xmax': -99.17162561572907, 'ymax': 19.292093336986433}",dining and drinking > restaurant > mexican restaurant > taco restaurant,1
52560a3611d2d0908483dcdb,El comalito del Sabor,19.181732,-96.191407,Catania,,,,,,,MX,2013-10-10,2016-11-06,,,,,,,,['4bf58dd8d48988d151941735'],['Dining and Drinking > Restaurant > Mexican Restaurant > Taco Restaurant'],https://foursquare.com/placemakers/review-place/52560a3611d2d0908483dcdb,b'\x00\x00\x00\x00\x01\xc0X\x0c@\x03%Nn@3.\x85\xfd\x04\xa2\xfd',"{'xmin': -96.191407, 'ymin': 19.181732, 'xmax': -96.191407, 'ymax': 19.181732}",dining and drinking > restaurant > mexican restaurant > taco restaurant,1
4fef916ae4b0caa9ac854d83,Mexitaco,19.320944353146828,-99.26304445650936,Av. 29 de Octubre,D.F.,,01860,,,,MX,2012-06-30,2024-12-26,,,,,,,,['4bf58dd8d48988d151941735'],['Dining and Drinking > Restaurant > Mexican Restaurant > Taco Restaurant'],https://foursquare.com/placemakers/review-place/4fef916ae4b0caa9ac854d83,b'\x00\x00\x00\x00\x01\xc0X\xd0\xd5\xb8j\x86\x84@3R)h\xbc\x99\xfc',"{'xmin': -99.26304445650936, 'ymin': 19.320944353146828, 'xmax': -99.26304445650936, 'ymax': 19.320944353146828}",dining and drinking > restaurant > mexican restaurant > taco restaurant,1
4ea384dce5facb29c7bc58ae,Los de suadero,19.2503756561788,-99.5971340872487,,,,,,,,MX,2011-10-23,2019-07-29,,,,,,,,['4bf58dd8d48988d151941735'],['Dining and Drinking > Restaurant > Mexican Restaurant > Taco Restaurant'],https://foursquare.com/placemakers/review-place/4ea384dce5facb29c7bc58ae,b'\x00\x00\x00\x00\x01\xc0X\xe67q\xe4\x03\xd7@3@\x18\x9ew\x00\xa3',"{'xmin': -99.5971340872487, 'ymin': 19.2503756561788, 'xmax': -99.5971340872487, 'ymax': 19.2503756561788}",dining and drinking > restaurant > mexican restaurant > taco restaurant,1
5810324038fa2697f5dcedd1,"Tacos ""Félix""",18.45658,-97.39428,,,,,,,,MX,2016-10-26,2021-03-01,,,,,,,,['4bf58dd8d48988d151941735'],['Dining and Drinking > Restaurant > Mexican Restaurant > Taco Restaurant'],https://foursquare.com/placemakers/review-place/5810324038fa2697f5dcedd1,b'\x00\x00\x00\x00\x01\xc0XY;\xe2.]\xe1@2t\xe2mH\x01\xf7',"{'xmin': -97.39428, 'ymin': 18.45658, 'xmax': -97.39428, 'ymax': 18.45658}",dining and drinking > restaurant > mexican restaurant > taco restaurant,1
534608f8498e85bbdd4d8281,Tacos El Rinconcito,18.555349,-99.606096,,,,,,,,MX,2014-04-10,2023-12-25,,,,,,,,['4bf58dd8d48988d151941735'],['Dining and Drinking > Restaurant > Mexican Restaurant > Taco Restaurant'],https://foursquare.com/placemakers/review-place/534608f8498e85bbdd4d8281,b'\x00\x00\x00\x00\x01\xc0X\xe6\xcaF\xe0\x8f!@2\x8e+Z \xdd\xc6',"{'xmin': -99.606096, 'ymin': 18.555349, 'xmax': -99.606096, 'ymax': 18.555349}",dining and drinking > restaurant > mexican restaurant > taco restaurant,1
52575f04498e5f8304bf11a1,tacos 2x1,19.317599825342313,-99.09071666618458,,,,,,,,MX,2013-10-11,2016-01-07,,,,,,,,['4bf58dd8d48988d151941735'],['Dining and Drinking > Restaurant > Mexican Restaurant > Taco Restaurant'],https://foursquare.com/placemakers/review-place/52575f04498e5f8304bf11a1,b'\x00\x00\x00\x00\x01\xc0X\xc5\xceMF\x9d\xc1@3QN8\xdf\x0f\x80',"{'xmin': -99.09071666618458, 'ymin': 19.317599825342313, 'xmax': -99.09071666618458, 'ymax': 19.317599825342313}",dining and drinking > restaurant > mexican restaurant > taco restaurant,1
4cfeb08c2432a09362de161a,Tacos Bill,19.31168027115229,-99.11575020725446,Calz. de las Bombas 553,Coyoacán,Mexico City,,,,,MX,2010-12-07,2024-12-14,,55 5677 2397,,,,,,['4bf58dd8d48988d151941735' '4bf58dd8d48988d1c1941735'],"['Dining and Drinking > Restaurant > Mexican Restaurant > Taco Restaurant'
 'Dining and Drinking > Restaurant > Mexican Restaurant']",https://foursquare.com/placemakers/review-place/4cfeb08c2432a09362de161a,b'\x00\x00\x00\x00\x01\xc0X\xc7hs\x8e\xaaq@3O\xcaG;hR',"{'xmin': -99.11575020725446, 'ymin': 19.31168027115229, 'xmax': -99.11575020725446, 'ymax': 19.31168027115229}","dining and drinking > restaurant > mexican restaurant > taco restaurant, dining and drinking > restaurant > mexican restaurant",1
56206d9b498ed5d02ed7ab6a,Taqueria Chava's,18.772687,-95.75875,,,,,,,,MX,2015-10-16,2016-04-04,,,,,,,,['4bf58dd8d48988d151941735'],['Dining and Drinking > Restaurant > Mexican Restaurant > Taco Restaurant'],https://foursquare.com/placemakers/review-place/56206d9b498ed5d02ed7ab6a,b'\x00\x00\x00\x00\x01\xc0W\xf0\x8f\\(\xf5\xc3@2\xc5\xce\xd0\xb3\x0b[',"{'xmin': -95.75875, 'ymin': 18.772687, 'xmax': -95.75875, 'ymax': 18.772687}",dining and drinking > restaurant > mexican restaurant > taco restaurant,1
505106cde4b050646b1f2342,Tacos de Canasta Enrique,19.33298183107853,-99.14086170735821,Calzada De La Virgen,México,Distrito Federal,04460,,,,MX,2012-09-12,2018-10-17,,,,,,,,['4bf58dd8d48988d151941735'],['Dining and Drinking > Restaurant > Mexican Restaurant > Taco Restaurant'],https://foursquare.com/placemakers/review-place/505106cde4b050646b1f2342,b'\x00\x00\x00\x00\x01\xc0X\xc9\x03\xe0\xd2\x97/@3U>L\x1a\xa4\xfd',"{'xmin': -99.14086170735821, 'ymin': 19.33298183107853, 'xmax': -99.14086170735821, 'ymax': 19.33298183107853}",dining and drinking > restaurant > mexican restaurant > taco restaurant,1
5119c6fee4b05931f37c71b8,Birria Y Carnitas Alex,20.93295,-101.733825,,,,,,,,MX,2013-02-12,2013-02-12,,,,,,,,['4bf58dd8d48988d151941735'],['Dining and Drinking > Restaurant > Mexican Restaurant > Taco Restaurant'],https://foursquare.com/placemakers/review-place/5119c6fee4b05931f37c71b8,b'\x00\x00\x00\x00\x01\xc0Yn\xf6\xfd!\xff.@4\xee\xd5\xcf\xaa\xcd\x9f',"{'xmin': -101.733825, 'ymin': 20.93295, 'xmax': -101.733825, 'ymax': 20.93295}",dining and drinking > restaurant > mexican restaurant > taco restaurant,1
521d88b811d28bb9d7b9cf41,tacos san juan de los lagos,21.080080158922414,-101.60869572269439,Carretera Leon Guanajuato,,,,,,,MX,2013-08-28,2022-11-05,,,,,,,,['4bf58dd8d48988d151941735'],['Dining and Drinking > Restaurant > Mexican Restaurant > Taco Restaurant'],https://foursquare.com/placemakers/review-place/521d88b811d28bb9d7b9cf41,"b'\x00\x00\x00\x00\x01\xc0Yf\xf4\xde\xe7\x8c\x00@5\x14\x80""\x1f\xa1X'","{'xmin': -101.60869572269439, 'ymin': 21.080080158922414, 'xmax': -101.60869572269439, 'ymax': 21.080080158922414}",dining and drinking > restaurant > mexican restaurant > taco restaurant,1
547931ac498eaea3bebd9cba,Taquería Mercurio,20.528671,-100.830661,Mercurio #108,Celaya,Guanajuato,,,,,MX,2014-11-29,2014-11-29,,,,,,,,['4bf58dd8d48988d151941735'],['Dining and Drinking > Restaurant > Mexican Restaurant > Taco Restaurant'],https://foursquare.com/placemakers/review-place/547931ac498eaea3bebd9cba,b'\x00\x00\x00\x00\x01\xc0Y5)\x8c\xc1D\x03@4\x87V\xfb\x8fW\xf7',"{'xmin': -100.830661, 'ymin': 20.528671, 'xmax': -100.830661, 'ymax': 20.528671}",dining and drinking > restaurant > mexican restaurant > taco restaurant,1
4eff9de9f9abd5b3905f418b,Tacos El Marquez,18.466132239769625,-95.30177386833024,Plaza Cervantina,Santiago Tuxtla Veracruz,,,,,,MX,2011-12-31,2017-08-24,,,,,,,,['4bf58dd8d48988d151941735' '4bf58dd8d48988d1df931735'],"['Dining and Drinking > Restaurant > Mexican Restaurant > Taco Restaurant'
 'Dining and Drinking > Restaurant > BBQ Joint']",https://foursquare.com/placemakers/review-place/4eff9de9f9abd5b3905f418b,b'\x00\x00\x00\x00\x01\xc0W\xd3PCW\xd1\x03@2wTqEk\xf9',"{'xmin': -95.30177386833024, 'ymin': 18.466132239769625, 'xmax': -95.30177386833024, 'ymax': 18.466132239769625}","dining and drinking > restaurant > mexican restaurant > taco restaurant, dining and drinking > restaurant > bbq joint",1
57eb1ec7498ec4f18b447a66,Cenaduria El Torito Norteño,16.205821,-95.205033,,,,,,,,MX,2016-09-28,2016-09-28,,,,,,,,['4bf58dd8d48988d151941735'],['Dining and Drinking > Restaurant > Mexican Restaurant > Taco Restaurant'],https://foursquare.com/placemakers/review-place/57eb1ec7498ec4f18b447a66,b'\x00\x00\x00\x00\x01\xc0W\xcd\x1fB\xbbfs@04\xb0\xaf_\xd4|',"{'xmin': -95.205033, 'ymin': 16.205821, 'xmax': -95.205033, 'ymax': 16.205821}",dining and drinking > restaurant > mexican restaurant > taco restaurant,1
51831b1c498e95446229766b,Tacos Doña Tencha,18.949920577680007,-99.4963393292619,,,,,,,,MX,2013-05-03,2014-05-25,,,,,,,,['4bf58dd8d48988d151941735'],['Dining and Drinking > Restaurant > Mexican Restaurant > Taco Restaurant'],https://foursquare.com/placemakers/review-place/51831b1c498e95446229766b,b'\x00\x00\x00\x00\x01\xc0X\xdf\xc4\x06\x08\xb9\x80@2\xf3-\xfe\xb6\xee\xdd',"{'xmin': -99.4963393292619, 'ymin': 18.949920577680007, 'xmax': -99.4963393292619, 'ymax': 18.949920577680007}",dining and drinking > restaurant > mexican restaurant > taco restaurant,1
56f361d4498e5c83ae89505b,Los Braleros,20.512984,-100.82236,,,,,,,,MX,2016-03-24,2016-07-24,,,,,,,,['4bf58dd8d48988d151941735'],['Dining and Drinking > Restaurant > Mexican Restaurant > Taco Restaurant'],https://foursquare.com/placemakers/review-place/56f361d4498e5c83ae89505b,b'\x00\x00\x00\x00\x01\xc0Y4\xa1\x8b\xd6bx@4\x83R\xeb__\x0b',"{'xmin': -100.82236, 'ymin': 20.512984, 'xmax': -100.82236, 'ymax': 20.512984}",dining and drinking > restaurant > mexican restaurant > taco restaurant,1
500a2c47e4b0b8de347219ca,Taqueria Fer,19.305678049251654,-99.64985850845699,,,,,,,,MX,2012-07-21,2015-11-26,,,,,,,,['4bf58dd8d48988d151941735'],['Dining and Drinking > Restaurant > Mexican Restaurant > Taco Restaurant'],https://foursquare.com/placemakers/review-place/500a2c47e4b0b8de347219ca,b'\x00\x00\x00\x00\x01\xc0X\xe9\x97H$6h@3N@\xea\xa8\xa4\x14',"{'xmin': -99.64985850845699, 'ymin': 19.305678049251654, 'xmax': -99.64985850845699, 'ymax': 19.305678049251654}",dining and drinking > restaurant > mexican restaurant > taco restaurant,1
5585533e498e080168864e27,"Barbacoa ""El Flaco""",18.91900638172615,-103.87998403658887,,,,,,,,MX,2015-06-20,2017-07-19,,,,,,,,['4bf58dd8d48988d151941735'],['Dining and Drinking > Restaurant > Mexican Restaurant > Taco Restaurant'],https://foursquare.com/placemakers/review-place/5585533e498e080168864e27,b'\x00\x00\x00\x00\x01\xc0Y\xf8Q\xa8\x90\x89\xae@2\xebD\x00\x92T@',"{'xmin': -103.87998403658887, 'ymin': 18.91900638172615, 'xmax': -103.87998403658887, 'ymax': 18.91900638172615}",dining and drinking > restaurant > mexican restaurant > taco restaurant,1
4f0c5483e4b020a8d9869d89,Tacos canasta aurrera,19.289731214302712,-99.17389648265147,,Mexico DF,,,,,,MX,2012-01-10,2012-07-30,,,,,,,,['4bf58dd8d48988d151941735'],['Dining and Drinking > Restaurant > Mexican Restaurant > Taco Restaurant'],https://foursquare.com/placemakers/review-place/4f0c5483e4b020a8d9869d89,b'\x00\x00\x00\x00\x01\xc0X\xcb!\x1e\xb6x)@3J+\xd3*\x0f~',"{'xmin': -99.17389648265147, 'ymin': 19.289731214302712, 'xmax': -99.17389648265147, 'ymax': 19.289731214302712}",dining and drinking > restaurant > mexican restaurant > taco restaurant,1
5680425d498e44dfa45d34c3,Los Huaraches de Mary,20.515622148028946,-100.80404614522307,,,,,,,,MX,2015-12-27,2017-05-21,,,,,,,,['4bf58dd8d48988d151941735'],['Dining and Drinking > Restaurant > Mexican Restaurant > Taco Restaurant'],https://foursquare.com/placemakers/review-place/5680425d498e44dfa45d34c3,b'\x00\x00\x00\x00\x01\xc0Y3u}\xf6\x8dO@4\x83\xff\xd0&\xe0\xaa',"{'xmin': -100.80404614522307, 'ymin': 20.515622148028946, 'xmax': -100.80404614522307, 'ymax': 20.515622148028946}",dining and drinking > restaurant > mexican restaurant > taco restaurant,1
525f5c2511d252f2e8876173,tacos chicanucas,20.39005571719711,-101.18465144879512,,,,,,,,MX,2013-10-17,2017-06-29,,,,,,,,['4bf58dd8d48988d151941735'],['Dining and Drinking > Restaurant > Mexican Restaurant > Taco Restaurant'],https://foursquare.com/placemakers/review-place/525f5c2511d252f2e8876173,b'\x00\x00\x00\x00\x01\xc0YK\xd1TOn\xfb@4c\xda\xb1\x04\xfa\xbb',"{'xmin': -101.18465144879512, 'ymin': 20.39005571719711, 'xmax': -101.18465144879512, 'ymax': 20.39005571719711}",dining and drinking > restaurant > mexican restaurant > taco restaurant,1
5b5c82a0a5a315002c981bdb,Taquería Jelie,18.898142,-96.788086,,,,,,,,MX,2018-07-28,2018-07-28,,,,,,,,['4bf58dd8d48988d151941735'],['Dining and Drinking > Restaurant > Mexican Restaurant > Taco Restaurant'],https://foursquare.com/placemakers/review-place/5b5c82a0a5a315002c981bdb,b'\x00\x00\x00\x00\x01\xc0X2p\x00C\x1b\xdf@2\xe5\xec\xa2U)\xfe',"{'xmin': -96.788086, 'ymin': 18.898142, 'xmax': -96.788086, 'ymax': 18.898142}",dining and drinking > restaurant > mexican restaurant > taco restaurant,1
5002ba81e4b04c8e7567296d,Barbacoa Tepeyaucle Esquina Escuinapa,19.332810398667107,-99.17220954680087,Tepeyaucle,,,04369,,,,MX,2012-07-15,2017-11-05,,,,,,,,['4bf58dd8d48988d151941735'],['Dining and Drinking > Restaurant > Mexican Restaurant > Taco Restaurant'],https://foursquare.com/placemakers/review-place/5002ba81e4b04c8e7567296d,b'\x00\x00\x00\x00\x01\xc0X\xcb\x05{0\xe4f@3U3\x0f\xf2\x0b@',"{'xmin': -99.17220954680087, 'ymin': 19.332810398667107, 'xmax': -99.17220954680087, 'ymax': 19.332810398667107}",dining and drinking > restaurant > mexican restaurant > taco restaurant,1
5300060b498e07738b1afc7f,Tacos y Mariscos de la Torre,20.286983203248887,-103.19260290988302,,,,,,,,MX,2014-02-16,2019-11-17,,,,,,,,['4bf58dd8d48988d151941735'],['Dining and Drinking > Restaurant > Mexican Restaurant > Taco Restaurant'],https://foursquare.com/placemakers/review-place/5300060b498e07738b1afc7f,"b""\x00\x00\x00\x00\x01\xc0Y\xccS\x9b'\xc3\xf8@4Iw\xbb0t\x8e""","{'xmin': -103.19260290988302, 'ymin': 20.286983203248887, 'xmax': -103.19260290988302, 'ymax': 20.286983203248887}",dining and drinking > restaurant > mexican restaurant > taco restaurant,1
4fcade2be4b0ac24476127e0,Adan y Charito,19.166546446851363,-96.16708235395005,,,,,,,,MX,2012-06-03,2021-07-23,,,,,,,,['4bf58dd8d48988d151941735'],['Dining and Drinking > Restaurant > Mexican Restaurant > Taco Restaurant'],https://foursquare.com/placemakers/review-place/4fcade2be4b0ac24476127e0,b'\x00\x00\x00\x00\x01\xc0X\n\xb1z/}\x11@3*\xa2\xc9\xb6}\xda',"{'xmin': -96.16708235395005, 'ymin': 19.166546446851363, 'xmax': -96.16708235395005, 'ymax': 19.166546446851363}",dining and drinking > restaurant > mexican restaurant > taco restaurant,1
4fc84ec8e4b0681a47a75db5,La Parrilla Suiza,17.8041,-97.7816,,,,,,,,MX,2012-06-01,2025-01-04,,,,,,,,['4bf58dd8d48988d151941735'],['Dining and Drinking > Restaurant > Mexican Restaurant > Taco Restaurant'],https://foursquare.com/placemakers/review-place/4fc84ec8e4b0681a47a75db5,b'\x00\x00\x00\x00\x01\xc0Xr\x05\xbc\x01\xa3n@1\xcd\xd9\x7fb\xb6\xae',"{'xmin': -97.7816, 'ymin': 17.8041, 'xmax': -97.7816, 'ymax': 17.8041}",dining and drinking > restaurant > mexican restaurant > taco restaurant,1
5f34a33f81642e3ba6df49b8,Taquería Andrea,19.181938,-96.130026,,Veracruz,VER,91910,,,,MX,2020-08-13,2020-08-13,,,,,,,,['4bf58dd8d48988d151941735'],['Dining and Drinking > Restaurant > Mexican Restaurant > Taco Restaurant'],https://foursquare.com/placemakers/review-place/5f34a33f81642e3ba6df49b8,b'\x00\x00\x00\x00\x01\xc0X\x08RX\x92hM@3.\x93}\x1f\xe6O',"{'xmin': -96.130026, 'ymin': 19.181938, 'xmax': -96.130026, 'ymax': 19.181938}",dining and drinking > restaurant > mexican restaurant > taco restaurant,1
51524ff7e4b0ab87cbce2677,taqueria los soles,19.251619338989258,-99.60993957519531,,,,,,,,MX,2013-03-27,2014-08-19,,,,,,,,['4bf58dd8d48988d151941735'],['Dining and Drinking > Restaurant > Mexican Restaurant > Taco Restaurant'],https://foursquare.com/placemakers/review-place/51524ff7e4b0ab87cbce2677,b'\x00\x00\x00\x00\x01\xc0X\xe7\t@\x00\x00\x00@3@j \x00\x00\x00',"{'xmin': -99.60993957519531, 'ymin': 19.251619338989258, 'xmax': -99.60993957519531, 'ymax': 19.251619338989258}",dining and drinking > restaurant > mexican restaurant > taco restaurant,1
56d27a18498ef8ffbe0c2cc5,"Tacos ""El Cach""",20.393762230530573,-101.1864822888351,,,,,,,,MX,2016-02-28,2017-03-28,,,,,,,,['4bf58dd8d48988d151941735'],['Dining and Drinking > Restaurant > Mexican Restaurant > Taco Restaurant'],https://foursquare.com/placemakers/review-place/56d27a18498ef8ffbe0c2cc5,b'\x00\x00\x00\x00\x01\xc0YK\xefSh\xf5\x1e@4d\xcd\x99\xfe\x87a',"{'xmin': -101.1864822888351, 'ymin': 20.393762230530573, 'xmax': -101.1864822888351, 'ymax': 20.393762230530573}",dining and drinking > restaurant > mexican restaurant > taco restaurant,1
4efe25d55c5c51dd2cc7b28f,Barbacoa,19.320534556139176,-99.1053824918878,Manuela Medina,México,Distrito Federal,,,,,MX,2011-12-30,2018-06-09,,,,,,,,['4bf58dd8d48988d151941735'],['Dining and Drinking > Restaurant > Mexican Restaurant > Taco Restaurant'],https://foursquare.com/placemakers/review-place/4efe25d55c5c51dd2cc7b28f,b'\x00\x00\x00\x00\x01\xc0X\xc6\xbe\x965\x0e\xa9@3R\x0e\x8d{\xdb\x0b',"{'xmin': -99.1053824918878, 'ymin': 19.320534556139176, 'xmax': -99.1053824918878, 'ymax': 19.320534556139176}",dining and drinking > restaurant > mexican restaurant > taco restaurant,1
5d3fba1fabe9e50008a55592,Tacos Del Módulo De La Comisión Del Agua Potable,18.153577,-100.501392,,Ajuchitlán del Progreso,GRO,40730,,,,MX,2019-07-30,2019-07-30,,,,,,,,['4bf58dd8d48988d151941735'],['Dining and Drinking > Restaurant > Mexican Restaurant > Taco Restaurant'],https://foursquare.com/placemakers/review-place/5d3fba1fabe9e50008a55592,"b""\x00\x00\x00\x00\x01\xc0Y \x16\xcex\x9ew@2'P\xd2\x80j\xf4""","{'xmin': -100.501392, 'ymin': 18.153577, 'xmax': -100.501392, 'ymax': 18.153577}",dining and drinking > restaurant > mexican restaurant > taco restaurant,1
61133ac9349c3133beca3822,El Lobo Taqueria Jardines,19.301015,-99.208105,Carretera Picacho Ajusco 160 Local 14,Ciudad de México,CDMX,14210,,,,MX,2021-08-11,2021-08-11,,55 2615 8714,http://www.ellobotaqueria.com,,,tacoslobo,tacoslobo,['4bf58dd8d48988d151941735'],['Dining and Drinking > Restaurant > Mexican Restaurant > Taco Restaurant'],https://foursquare.com/placemakers/review-place/61133ac9349c3133beca3822,b'\x00\x00\x00\x00\x01\xc0X\xcdQ\x97\xa2H\x95@3M\x0fQ\xac\x9a\xfe',"{'xmin': -99.208105, 'ymin': 19.301015, 'xmax': -99.208105, 'ymax': 19.301015}",dining and drinking > restaurant > mexican restaurant > taco restaurant,1
57f90ed8498ed8acdc8a8df2,Barbacoa Daniel,19.268602,-99.53197,,,,,,,,MX,2016-10-08,2018-12-26,,,,,,,,['4bf58dd8d48988d151941735'],['Dining and Drinking > Restaurant > Mexican Restaurant > Taco Restaurant'],https://foursquare.com/placemakers/review-place/57f90ed8498ed8acdc8a8df2,b'\x00\x00\x00\x00\x01\xc0X\xe2\x0b\xcb\xe6\x1d\x00@3D\xc3\x19\xc5\xa3\xe4',"{'xmin': -99.53197, 'ymin': 19.268602, 'xmax': -99.53197, 'ymax': 19.268602}",dining and drinking > restaurant > mexican restaurant > taco restaurant,1
4f5ccadfe4b07bddef7ad8fa,Lunitacos,19.290452835124995,-99.17655672275738,,,,,,,,MX,2012-03-11,2014-05-22,,,,,,,,['4bf58dd8d48988d151941735'],['Dining and Drinking > Restaurant > Mexican Restaurant > Taco Restaurant'],https://foursquare.com/placemakers/review-place/4f5ccadfe4b07bddef7ad8fa,b'\x00\x00\x00\x00\x01\xc0X\xcbL\xb4\x91\x88q@3J[\x1d\xf3\xe4p',"{'xmin': -99.17655672275738, 'ymin': 19.290452835124995, 'xmax': -99.17655672275738, 'ymax': 19.290452835124995}",dining and drinking > restaurant > mexican restaurant > taco restaurant,1
5498502b498e736b8c126ea8,Tacos El Rey,21.106579,-101.698883,,,,,,,,MX,2014-12-22,2018-04-07,,81 8141 0160,,,,,,['4bf58dd8d48988d151941735'],['Dining and Drinking > Restaurant > Mexican Restaurant > Taco Restaurant'],https://foursquare.com/placemakers/review-place/5498502b498e736b8c126ea8,b'\x00\x00\x00\x00\x01\xc0Yl\xba\x7f\xc3.\xbe@5\x1bH\xc2\xe7p\xbd',"{'xmin': -101.698883, 'ymin': 21.106579, 'xmax': -101.698883, 'ymax': 21.106579}",dining and drinking > restaurant > mexican restaurant > taco restaurant,1
57e002c2498e3037b905b26a,Tacos de Barbacoa & Antojitos Mexicanos El Profe,19.70530906603271,-103.46625566482543,Lic Benito Juárez 74,Ciudad Guzmán,Jalisco,49000,,,,MX,2016-09-19,2022-07-13,,341 412 1875,,,,,,['4bf58dd8d48988d151941735'],['Dining and Drinking > Restaurant > Mexican Restaurant > Taco Restaurant'],https://foursquare.com/placemakers/review-place/57e002c2498e3037b905b26a,"b'\x00\x00\x00\x00\x01\xc0Y\xdd\xd7!\xff\xff\xff@3\xb4\x8f""\x8c.\xcc'","{'xmin': -103.46625566482543, 'ymin': 19.70530906603271, 'xmax': -103.46625566482543, 'ymax': 19.70530906603271}",dining and drinking > restaurant > mexican restaurant > taco restaurant,1
5353357f498e9488312d5f26,Taqueria Ayala,20.06502,-102.724161,,,,,,,,MX,2014-04-20,2016-10-11,,,,,,,,['4bf58dd8d48988d151941735'],['Dining and Drinking > Restaurant > Mexican Restaurant > Taco Restaurant'],https://foursquare.com/placemakers/review-place/5353357f498e9488312d5f26,b'\x00\x00\x00\x00\x01\xc0Y\xaeX\xa7a\x02y@4\x10\xa5&\x95\x95\xff',"{'xmin': -102.724161, 'ymin': 20.06502, 'xmax': -102.724161, 'ymax': 20.06502}",dining and drinking > restaurant > mexican restaurant > taco restaurant,1
53251c5c498ec73ee4e91f61,LOS TACOTES,19.11695773609747,-96.10620399751421,Vía Muerta,,,,,,,MX,2014-03-16,2014-07-14,,,,,,,,['4bf58dd8d48988d151941735'],['Dining and Drinking > Restaurant > Mexican Restaurant > Taco Restaurant'],https://foursquare.com/placemakers/review-place/53251c5c498ec73ee4e91f61,b'\x00\x00\x00\x00\x01\xc0X\x06\xcc\x0b\xda\x01\xcb@3\x1d\xf0\xf13\x8d\x86',"{'xmin': -96.10620399751421, 'ymin': 19.11695773609747, 'xmax': -96.10620399751421, 'ymax': 19.11695773609747}",dining and drinking > restaurant > mexican restaurant > taco restaurant,1
4d8e166a5091a1cdc7048701,Tacos de Canasta del Tec,19.286023908725674,-99.13673169766449,,,,,,,,MX,2011-03-26,2024-12-18,,,,,,,,['4bf58dd8d48988d151941735'],['Dining and Drinking > Restaurant > Mexican Restaurant > Taco Restaurant'],https://foursquare.com/placemakers/review-place/4d8e166a5091a1cdc7048701,b'\x00\x00\x00\x00\x01\xc0X\xc8\xc06Nr\xea@3I8\xdc\xe5\xd9\xd2',"{'xmin': -99.13673169766449, 'ymin': 19.286023908725674, 'xmax': -99.13673169766449, 'ymax': 19.286023908725674}",dining and drinking > restaurant > mexican restaurant > taco restaurant,1
567b76cd498e1d6a147def98,Tacos el Torito,20.541046,-102.793088,Calle Hidalgo Frente A La Plaza,Tototlan,Jalisco,,,,,MX,2015-12-24,2019-11-11,,,,,,,,['4bf58dd8d48988d151941735'],['Dining and Drinking > Restaurant > Mexican Restaurant > Taco Restaurant'],https://foursquare.com/placemakers/review-place/567b76cd498e1d6a147def98,b'\x00\x00\x00\x00\x01\xc0Y\xb2\xc1\xf4+\xb6g@4\x8a\x81\xfd\x9b\xa1\xb2',"{'xmin': -102.793088, 'ymin': 20.541046, 'xmax': -102.793088, 'ymax': 20.541046}",dining and drinking > restaurant > mexican restaurant > taco restaurant,1
601ee66998aa6840c1a66a1c,Mingos Obispo Artesanal de Tenancingo,19.281459,-99.667648,Horacio Zuñiga 826 C-2,Toluca de Lerdo,Edomex,50120,,,,MX,2021-02-06,2021-02-06,,,,,,,,['4bf58dd8d48988d151941735'],['Dining and Drinking > Restaurant > Mexican Restaurant > Taco Restaurant'],https://foursquare.com/placemakers/review-place/601ee66998aa6840c1a66a1c,b'\x00\x00\x00\x00\x01\xc0X\xea\xba\xbe\xadOY@3H\r\xb2p*5',"{'xmin': -99.667648, 'ymin': 19.281459, 'xmax': -99.667648, 'ymax': 19.281459}",dining and drinking > restaurant > mexican restaurant > taco restaurant,1
4fdbe3eae4b07b2b8643f1c3,Antojitos mexicanos Tere,19.310358019590335,-99.10321620929128,,,,,,,,MX,2012-06-16,2016-09-13,,,,,,,,['4bf58dd8d48988d151941735'],['Dining and Drinking > Restaurant > Mexican Restaurant > Taco Restaurant'],https://foursquare.com/placemakers/review-place/4fdbe3eae4b07b2b8643f1c3,b'\x00\x00\x00\x00\x01\xc0X\xc6\x9b\x18(\xd4\xae@3Os\x9f\x881\x1b',"{'xmin': -99.10321620929128, 'ymin': 19.310358019590335, 'xmax': -99.10321620929128, 'ymax': 19.310358019590335}",dining and drinking > restaurant > mexican restaurant > taco restaurant,1
55f09908498e7077e12c990e,El Sabor de mi Pueblo,19.312069219313816,-99.57280550780423,,,,,,,,MX,2015-09-09,2015-09-09,,,,,,,,['4bf58dd8d48988d151941735'],['Dining and Drinking > Restaurant > Mexican Restaurant > Taco Restaurant'],https://foursquare.com/placemakers/review-place/55f09908498e7077e12c990e,b'\x00\x00\x00\x00\x01\xc0X\xe4\xa8\xd8n\xbf9@3O\xe3\xc4\xb3\n\x85',"{'xmin': -99.57280550780423, 'ymin': 19.312069219313816, 'xmax': -99.57280550780423, 'ymax': 19.312069219313816}",dining and drinking > restaurant > mexican restaurant > taco restaurant,1
5032eeafe4b056516dcc8fe9,Tacos El Cuñado,20.45238076924934,-101.52262719469657,,,,,,,,MX,2012-08-21,2016-04-18,,,,,,,,['4bf58dd8d48988d151941735'],['Dining and Drinking > Restaurant > Mexican Restaurant > Taco Restaurant'],https://foursquare.com/placemakers/review-place/5032eeafe4b056516dcc8fe9,b'\x00\x00\x00\x00\x01\xc0Yar\xb9UN5@4s\xcf9\xe1C\xe7',"{'xmin': -101.52262719469657, 'ymin': 20.45238076924934, 'xmax': -101.52262719469657, 'ymax': 20.45238076924934}",dining and drinking > restaurant > mexican restaurant > taco restaurant,1
58ed2132ea1c0d560ece8521,Taquería San Gabriel,18.45868,-96.354925,,Tierra Blanca,VER,95193,,,,MX,2017-04-11,2023-11-26,,,,,,,,['4bf58dd8d48988d151941735'],['Dining and Drinking > Restaurant > Mexican Restaurant > Taco Restaurant'],https://foursquare.com/placemakers/review-place/58ed2132ea1c0d560ece8521,b'\x00\x00\x00\x00\x01\xc0X\x16\xb7\x17X\xe2\x19@2ul\roTL',"{'xmin': -96.354925, 'ymin': 18.45868, 'xmax': -96.354925, 'ymax': 18.45868}",dining and drinking > restaurant > mexican restaurant > taco restaurant,1
526c1a1311d2c10669f5f53a,Memelas de Doña Rosita,17.082367678015917,-96.74277923119718,Marquesado No. 200,Oaxaca de Juárez,,68030,,,,MX,2013-10-26,2022-05-09,,,,,,,,['4bf58dd8d48988d151941735'],['Dining and Drinking > Restaurant > Mexican Restaurant > Taco Restaurant'],https://foursquare.com/placemakers/review-place/526c1a1311d2c10669f5f53a,b'\x00\x00\x00\x00\x01\xc0X/\x89\xb1\xe6\x88\xf4@1\x15\x16\x0cSSi',"{'xmin': -96.74277923119718, 'ymin': 17.082367678015917, 'xmax': -96.74277923119718, 'ymax': 17.082367678015917}",dining and drinking > restaurant > mexican restaurant > taco restaurant,1
56c3f51dcd1094a5d44a8fab,Tacos por El Surtidor,19.193735,-96.13793,Cortés esquina Hidalgo,Veracruz,Veracruz,,,,,MX,2016-02-17,2017-10-02,,,,,,,,['4bf58dd8d48988d151941735'],['Dining and Drinking > Restaurant > Mexican Restaurant > Taco Restaurant'],https://foursquare.com/placemakers/review-place/56c3f51dcd1094a5d44a8fab,b'\x00\x00\x00\x00\x01\xc0X\x08\xd3\xd8Y\xc8\xc9@31\x98\x9d\xf1\x17/',"{'xmin': -96.13793, 'ymin': 19.193735, 'xmax': -96.13793, 'ymax': 19.193735}",dining and drinking > restaurant > mexican restaurant > taco restaurant,1
4f5ce015e4b0b28dd534981f,Barbacoa Renato Leduc,19.296431,-99.159143,,,,,,,,MX,2012-03-11,2017-09-02,,,,,,,,['4bf58dd8d48988d151941735'],['Dining and Drinking > Restaurant > Mexican Restaurant > Taco Restaurant'],https://foursquare.com/placemakers/review-place/4f5ce015e4b0b28dd534981f,b'\x00\x00\x00\x00\x01\xc0X\xca/f\x1f\x18\xca@3K\xe2\xe6\xea\x85D',"{'xmin': -99.159143, 'ymin': 19.296431, 'xmax': -99.159143, 'ymax': 19.296431}",dining and drinking > restaurant > mexican restaurant > taco restaurant,1
